機構代碼,機構名稱,權屬別,型態別,縣市鄉鎮,電話,地址,診療科別,經度,緯度
3846011179,道民中醫診所,私立中醫診所,中醫一般診所,臺東縣台東市,089/323991,臺東縣台東市開封街449號,,22.7634285,121.1430812
3846011197,大春中醫診所,私立中醫診所,中醫一般診所,臺東縣台東市,89355125,臺東縣台東市中華路二段一七六號,,22.7443613,121.1381288
3846011222,陳靜婉中醫診所,私立中醫診所,中醫一般診所,臺東縣台東市,089-331812,臺東縣台東市中正路271號,,22.7560638,121.153002
3846011231,景春中醫診所,私立中醫診所,中醫診所,臺東縣台東市,089-359629,臺東縣台東市中正路222號,,22.7552026,121.1543027
3846011268,普賢中醫診所,私立中醫診所,中醫診所,臺東縣台東市,089-516885,臺東縣台東市知本路三段583號,,22.7069102,121.0432424
3846021022,宏霖中醫診所,私立中醫診所,中醫一般診所,臺東縣成功鎮,089-852553,臺東縣成功鎮三民路三二號,,23.1014783,121.3699881
3846101052,福壽堂中醫診所,私立中醫診所,中醫一般診所,臺東縣池上鄉,089-863666,臺東縣池上鄉新生路一三四號,,23.1233215,121.2189202
3890010020,弘恩中醫診所,私立中醫診所,中醫一般診所,金門縣金城鎮,82323705,金門縣金城鎮民生路１５－３號,,24.4340514,118.3198111
3890011036,廣濟中醫診所,私立中醫診所,中醫一般診所,金門縣金城鎮,82325915,金門縣金城鎮浯江路19號,,24.426086,118.3255764
4001020019,基督復臨安息日會醫療財團法人臺安診所,醫療財團法人診所,西醫診所,臺北市大安區,2700-2899,臺北市大安區敦化南路二段76號11樓,"家庭醫學科,內科,",25.02923,121.5481706
4101200019,有全醫療社團法人景美牙醫診所,醫療社團法人診所,牙醫診所,臺北市文山區,29339793,臺北市文山區景美街20號3樓,,24.991396,121.541818
4101200028,有全醫療社團法人木柵101牙醫診所,醫療社團法人診所,牙醫診所,臺北市文山區,29396081,臺北市文山區木新路三段168號3樓,,24.9819051,121.5608657
4102050013,和平醫療社團法人章玟琇中醫診所,醫療社團法人診所,中醫診所,高雄市三民區,07-3874234,高雄市三民區九如一路171號1樓,,22.636843,120.339442
4102071021,阮綜合醫療社團法人上順診所,醫療社團法人診所,西醫診所,高雄市前金區,07-2725227,高雄市前金區市中一路225號3樓,,22.6304356,120.28929
4131050027,有全醫療社團法人有全牙醫診所,醫療社團法人診所,牙醫診所,新北市新店區,229101388,新北市新店區北新路二段164號1樓,,24.9756199,121.543129
3843070023,世昌中醫診所,私立中醫診所,中醫一般診所,屏東縣麟洛鄉,08 7211111,屏東縣麟洛鄉民權路9號,,22.6518911,120.526119
3843091059,聖德昌中醫診所,私立中醫診所,中醫一般診所,屏東縣里港鄉,08-7757998,屏東縣里港鄉中山路102號,,22.778972,120.4944711
3843100017,大仁中醫診所,私立中醫診所,中醫一般診所,屏東縣鹽埔鄉,08 7935395,屏東縣鹽埔鄉新二村維新路５２之３號,,22.7383507,120.5548281
3843130079,銓泰中醫診所,私立中醫診所,中醫一般診所,屏東縣內埔鄉,08-7790095,屏東縣內埔鄉南寧路２０９號,,22.6197404,120.5617822
3843131129,平安中醫診所,私立中醫診所,中醫診所,屏東縣內埔鄉,8.7693116,屏東縣內埔鄉南寧路１９６號,,22.6198412,120.5620845
3843161047,崇益中醫診所,私立中醫診所,中醫一般診所,屏東縣枋寮鄉,08-8780351,屏東縣枋寮鄉中山路246-5號,,22.3633656,120.5979559
3843161056,惠鳴中醫診所,私立中醫診所,中醫一般診所,屏東縣枋寮鄉,08-8717166,屏東縣枋寮鄉中山路二段250號,,22.383909,120.59504
3843201028,振德中醫診所,私立中醫診所,中醫一般診所,屏東縣南州鄉,08-8646699,屏東縣南州鄉仁里村人和路52號,,22.489204,120.509975
3843211024,張世材中醫診所,私立中醫診所,中醫診所,屏東縣佳冬鄉,8.8665665,屏東縣佳冬鄉石光村中山路150號,,22.434885,120.5627927
3842011931,立群中醫診所,私立中醫診所,中醫一般診所,高雄市鳳山區,07-7616908,高雄市鳳山區五甲二路365號,,22.5979704,120.336083
3842011940,長榮中醫診所,私立中醫診所,中醫一般診所,高雄市鳳山區,8226874,高雄市鳳山區五甲二路566、568號,,22.5962746,120.3330117
3842012036,多寶中醫診所,私立中醫診所,中醫一般診所,高雄市鳳山區,07-7197883,高雄市鳳山區經武路二七一號,,22.6376559,120.3641857
3842012045,建安中醫診所,私立中醫診所,中醫一般診所,高雄市鳳山區,8311119,高雄市鳳山區五甲二路五五三號,,22.59573,120.33175
3842012063,尚揚中醫診所,私立中醫診所,中醫一般診所,高雄市鳳山區,07-7775280,高雄市鳳山區文安街26號,,22.6424029,120.3478427
3842012214,心香中醫診所,私立中醫診所,中醫一般診所,高雄市鳳山區,07-7808308,高雄市鳳山區八德路二段222號,,22.6456292,120.352976
3842012232,順德中醫診所,私立中醫診所,中醫一般診所,高雄市鳳山區,07-7651256,高雄市鳳山區新富路292號1樓,,22.6126807,120.3418333
3842012250,甘草堂中醫診所,私立中醫診所,中醫一般診所,高雄市鳳山區,7806262,高雄市鳳山區文化西路1號及3號1、2樓,,22.6348014,120.3496537
3842012367,齊祥中醫診所,私立中醫診所,中醫診所,高雄市鳳山區,07-7803333,高雄市鳳山區青年路二段269號,,22.6386582,120.3508044
3841310266,吉祥中醫聯合診所,私立中醫診所,中醫一般診所,臺南市永康區,06 2330973,臺南市永康區埔園里龍埔街４７２號,,23.035032,120.256861
3841310300,大千中醫診所,私立中醫診所,中醫一般診所,臺南市永康區,06 2013437,臺南市永康區復華里復國一路501號,,23.0155776,120.2442958
3841310319,志勇中醫聯合診所,私立中醫診所,中醫一般診所,臺南市永康區,06 2051878,臺南市永康區大灣里大灣路30２號,,23.0068693,120.2672383
3841311361,健宏中醫聯合診所,私立中醫診所,中醫一般診所,臺南市永康區,2317819,臺南市永康區埔園里四維街二號,,23.031157,120.2532944
3841311389,忠義中醫聯合診所,私立中醫診所,中醫一般診所,臺南市永康區,06-2534937,臺南市永康區蔦松里蔦松一街29號,,23.044079,120.2583858
3841311441,同心堂中醫診所,私立中醫診所,中醫一般診所,臺南市永康區,06-2040218,臺南市永康區永康里永大路二段一一六二號,,23.019713,120.2623173
3841311450,永生中醫診所,私立中醫診所,中醫一般診所,臺南市永康區,06 2081555,臺南市永康區六合里中華二路三二六號,,23.008544,120.2316704
3841311487,江銘酌中醫診所,私立中醫診所,中醫一般診所,臺南市永康區,06-3026670,臺南市永康區五王里振興路88號1樓,,23.0121382,120.2348624
3841311521,王建發中醫診所,私立中醫診所,中醫一般診所,臺南市永康區,06-2331213,臺南市永康區網寮里文化路三六九號,,23.0155961,120.2521293
3841311567,千祥中醫診所,私立中醫診所,中醫一般診所,臺南市永康區,06-3027116,臺南市永康區大橋里大橋二街二二一號,,23.0206998,120.2300279
3841311665,劉俊良中醫診所,私立中醫診所,中醫一般診所,臺南市永康區,06-2730279,臺南市永康區崑山里永大路二段11號,,23.001431,120.259544
3839011392,重德中醫診所,私立中醫診所,中醫一般診所,雲林縣斗六市,5322900,雲林縣斗六市成功路407號,,23.705797,120.55063
3839011409,新生中醫診所,私立中醫診所,中醫診所,雲林縣斗六市,922328273,雲林縣斗六市六合街97號,,23.705792,120.538023
3839011418,安賢中醫診所,私立中醫診所,中醫診所,雲林縣斗六市,05-5362968,雲林縣斗六市上海路136號1樓,,23.7129061,120.5390571
3839011427,東方中醫診所,私立中醫診所,中醫診所,雲林縣斗六市,5361010,雲林縣斗六市中山路339-1號1樓,,23.700666,120.538622
3839020015,乾光中醫診所,私立中醫診所,中醫一般診所,雲林縣斗南鎮,55976072,雲林縣斗南鎮埤麻里２４號,,23.6833004,120.4496172
3839020033,信安中醫診所,私立中醫診所,中醫一般診所,雲林縣斗南鎮,05 5977717,雲林縣斗南鎮民權路６之１號,,23.674112,120.479576
3839020079,聖德中醫診所,私立中醫診所,中醫一般診所,雲林縣斗南鎮,05 5971955,雲林縣斗南鎮南昌西路52-1號,,23.6724426,120.4757411
3839020097,狀元堂中醫診所,私立中醫診所,中醫一般診所,雲林縣斗南鎮,05 5963633,雲林縣斗南鎮明昌里延平路二段４７８號,,23.6737012,120.4760489
3839020113,國際中醫診所,私立中醫診所,中醫一般診所,雲林縣斗南鎮,05 5968379,雲林縣斗南鎮民權路31號,,23.673751,120.478732
3839021156,大春堂中醫診所,私立中醫診所,中醫一般診所,雲林縣斗南鎮,05-5960629,雲林縣斗南鎮明昌里中正路二四五號,,23.676261,120.4755
3839030011,豐生中醫診所,私立中醫診所,中醫一般診所,雲林縣虎尾鎮,05 6321235,雲林縣虎尾鎮德興路120號,,23.7124146,120.4300054
3839030066,太和堂中醫診所,私立中醫診所,中醫一般診所,雲林縣虎尾鎮,56323070,雲林縣虎尾鎮工專路６５號,,23.700552,120.425407
3839030146,佳樟中醫診所,私立中醫診所,中醫一般診所,雲林縣虎尾鎮,05 6321121,雲林縣虎尾鎮光復路２００號,,23.709725,120.443531
3839030155,明德堂中醫診所,私立中醫診所,中醫一般診所,雲林縣虎尾鎮,05 6337876,雲林縣虎尾鎮東仁里民族路23-2、23-3號,,23.7114462,120.4411897
3839030173,立仁中醫診所,私立中醫診所,中醫一般診所,雲林縣虎尾鎮,05 6322978,雲林縣虎尾鎮立仁街十五號,,23.706573,120.429183
3839030182,宏儒中醫診所,私立中醫診所,中醫一般診所,雲林縣虎尾鎮,05-6321120,雲林縣虎尾鎮新興里光復路309號,,23.7097951,120.4402145
3839031205,張中醫診所,私立中醫診所,中醫一般診所,雲林縣虎尾鎮,05-6364443,雲林縣虎尾鎮和平路21之2號1樓,,23.709315,120.438089
3839031303,東方虎尾中醫診所,私立中醫診所,中醫一般診所,雲林縣虎尾鎮,05-6364978,雲林縣虎尾鎮中正路329號,,23.7040581,120.4295079
3839031330,南光中醫診所,私立中醫診所,中醫診所,雲林縣虎尾鎮,05-6364669,雲林縣虎尾鎮林森路一段416巷23號,,23.7112382,120.4345655
3839031349,辰欣中醫診所,私立中醫診所,中醫診所,雲林縣虎尾鎮,,雲林縣虎尾鎮中山里中山路62號,,23.7078133,120.4344728
3839040035,復春中醫診所,私立中醫診所,中醫一般診所,雲林縣西螺鎮,55868225,雲林縣西螺鎮光復西路１２０號,,23.7970725,120.461913
3839040053,成功中醫診所,私立中醫診所,中醫一般診所,雲林縣西螺鎮,55862304,雲林縣西螺鎮平和路１８５號,,23.8006684,120.4585727
3839040062,建成中醫診所,私立中醫診所,中醫一般診所,雲林縣西螺鎮,,雲林縣西螺鎮延平路400.402號1樓,,23.800864,120.455561
3838020075,冠雲中醫診所,私立中醫診所,中醫一般診所,南投縣埔里鎮,049-2987150,南投縣埔里鎮中山路二段３５１號,,23.9642752,120.9665978
3838020093,武進中醫診所,私立中醫診所,中醫專科診所,南投縣埔里鎮,049-2984973,南投縣埔里鎮中山路二段２１１號,,23.967487,120.970216
3838020119,十方中醫診所,私立中醫診所,中醫一般診所,南投縣埔里鎮,049-2996279,南投縣埔里鎮西安路一段３３５號,,23.9731237,120.9695033
3838020128,濟生中醫診所,私立中醫診所,中醫一般診所,南投縣埔里鎮,049-2900719,南投縣埔里鎮中正路４３５號,,23.965756,120.966503
3838021161,大眾中醫診所,私立中醫診所,中醫一般診所,南投縣埔里鎮,049-2995333,南投縣埔里鎮南昌街202號,,23.9658342,120.9652385
3838021198,隆昇中醫診所,私立中醫診所,中醫一般診所,南投縣埔里鎮,049-2998003,南投縣埔里鎮隆生路81號,,23.9592045,120.9675454
3838021223,元濟中醫診所,私立中醫診所,中醫一般診所,南投縣埔里鎮,049-2906386,南投縣埔里鎮中正路531號二樓,,23.9700343,120.9638698
3838021241,普仁中醫診所,私立中醫診所,中醫診所,南投縣埔里鎮,049-2930373,南投縣埔里鎮東峰路19號,,24.0028121,120.9456044
3838030026,明山中醫診所,私立中醫診所,中醫專科診所,南投縣草屯鎮,049-2334377,南投縣草屯鎮炎峰街１７號,,23.9801276,120.6863963
3838030071,蒼生中醫診所,私立中醫診所,中醫一般診所,南投縣草屯鎮,049-2334747,南投縣草屯鎮草溪路９５９號,,23.9759202,120.680966
3838030213,北大中醫診所,私立中醫診所,中醫一般診所,南投縣草屯鎮,049-2356279,南投縣草屯鎮中山街466號,,23.9838595,120.6837211
3838030277,佳仁堂中醫診所,私立中醫診所,中醫一般診所,南投縣草屯鎮,049-2320938,南投縣草屯鎮中正路６８５號,,23.979737,120.684225
3837081154,豐田中醫診所,私立中醫診所,中醫一般診所,彰化縣二林鎮,04 8957909,彰化縣二林鎮豐田里大成路一段59號、59-1號,,23.9002389,120.3727854
3837081181,德桂中醫診所,私立中醫診所,中醫一般診所,彰化縣二林鎮,04 8958388,彰化縣二林鎮豐田里南安路30號,,23.8986505,120.3742911
3837091034,品豪中醫診所,私立中醫診所,中醫診所,彰化縣線西鄉,04-7585999,彰化縣線西鄉沿海路一段８１２之１號,,24.13355,120.463185
3837100010,洪華慶中醫診所,私立中醫診所,中醫一般診所,彰化縣伸港鄉,04 7987302,彰化縣伸港鄉新港村（路）１２３巷９號,,24.1447318,120.4878595
3837100029,陳增智中醫診所,私立中醫診所,中醫一般診所,彰化縣伸港鄉,47990790,彰化縣伸港鄉新港村忠孝路２５號,,24.14852,120.485902
3837101080,榮脩中醫診所,私立中醫診所,中醫診所,彰化縣伸港鄉,04-7985377,彰化縣伸港鄉中山路６５號,,24.1472395,120.4852752
3837111059,暘谷堂中醫診所,私立中醫診所,中醫一般診所,彰化縣福興鄉,04 7749388,彰化縣福興鄉橋頭村復興路一一二之一號,,24.0523695,120.4388988
3837121064,昌德中醫診所,私立中醫診所,中醫一般診所,彰化縣秀水鄉,47691539,彰化縣秀水鄉福安村中山路五二九號,,24.0326859,120.4968418
3837121073,祥賀中醫診所,私立中醫診所,中醫一般診所,彰化縣秀水鄉,47699768,彰化縣秀水鄉中山路335號,,24.0345499,120.501002
3837121082,佶昌中醫診所,私立中醫診所,中醫一般診所,彰化縣秀水鄉,04 7692547,彰化縣秀水鄉彰水路二段三號,,24.0203392,120.4900842
3837130063,顧安中醫診所,私立中醫診所,中醫一般診所,彰化縣花壇鄉,47875859,彰化縣花壇鄉北口村中山路二段６３６號一、二樓,,24.0445269,120.534063
3837131079,佳仁堂中醫診所,私立中醫診所,中醫一般診所,彰化縣花壇鄉,47880251,彰化縣花壇鄉中山路二段六十、六十二號,,24.0394297,120.5351818
3837131097,彰芳中醫診所,私立中醫診所,中醫一般診所,彰化縣花壇鄉,04 7879978,彰化縣花壇鄉中山路二段五五一號,,24.041457,120.534425
3837140023,濟生中醫診所,私立中醫診所,中醫一般診所,彰化縣芬園鄉,49521756,彰化縣芬園鄉社口村清水路四十六號,,24.0146918,120.6301609
3837140041,存德中醫診所,私立中醫診所,中醫一般診所,彰化縣芬園鄉,49522452,彰化縣芬園鄉社口村芬草路二段２８４巷９號,,24.0141224,120.6294141
3837041089,人和堂中醫診所,私立中醫診所,中醫一般診所,彰化縣北斗鎮,04-8889138,彰化縣北斗鎮後溪巷9號1樓,,23.8822772,120.5291925
3837041098,寶田中醫診所,私立中醫診所,中醫一般診所,彰化縣北斗鎮,04-8872153,彰化縣北斗鎮中華路260號,,23.8730481,120.5222297
3837041105,勢登中醫診所,私立中醫診所,中醫診所,彰化縣北斗鎮,04-8872347,彰化縣北斗鎮斗苑路一段９４號,,23.872576,120.526151
3837050033,進安中醫診所,私立中醫診所,中醫一般診所,彰化縣員林市,04 8329311,彰化縣員林市中正路１３２號,,23.9524445,120.5757604
3837050042,邱利生內科外科中醫診所,私立中醫診所,中醫專科診所,彰化縣員林市,04 8321321,彰化縣員林市中正路２４７號,,23.9544919,120.574203
3837050097,順規中醫診所,私立中醫診所,中醫一般診所,彰化縣員林市,04 8320421,彰化縣員林市惠來里光明南街47號1樓,,23.9506408,120.5731864
3837050122,萬德堂中醫診所,私立中醫診所,中醫一般診所,彰化縣員林市,04 8359395,彰化縣員林市莒光路３７０號,,23.960573,120.566971
3837050168,建安中醫診所,私立中醫診所,中醫專科診所,彰化縣員林市,04 8321130,彰化縣員林市中正路２９７、２９９號一樓,,23.955688,120.573534
3837050186,許文輝中醫診所,私立中醫診所,中醫一般診所,彰化縣員林市,04 8326909,彰化縣員林市民生里永昌街７號,,23.9534577,120.5770746
3837050202,順星中醫診所,私立中醫診所,中醫一般診所,彰化縣員林市,04 8354502,彰化縣員林市育英路５８０號,,23.968573,120.573904
3837050239,昇德中醫診所,私立中醫診所,中醫一般診所,彰化縣員林市,04 8355455,彰化縣員林市中山南路７６號,,23.9542929,120.570875
3837050266,健元中醫診所,私立中醫診所,中醫一般診所,彰化縣員林市,04 8360770,彰化縣員林市靜修路６２號,,23.9620659,120.567329
3837050319,王叔貞中醫診所,私立中醫診所,中醫一般診所,彰化縣員林市,48353033,彰化縣員林市三和里實踐街５８號,,23.9660286,120.5792743
3845011559,廣泰中醫診所,私立中醫診所,中醫一般診所,花蓮縣花蓮市,8355309,花蓮縣花蓮市中原路468號,,23.970582,121.5982154
3845011577,莊瓊貴中醫診所,私立中醫診所,中醫診所,花蓮縣花蓮市,03-8332277,花蓮縣花蓮市復興街126號,,23.9836492,121.6050097
3845011586,仁濟中醫診所,私立中醫診所,中醫診所,花蓮縣花蓮市,03-8356669,花蓮縣花蓮市中正路43號,,23.9694851,121.5953686
3845011595,國烈中醫診所,私立中醫診所,中醫診所,花蓮縣花蓮市,03-8315188,花蓮縣花蓮市商校街100號1樓,,23.9876703,121.603132
3845030018,杏林中醫診所,私立中醫診所,中醫一般診所,花蓮縣玉里鎮,03-8885582,花蓮縣玉里鎮光復路170號,,23.3315967,121.3128488
3845031033,廣修堂中醫診所,私立中醫診所,中醫一般診所,花蓮縣玉里鎮,8882211,花蓮縣玉里鎮中正路72號,,23.3332167,121.3159059
3845040514,嘉德中醫診所,私立中醫診所,中醫一般診所,花蓮縣新城鄉,03-8262192,花蓮縣新城鄉福德路1號,,24.0158592,121.6101108
3845050047,藍啟文中醫診所,私立中醫診所,中醫一般診所,花蓮縣吉安鄉,38362888,花蓮縣吉安鄉莊敬路２３５號,,23.990279,121.5929781
3845051071,黃世傑中醫診所,私立中醫診所,中醫一般診所,花蓮縣吉安鄉,8461161,花蓮縣吉安鄉建國路一段六一號,,23.9850297,121.5946331
3845051080,陳中醫診所,私立中醫診所,中醫一般診所,花蓮縣吉安鄉,03-8524635,花蓮縣吉安鄉中山路三段二七六號,,23.977922,121.57125
3845091020,廣濟堂中醫診所,私立中醫診所,中醫一般診所,花蓮縣瑞穗鄉,03-8876353,花蓮縣瑞穗鄉國光北路39號,,23.497642,121.379577
3846010038,冠惠中醫診所,私立中醫診所,中醫一般診所,臺東縣台東市,89328379,臺東縣台東市更生路８號,,22.755416,121.1516075
3846010047,金雞堂中醫診所,私立中醫診所,中醫一般診所,臺東縣台東市,89328825,臺東縣台東市寶桑路１６２號,,22.7553176,121.15572
3846010056,賜安中醫診所,私立中醫診所,中醫一般診所,臺東縣台東市,89328979,臺東縣台東市中山路３５４號,,22.7537015,121.1489689
3846010118,一心堂中醫診所,私立中醫診所,中醫診所,臺東縣台東市,089-221788,臺東縣台東市傳廣路474號,,22.7673056,121.1440152
3846010136,壽春中醫診所,私立中醫診所,中醫一般診所,臺東縣台東市,89325909,臺東縣台東市博愛路470號,,22.7546796,121.1461793
3846011142,和仁堂中醫診所,私立中醫診所,中醫一般診所,臺東縣台東市,089-337568,臺東縣台東市復興路209號,,22.752896,121.1497564
3841311709,復華中醫診所,私立中醫診所,中醫一般診所,臺南市永康區,06-3135819,臺南市永康區中華里忠孝路3號,,22.9990561,120.239871
3841311745,王相欽中醫診所,私立中醫診所,中醫一般診所,臺南市永康區,3132432,臺南市永康區復國里復國一路168號,,23.0058164,120.2461134
3841311754,何清波中醫診所,私立中醫診所,中醫一般診所,臺南市永康區,06-2024786,臺南市永康區復華里復國一路423號,,23.0139676,120.245738
3841311763,黃中一中醫診所,私立中醫診所,中醫一般診所,臺南市永康區,06-3135998,臺南市永康區中華里華興街139號,,23.0006311,120.2356491
3841311807,天相中醫診所,私立中醫診所,中醫診所,臺南市永康區,06-2522405,臺南市永康區甲頂里中正南路90號,,23.0210821,120.216403
3841311816,全興中醫診所,私立中醫診所,中醫診所,臺南市永康區,2539188,臺南市永康區鹽行里新中街59號,,23.0377112,120.2424196
3841311825,祥和中醫診所,私立中醫診所,中醫診所,臺南市永康區,06-2017531,臺南市永康區安康里中華路603號,,23.0134873,120.2306832
3841311834,祐康中醫診所,私立中醫診所,中醫診所,臺南市永康區,06-3027336,臺南市永康區五王里中華路396號,,23.0096818,120.2333911
3842010069,順安堂中醫診所,私立中醫診所,中醫一般診所,高雄市鳳山區,07 8228822,高雄市鳳山區忠誠路９３號,,22.5949749,120.3259004
3842010087,念慈堂中醫診所,私立中醫診所,中醫一般診所,高雄市鳳山區,07 7210472,高雄市鳳山區五甲二路338號1樓,,22.599714,120.33784
3842010096,信安中醫診所,私立中醫診所,中醫一般診所,高雄市鳳山區,07-7473527,高雄市鳳山區博愛路２４５號,,22.629359,120.3697959
3842010130,慶昌中醫診所,私立中醫診所,中醫一般診所,高雄市鳳山區,07 8316538,高雄市鳳山區五甲三路82號,,22.592388,120.326641
3842010247,鄭阿緞針灸科中醫診所,私立中醫診所,中醫專科診所,高雄市鳳山區,07 7422863,高雄市鳳山區建國路二段216號1樓,,22.636291,120.3585704
3842010381,福泉中醫診所,私立中醫診所,中醫一般診所,高雄市鳳山區,07-7474158,高雄市鳳山區光復路１７２號,,22.6290978,120.3566687
3842010443,福安堂中醫診所,私立中醫診所,中醫一般診所,高雄市鳳山區,07-7037167,高雄市鳳山區中山東路３３９號,,22.6269525,120.3767737
3841071139,超群中醫診所,私立中醫診所,中醫一般診所,臺南市善化區,06-5830173,臺南市善化區光文里民權路143號1樓,,23.1314608,120.3000362
3841081082,平安中醫診所,私立中醫診所,中醫一般診所,臺南市學甲區,67821288,臺南市學甲區仁得里自強路一二三號,,23.228886,120.178916
3841120020,姜正夫中醫診所,私立中醫診所,中醫一般診所,臺南市下營區,06 6895529,臺南市下營區下營里中山路一段七十一號,,23.2353866,120.2631452
3841140013,德安中醫診所,私立中醫診所,中醫一般診所,臺南市官田區,06-5793541,臺南市官田區南?里７７號,,23.2206188,120.2995055
3841160033,永吉中醫診所,私立中醫診所,中醫一般診所,臺南市西港區,06 7952028,臺南市西港區慶安里慶安路７５號,,23.1210575,120.2021265
3841180044,李阿宋中醫診所,私立中醫診所,中醫一般診所,臺南市將軍區,06-7941032,臺南市將軍區西華里62-31號,,23.1982988,120.1546002
3841200032,家明中醫診所,私立中醫診所,中醫一般診所,臺南市新市區,06 5011627,臺南市新市區新市里中正路二六七號,,23.0788836,120.2922803
3841200041,永就中醫診所,私立中醫診所,中醫一般診所,臺南市新市區,06 5988337,臺南市新市區永就里五二之五號,,23.0642791,120.3003035
3841201066,黃玉春中醫診所,私立中醫診所,中醫診所,臺南市新市區,06-5995993,臺南市新市區新和里光華街103號,,23.0759809,120.2959128
3841201084,勝義中醫診所,私立中醫診所,中醫診所,臺南市新市區,06-5896165,臺南市新市區新和里忠孝街158號,,23.0746912,120.294574
3837012355,德盛中醫診所,私立中醫診所,中醫一般診所,彰化縣彰化市,04-7281600,彰化縣彰化市民族路362號,,24.07401,120.540002
3837012364,鈺漢堂中醫診所,私立中醫診所,中醫一般診所,彰化縣彰化市,04-7388838,彰化縣彰化市彰南路二段256-1號,,24.0836702,120.5835075
3837012382,玉衡中醫診所,私立中醫診所,中醫診所,彰化縣彰化市,04-7289128,彰化縣彰化市中山路三段86號,,24.0849713,120.5557621
3837012408,一正中醫診所,私立中醫診所,中醫診所,彰化縣彰化市,04-7289642,彰化縣彰化市中正路二段352號,,24.0744531,120.5364987
3837020044,李宗峰內科針炙科中醫診所,私立中醫診所,中醫專科診所,彰化縣鹿港鎮,04 7716735,彰化縣鹿港鎮溝墘里鹿和路三段６０８號,,24.0849921,120.4799886
3837020053,萬春中醫診所,私立中醫診所,中醫一般診所,彰化縣鹿港鎮,04 7712366,彰化縣鹿港鎮頂草路四段４０５號,,24.1082796,120.4575127
3837020071,陽明中醫診所,私立中醫診所,中醫一般診所,彰化縣鹿港鎮,04 7772701,彰化縣鹿港鎮中山路402號,,24.058994,120.431646
3837020106,鹿洲中醫診所,私立中醫診所,中醫一般診所,彰化縣鹿港鎮,47777699,彰化縣鹿港鎮中山南路２９號,,24.0463199,120.4395334
3837020133,新侒中醫診所,私立中醫診所,中醫一般診所,彰化縣鹿港鎮,47770911,彰化縣鹿港鎮民權路125號,,24.056994,120.4361108
3837020142,天喜中醫診所,私立中醫診所,中醫一般診所,彰化縣鹿港鎮,47741981,彰化縣鹿港鎮民族路57號,,24.055978,120.436663
3837020516,德先中醫診所,私立中醫診所,中醫一般診所,彰化縣鹿港鎮,47789336,彰化縣鹿港鎮街尾里文聖街一號,,24.0480926,120.4404794
3837021149,侯阿六中醫診所,私立中醫診所,中醫一般診所,彰化縣鹿港鎮,47762196,彰化縣鹿港鎮彰鹿路八段16號,,24.0494138,120.439191
3837021158,一品堂鹿港中醫診所,私立中醫診所,中醫一般診所,彰化縣鹿港鎮,,彰化縣鹿港鎮永安里中正路四二二號,,24.0599972,120.4383235
3837021185,張良松中醫診所,私立中醫診所,中醫一般診所,彰化縣鹿港鎮,0930 391158,彰化縣鹿港鎮永安里復興路342號,,24.0574864,120.4375948
3837021210,宜德中醫診所,私立中醫診所,中醫診所,彰化縣鹿港鎮,04-7766866,彰化縣鹿港鎮民族路２１５號,,24.053727,120.433722
3837030022,宏興中醫診所,私立中醫診所,中醫一般診所,彰化縣和美鎮,04 7552083,彰化縣和美鎮永樂路７７號,,24.11516,120.495177
3837030040,岳陽中醫診所,私立中醫診所,中醫一般診所,彰化縣和美鎮,04 7566569,彰化縣和美鎮仁美路220號,,24.1090538,120.4971046
3837030059,賴鵬飛中醫診所,私立中醫診所,中醫一般診所,彰化縣和美鎮,04 7563945,彰化縣和美鎮山犁里鹿和路六段３７１號,,24.1090605,120.4952726
3837030068,國惠中醫診所,私立中醫診所,中醫一般診所,彰化縣和美鎮,04 7561209,彰化縣和美鎮和卿路183號,,24.113272,120.494207
3837030102,三泰堂中醫診所,私立中醫診所,中醫一般診所,彰化縣和美鎮,47573162,彰化縣和美鎮仁美路14號,,24.108154,120.501341
3837031127,天水堂中醫診所,私立中醫診所,中醫一般診所,彰化縣和美鎮,938007197,彰化縣和美鎮彰美路六段四十號,,24.113189,120.497877
3837031154,杏雄堂中醫診所,私立中醫診所,中醫一般診所,彰化縣和美鎮,04 7365655,彰化縣和美鎮糖友里糖友一街68號1樓,,24.1082472,120.5341458
3837031163,東方中醫診所,私立中醫診所,中醫一般診所,彰化縣和美鎮,04  7578578,彰化縣和美鎮仁安路十三號,,24.107227,120.500928
3837040019,順成中醫診所,私立中醫診所,中醫一般診所,彰化縣北斗鎮,04 8882397,彰化縣北斗鎮中正路１８０號,,23.8744861,120.5220608
3837040037,振興中醫診所,私立中醫診所,中醫一般診所,彰化縣北斗鎮,04 8882339,彰化縣北斗鎮七星里七里巷８號,,23.8701648,120.5339001
3837040046,真元堂中醫診所,私立中醫診所,中醫一般診所,彰化縣北斗鎮,04 8889169,彰化縣北斗鎮中正路１４９號,,23.8738506,120.5218045
3837040055,寶斗中醫診所,私立中醫診所,中醫一般診所,彰化縣北斗鎮,04 8870078,彰化縣北斗鎮復興路227號,,23.8772798,120.5280672
3837040073,護元堂中醫診所,私立中醫診所,中醫一般診所,彰化縣北斗鎮,48888909,彰化縣北斗鎮居仁里宮後街２６之２號,,23.8736247,120.5253353
3837010011,榮生中醫診所,私立中醫診所,中醫一般診所,彰化縣彰化市,04 7228096,彰化縣彰化市中華路２４2號之１號,,24.0777783,120.5380208
3837010057,鄭先中醫診所,私立中醫診所,中醫一般診所,彰化縣彰化市,04 7247890,彰化縣彰化市光復里中正路一段３５５號,,24.0828612,120.544349
3837010093,菩提中醫診所,私立中醫診所,中醫一般診所,彰化縣彰化市,04 7234007,彰化縣彰化市曉陽路２６２號,,24.073571,120.535475
3837010146,大信堂中醫診所,私立中醫診所,中醫一般診所,彰化縣彰化市,04 7385137,彰化縣彰化市竹中里彰南路二段７號,,24.0857259,120.5769801
3837010155,正元內科中醫診所,私立中醫診所,中醫專科診所,彰化縣彰化市,04 7231633,彰化縣彰化市中民街４７、４９號,,24.0849467,120.5472258
3837010173,賴生元中醫診所,私立中醫診所,中醫一般診所,彰化縣彰化市,04 7382198,彰化縣彰化市牛埔里彰南路三段３１９號,,24.081708,120.599437
3837010244,光德中醫診所,私立中醫診所,中醫一般診所,彰化縣彰化市,04 7227148,彰化縣彰化市太平街７２號,,24.0774278,120.5423386
3837010262,健榮中醫診所,私立中醫診所,中醫一般診所,彰化縣彰化市,477225765,彰化縣彰化市華山路61號１樓,,24.074509,120.541462
3837010397,楊中醫診所,私立中醫診所,中醫一般診所,彰化縣彰化市,47281927,彰化縣彰化市陽明里三民路四Ｏ二之一號,,24.086115,120.54765
3837010422,彰化少林中醫診所,私立中醫診所,中醫一般診所,彰化縣彰化市,04 7220171,彰化縣彰化市東民街２６號,,24.075661,120.546041
3837010459,趙世鐘中醫診所,私立中醫診所,中醫一般診所,彰化縣彰化市,47229692,彰化縣彰化市中正路一段１段4６５號,,24.0842562,120.5516346
3837010566,祥順中醫聯合診所,私立中醫診所,中醫一般診所,彰化縣彰化市,04 7277202,彰化縣彰化市中民街７０號,,24.0845419,120.54691
3837010691,健雄中醫診所,私立中醫診所,中醫一般診所,彰化縣彰化市,47111678,彰化縣彰化市大埔路726號,,24.0659849,120.5351567
3837010771,同濟中醫聯合診所,私立中醫診所,中醫一般診所,彰化縣彰化市,47271199,彰化縣彰化市光復路93號１樓,,24.080323,120.541993
3837010780,王耀賢中醫診所,私立中醫診所,中醫一般診所,彰化縣彰化市,47260520,彰化縣彰化市辭修路７９－２號,,24.0878431,120.5388374
3837010824,現代中醫診所,私立中醫診所,中醫一般診所,彰化縣彰化市,47280809,彰化縣彰化市博愛街50號,,24.0735426,120.5452418
3837010888,弘健中醫診所,私立中醫診所,中醫一般診所,彰化縣彰化市,47118692,彰化縣彰化市大埔路466號,,24.06388,120.543213
3837010922,順泰中醫診所,私立中醫診所,中醫一般診所,彰化縣彰化市,47294699,彰化縣彰化市仁愛路１10號1樓,,23.9037771,120.3676341
3837010940,崧傑中醫診所,私立中醫診所,中醫一般診所,彰化縣彰化市,47617199,彰化縣彰化市忠權自強南路１９５號,,24.0840672,120.534794
3836200299,福祥中醫診所,私立中醫診所,中醫一般診所,臺中市大里區,04-24930132,臺中市大里區塗城路六九七號,,24.088674,120.700538
3836200351,立人堂中醫診所,私立中醫診所,中醫一般診所,臺中市大里區,04-22794096,臺中市大里區立仁路一五０號,,24.1105224,120.7020497
3836200388,錫安中醫診所,私立中醫診所,中醫一般診所,臺中市大里區,04 24820576,臺中市大里區益民路二段一九八之三 號,,24.108939,120.6840322
3836200468,頌恩中醫診所,私立中醫診所,中醫一般診所,臺中市大里區,04-24812334,臺中市大里區永興路一二九號,,24.109137,120.681843
3836200486,宏仁中醫診所,私立中醫診所,中醫一般診所,臺中市大里區,04-24068459,臺中市大里區爽文路９０９號,,24.1099135,120.6747729
3836200511,祐生中醫聯合診所,私立中醫診所,中醫一般診所,臺中市大里區,04-24828991,臺中市大里區大里路一號,,24.1078144,120.6895133
3836201527,慈佑中醫診所,私立中醫診所,中醫一般診所,臺中市大里區,04-24831186,臺中市大里區勝利二路97號,,24.1024109,120.682498
3836201572,慶昇中醫診所,私立中醫診所,中醫一般診所,臺中市大里區,04-24838798,臺中市大里區中興路二段３８０－１號１樓,,24.1060654,120.6896945
3844010030,長慶中醫診所,私立中醫診所,中醫一般診所,澎湖縣馬公市,06 9276379,澎湖縣馬公市惠民一路１０號,,23.5660165,119.5646933
3844011055,錦山中醫診所,私立中醫診所,中醫一般診所,澎湖縣馬公市,06-9271700,澎湖縣馬公市朝陽里陽明路二十四號,,23.5735051,119.5720695
3844011073,松安堂中醫診所,私立中醫診所,中醫一般診所,澎湖縣馬公市,06-9277588,澎湖縣馬公市光榮里三多路352號,,23.5773162,119.5703716
3845010025,順安堂內科中醫診所,私立中醫診所,中醫專科診所,花蓮縣花蓮市,38353638,花蓮縣花蓮市林森路266之1號,,23.982676,121.607773
3845010034,彭世銘中醫診所,私立中醫診所,中醫專科診所,花蓮縣花蓮市,38331603,花蓮縣花蓮市中山路８２５號,,23.993311,121.596295
3845010043,隆安中醫診所,私立中醫診所,中醫專科診所,花蓮縣花蓮市,38353087,花蓮縣花蓮市中山路５２３號,,23.9856934,121.6023833
3845010052,萬順外科中醫診所,私立中醫診所,中醫專科診所,花蓮縣花蓮市,03-8323817,花蓮縣花蓮市中山路76號,,23.9749509,121.6111422
3845010070,仁和堂中醫診所,私立中醫診所,中醫專科診所,花蓮縣花蓮市,03-8359603,花蓮縣花蓮市中山路314號,,23.9814143,121.6060505
3845010187,慈惠中醫診所,私立中醫診所,中醫專科診所,花蓮縣花蓮市,03-8359628,花蓮縣花蓮市中華路403號,,23.9744826,121.5938336
3845010203,同仁堂中醫診所,私立中醫診所,中醫一般診所,花蓮縣花蓮市,03-8345168,花蓮縣花蓮市建國路256號,,23.9844047,121.5996195
3845010230,陳逸光中醫診所,私立中醫診所,中醫專科診所,花蓮縣花蓮市,38579833,花蓮縣花蓮市富國路１０號,,23.9916545,121.5967657
3845010276,邱垂從中醫診所,私立中醫診所,中醫一般診所,花蓮縣花蓮市,03- 8355866,花蓮縣花蓮市中正路147號,,23.9712113,121.5979317
3845010338,松裕堂中醫診所,私立中醫診所,中醫一般診所,花蓮縣花蓮市,03-8328338,花蓮縣花蓮市中正路637號,,23.9793741,121.610395
3845010383,江國輝中醫師診所,私立中醫診所,中醫一般診所,花蓮縣花蓮市,03-8322831,花蓮縣花蓮市和平路四七一號,,23.9759868,121.601679
3845011380,圓緣中醫診所,私立中醫診所,中醫一般診所,花蓮縣花蓮市,03-8239559,花蓮縣花蓮市中美路113號,,23.9925072,121.6266384
3845011415,中信中醫診所,私立中醫診所,中醫一般診所,花蓮縣花蓮市,03-8328866,花蓮縣花蓮市林森路111號,,23.9770813,121.5984862
3843061024,長治中醫診所,私立中醫診所,中醫一般診所,屏東縣長治鄉,7366620....7352105,屏東縣長治鄉進興村復興路11號,,22.677175,120.5286607
3845011531,原相中醫診所,私立中醫診所,中醫一般診所,花蓮縣花蓮市,03-8353151,花蓮縣花蓮市和平路332-2號,,23.9735463,121.6039643
3843011695,幸德中醫診所,私立中醫診所,中醫一般診所,屏東縣屏東市,08-7345113,屏東縣屏東市忠孝路229-20號,,22.6843191,120.4892219
3843011748,高明聯合中醫診所,私立中醫診所,中醫一般診所,屏東縣屏東市,08-7378635,屏東縣屏東市仁愛路79-3號,,22.6794257,120.4950379
3843011757,高點中醫診所,私立中醫診所,中醫一般診所,屏東縣屏東市,08-7535735,屏東縣屏東市大武路196號,,22.6583082,120.4744986
3843011800,金宏明中醫診所,私立中醫診所,中醫一般診所,屏東縣屏東市,08-7348398,屏東縣屏東市光榮里中山路61~13號,,22.6755521,120.4848283
3843011882,大同中醫診所,私立中醫診所,中醫一般診所,屏東縣屏東市,08-7336116,屏東縣屏東市大同北路116號,,22.6819491,120.4749245
3843011891,陳駿吉中醫診所,私立中醫診所,中醫一般診所,屏東縣屏東市,08-7539559,屏東縣屏東市廣東南路67號,,22.6649195,120.4908879
3843011917,回春同中醫診所,私立中醫診所,中醫一般診所,屏東縣屏東市,08-7350303,屏東縣屏東市華正路8號,,22.687094,120.503615
3843011935,慶安中醫診所,私立中醫診所,中醫一般診所,屏東縣屏東市,08-7368477,屏東縣屏東市自由路420-6號,,22.6822105,120.4933959
3843011980,明?中醫診所,私立中醫診所,中醫診所,屏東縣屏東市,08-7331107,屏東縣屏東市信義路267號,,22.6827253,120.4903172
3843012030,禾豐中醫診所,私立中醫診所,中醫診所,屏東縣屏東市,08-7552899,屏東縣屏東市華盛街1-28號,,22.6644965,120.478578
3843020032,明心堂中醫診所,私立中醫診所,中醫一般診所,屏東縣潮州鎮,08 7884003,屏東縣潮州鎮太平路79號,,22.5535675,120.5385457
3843020069,春安堂中醫診所,私立中醫診所,中醫一般診所,屏東縣潮州鎮,08 7885091,屏東縣潮州鎮新生路１８號,,22.5472436,120.5376848
3837050426,張家禎中醫診所,私立中醫診所,中醫一般診所,彰化縣員林市,04 8331673,彰化縣員林市大同路一段281號,,23.9616527,120.5798876
3837050453,李金記中醫診所,私立中醫診所,中醫一般診所,彰化縣員林市,48349416,彰化縣員林市三信里中山路二段144號,,23.96436,120.571464
3837050524,徐宏杰中醫診所,私立中醫診所,中醫一般診所,彰化縣員林市,48338825,彰化縣員林市浮圳路二段513號,,23.9648122,120.5750545
3837050604,全誼中醫診所,私立中醫診所,中醫一般診所,彰化縣員林市,48370779,彰化縣員林市三民東街２８１號一樓,,23.9604041,120.5806476
3837051638,陳茂雄中醫診所,私立中醫診所,中醫一般診所,彰化縣員林市,048 353825,彰化縣員林市靜修東路189、191號,,23.9654258,120.5771252
3837051647,陳進興中醫診所,私立中醫診所,中醫一般診所,彰化縣員林市,04 8310990,彰化縣員林市林森路417號,,23.9628759,120.576455
3837051665,金育中醫診所,私立中醫診所,中醫一般診所,彰化縣員林市,  04-8385917,彰化縣員林市三信里大仁南街13號1樓,,23.9684419,120.5752884
3837051674,曾富雄慈生中醫診所,私立中醫診所,中醫一般診所,彰化縣員林市,04 8321134,彰化縣員林市南昌路五十號,,23.95504,120.573092
3837051709,傅仰明中醫診所,私立中醫診所,中醫一般診所,彰化縣員林市,0933 573124,彰化縣員林市忠孝里忠孝街180號1樓,,23.9569775,120.5810216
3837051718,同慶堂中醫診所,私立中醫診所,中醫一般診所,彰化縣員林市,04 8342052,彰化縣員林市中山路二段三七六號,,23.9687419,120.571704
3837051763,弘益中醫診所,私立中醫診所,中醫一般診所,彰化縣員林市,04  8350370,彰化縣員林市南昌路四十九號,,23.9542819,120.572071
3837051790,日安堂中醫診所,私立中醫診所,中醫一般診所,彰化縣員林市,04 8392391,彰化縣員林市三信里中山路二段315號,,23.967814,120.571159
3837051861,神農中醫診所,私立中醫診所,中醫診所,彰化縣員林市,04-8369988,彰化縣員林市中正里中正路400巷13號,,23.949335,120.575456
3837051870,廖崇成中醫診所,私立中醫診所,中醫診所,彰化縣員林市,04-8341063,彰化縣員林市員水路二段566巷30號,,23.9569658,120.576664
3837051905,嵩德堂中醫診所,私立中醫診所,中醫診所,彰化縣員林市,04-8385986,彰化縣員林市大同路二段171號1樓,,23.9689785,120.5754577
3837011992,聯安中醫診所,私立中醫診所,中醫一般診所,彰化縣彰化市,04-7299448,彰化縣彰化市自強路26號,,24.0895589,120.538773
3837012079,福慧中醫診所,私立中醫診所,中醫一般診所,彰化縣彰化市,04-7513669,彰化縣彰化市南興里中山路一段375號1樓,,24.0616809,120.535377
3837012211,癸貞中醫診所,私立中醫診所,中醫一般診所,彰化縣彰化市,047 118251  7625047,彰化縣彰化市崙平南路147號,,24.063234,120.5253548
3837012220,紫雲堂中醫診所,私立中醫診所,中醫一般診所,彰化縣彰化市,047 289023,彰化縣彰化市長順街235巷23號,,24.089908,120.548497
3837012248,冠頤中醫診所,私立中醫診所,中醫一般診所,彰化縣彰化市,,彰化縣彰化市三民路二五七號,,24.0858189,120.5436801
3837012275,智宗中醫診所,私立中醫診所,中醫一般診所,彰化縣彰化市,047 136118,彰化縣彰化市大埔路379號,,24.0622688,120.5438801
3837012284,健彰中醫診所,私立中醫診所,中醫一般診所,彰化縣彰化市,04 7278071,彰化縣彰化市彰美路一段141號,,24.0879689,120.538612
3837012319,達仁堂中醫診所,私立中醫診所,中醫一般診所,彰化縣彰化市,04  7295050,彰化縣彰化市三民路226.228號,,24.085218,120.542854
3836151246,芳瑞中醫診所,私立中醫診所,中醫診所,臺中市烏日區,"9,190,326,770,423,360,000",臺中市烏日區民族街３號１樓,,24.1088878,120.6260486
3836151264,吉祥中醫診所,私立中醫診所,中醫診所,臺中市烏日區,04-23381568,臺中市烏日區中山路一段３６５號,,24.1079498,120.638442
3836160012,順星中醫診所,私立中醫診所,中醫一般診所,臺中市大肚區,04-26995907,臺中市大肚區沙田路二段７３１號,,24.1531154,120.544625
3836160021,德昌中醫診所,私立中醫診所,中醫一般診所,臺中市大肚區,04-26912137,臺中市大肚區遊園路二段２０３巷３弄１７號,,24.1706903,120.5812029
3836160101,漢林中醫診所,私立中醫診所,中醫一般診所,臺中市大肚區,04-26914332,臺中市大肚區遊園路二段二五七號,,24.174561,120.5811687
3836161126,惠民中醫診所,私立中醫診所,中醫一般診所,臺中市大肚區,04-26936665,臺中市大肚區沙田路一段452之2號1樓,,24.1233617,120.5646555
3836170036,民生堂中醫診所,私立中醫診所,中醫一般診所,臺中市龍井區,04-26312812,臺中市龍井區新興路121號,,24.1821547,120.5833605
3836170081,大慶中醫診所,私立中醫診所,中醫一般診所,臺中市龍井區,04-26317892,臺中市龍井區新興路６５號１樓,,24.1818184,120.5854596
3836170107,元泰中醫診所,私立中醫診所,中醫一般診所,臺中市龍井區,04-26528855,臺中市龍井區遊園南路１３５、１３７號,,24.183372,120.5846655
3836180069,廣茂中醫診所,私立中醫診所,中醫一般診所,臺中市霧峰區,04-23398083,臺中市霧峰區中正路３４７－４號,,24.0386915,120.6929209
3836180112,中原中醫診所,私立中醫診所,中醫一般診所,臺中市霧峰區,04-23391534,臺中市霧峰區吉峰路１３７號,,24.0772247,120.7128585
3836180149,邱明欣中醫診所,私立中醫診所,中醫一般診所,臺中市霧峰區,04-23302097,臺中市霧峰區中正路９１２號,,24.064426,120.6987001
3836180158,慶和中醫診所,私立中醫診所,中醫一般診所,臺中市霧峰區,04-23302510,臺中市霧峰區育仁街２３號,,24.0633092,120.6977436
3836180176,常益中醫診所,私立中醫診所,中醫一般診所,臺中市霧峰區,04-23326493,臺中市霧峰區甲寅里中正路一一七一之二號１樓２樓,,24.0691329,120.6992789
3836180185,至德中醫診所,私立中醫診所,中醫一般診所,臺中市霧峰區,04-23393128,臺中市霧峰區樹仁路96號,,24.0620204,120.6966432
3836181299,李采霓中醫診所,私立中醫診所,中醫診所,臺中市霧峰區,0955452752  23398985,臺中市霧峰區中正路６６５號１樓,,24.0580643,120.6977823
3836080046,德安中醫診所,私立中醫診所,中醫一般診所,臺中市神岡區,04-25628815,臺中市神岡區昌平路五段357號,,24.2439242,120.6830097
3836080117,進安中醫診所,私立中醫診所,中醫一般診所,臺中市神岡區,04-25618002,臺中市神岡區昌平路五段390號1樓,,24.2444481,120.6834579
3836080135,思恩堂中醫診所,私立中醫診所,中醫一般診所,臺中市神岡區,04-25617135,臺中市神岡區神岡東街三、五號,,24.257017,120.6623997
3836081196,聖達中醫診所,私立中醫診所,中醫一般診所,臺中市神岡區,04-25616163,臺中市神岡區中山路六七三號,,24.2483315,120.6801495
3836081249,德和堂中醫診所,私立中醫診所,中醫一般診所,臺中市神岡區,04-25120069,臺中市神岡區豐洲路３６７號１樓,,24.2609857,120.7058296
3836090024,保成中醫診所,私立中醫診所,中醫一般診所,臺中市潭子區,04-25326388,臺中市潭子區中山路二段３８４之８號,,24.214528,120.7052504
3836090042,明原中醫診所,私立中醫診所,中醫一般診所,臺中市潭子區,04-25367360,臺中市潭子區圓通南路１５２號１樓,,24.2071266,120.706458
3836090051,瑞成中醫診所,私立中醫診所,中醫一般診所,臺中市潭子區,04-25365773,臺中市潭子區潭子街三段５號,,24.22876,120.7080658
3836090088,六福堂中醫診所,私立中醫診所,中醫一般診所,臺中市潭子區,04-25346006,臺中市潭子區中山路二段３７９號,,24.2129616,120.7051031
3836090168,聖華中醫診所,私立中醫診所,中醫一般診所,臺中市潭子區,04-25322303,臺中市潭子區南門街１８號,,24.2162692,120.7034345
3836201643,佰億中醫診所,私立中醫診所,中醫一般診所,臺中市大里區,04-24913012,臺中市大里區仁化路七一二號,,24.0934289,120.692423
3836201750,弘安中醫診所,私立中醫診所,中醫一般診所,臺中市大里區,04-22708963,臺中市大里區新仁路一段一五三號,,24.1110086,120.7028474
3836201787,益民中醫診所,私立中醫診所,中醫一般診所,臺中市大里區,04-24850788,臺中市大里區大里路三十九之十二號,,24.0997447,120.6795414
3836201796,文宗城中醫診所,私立中醫診所,中醫一般診所,臺中市大里區,04-24862456,臺中市大里區新光路六十五號,,24.1102826,120.6921675
3836201867,仁和中醫診所,私立中醫診所,中醫一般診所,臺中市大里區,04-24924111,臺中市大里區仁化路六一六號,,24.0965784,120.6994753
3836201910,普門堂中醫診所,私立中醫診所,中醫一般診所,臺中市大里區,04-24811181,臺中市大里區益民路二段３１１號１樓,,24.1123093,120.6838262
3836201929,大里廣濟中醫診所,私立中醫診所,中醫一般診所,臺中市大里區,04-24939555,臺中市大里區塗城路５５９號１、２樓,,24.087667,120.704791
3836201938,頂城中醫診所,私立中醫診所,中醫一般診所,臺中市大里區,04-2496-9669,臺中市大里區中興路1段167之13號1樓,,24.082203,120.705079
3836201956,傳恩中醫診所,私立中醫診所,中醫一般診所,臺中市大里區,04-23510808,臺中市大里區新仁路一段217巷9號1樓,,24.1103411,120.701229
3836201983,德彥中醫診所,私立中醫診所,中醫一般診所,臺中市大里區,04-24835519,臺中市大里區德芳南一街三十號一樓,,24.100963,120.6871573
3836201992,安德中醫診所,私立中醫診所,中醫一般診所,臺中市大里區,04-24876749,臺中市大里區文隆街３０號,,24.1075599,120.6833233
3836202042,官宋奮中醫診所,私立中醫診所,中醫一般診所,臺中市大里區,04-24839576,臺中市大里區環中東路六段592號1樓,,24.0988157,120.6907484
3836202060,世宏中醫診所,私立中醫診所,中醫一般診所,臺中市大里區,04-24062733,臺中市大里區永隆路268號１樓,,24.1089647,120.6767585
3836202113,大明中醫診所,私立中醫診所,中醫一般診所,臺中市大里區,04-24815675,臺中市大里區大明路393號1及2樓,,24.1149187,120.6796402
3836202131,天一中醫診所,私立中醫診所,中醫診所,臺中市大里區,04-24064140,臺中市大里區永隆二街180號,,24.1059227,120.6755228
3836202140,里仁中醫診所,私立中醫診所,中醫診所,臺中市大里區,04-24068220,臺中市大里區東里路１０、１２號１樓,,24.0969674,120.6786112
3836190056,長春中醫診所,私立中醫診所,中醫一般診所,臺中市太平區,04-22792271,臺中市太平區中興東路218-1號1樓,,24.1321161,120.723534
3836190065,蔡榮裕中醫診所,私立中醫診所,中醫一般診所,臺中市太平區,04-23952079,臺中市太平區中山路四段二四四號,,24.1481001,120.7013723
3836190136,太極中醫診所,私立中醫診所,中醫一般診所,臺中市太平區,04-23918007,臺中市太平區中山路三段二十號,,24.1493841,120.7215111
3836190190,永泰中醫診所,私立中醫診所,中醫一般診所,臺中市太平區,04-23912693,臺中市太平區樹孝路３８２號,,24.1557759,120.719858
3836190243,建成中醫診所,私立中醫診所,中醫一般診所,臺中市太平區,04-23932998,臺中市太平區中山路二段４８５．４８７號,,24.149584,120.726169
3836190252,尚群中醫診所,私立中醫診所,中醫一般診所,臺中市太平區,04-22779178,臺中市太平區太平路１４８號,,24.128517,120.70818
3836190270,德光中醫診所,私立中醫診所,中醫一般診所,臺中市太平區,04-22796839,臺中市太平區新平路二段２３８號,,24.143236,120.714623
3836190289,仁愛中醫診所,私立中醫診所,中醫一般診所,臺中市太平區,04-22773786,臺中市太平區宜昌東路３６號,,24.138006,120.7163009
3836190323,泰平中醫聯合診所,私立中醫診所,中醫一般診所,臺中市太平區,04-22787758,臺中市太平區中興東路一四０號,,24.1294835,120.7191083
3836191428,源德中醫診所,私立中醫診所,中醫一般診所,臺中市太平區,04-22704242,臺中市太平區永豐路二十三號,,24.124677,120.713446
3836191437,順天中醫診所,私立中醫診所,中醫一般診所,臺中市太平區,04-23958435,臺中市太平區中山路四段二０七號二樓,,24.1483705,120.7050887
3821041519,家林中醫診所,私立中醫診所,中醫一般診所,臺南市北區,2806599,臺南市北區大港里中華北路１段151號,,23.0100118,120.1851277
3821041528,王清吉中醫診所,私立中醫診所,中醫一般診所,臺南市北區,2817738,臺南市北區六甲里公園路591之43號,,23.0130871,120.2115932
3821041537,林瑞豐中醫診所,私立中醫診所,中醫一般診所,臺南市北區,2212186,臺南市北區和順里公園南路332號,,23.0028479,120.2032082
3821041555,國泰中醫診所,私立中醫診所,中醫一般診所,臺南市北區,2582995,臺南市北區大和里文賢路777號1樓,,23.0156359,120.1934395
3821041564,福生中醫診所,私立中醫診所,中醫一般診所,臺南市北區,2243662,臺南市北區裕民里金華路５段16號,,23.0019901,120.196432
3821041582,余佑堂中醫診所,私立中醫診所,中醫一般診所,臺南市北區,(06)2516977 . 2516997,臺南市北區成德里和緯路二段 237.239號,,23.0122728,120.2046869
3821041644,六桂堂中醫診所,私立中醫診所,中醫一般診所,臺南市北區,(06)2515336,臺南市北區正覺里公園路599~4號一樓,,23.0144144,120.2126292
3821041671,慈聲中醫診所,私立中醫診所,中醫一般診所,臺南市北區,06-2597210,臺南市北區文成里文賢1路115號1樓,,23.0067397,120.1961104
3821041699,陳天助中醫診所,私立中醫診所,中醫一般診所,臺南市北區,06-3501370,臺南市北區文元里海安路３段755號1樓,,23.0127655,120.2001624
3821041724,沈嘉彬中醫診所,私立中醫診所,中醫診所,臺南市北區,06-2810119,臺南市北區成德里文成三路245號1樓,,23.0164225,120.20347
3821041742,朝順中醫診所,私立中醫診所,中醫診所,臺南市北區,06-2507158,臺南市北區文成里文賢路606號1樓,,23.0088764,120.1939219
3821041751,湯燕雪中醫診所,私立中醫診所,中醫診所,臺南市北區,06-2508571,臺南市北區文元里和緯路3段182號1樓,,23.011146,120.1991649
3821050063,瑞成中醫診所,私立中醫診所,中醫一般診所,臺南市中西區,06 2238698,臺南市中西區赤嵌里忠義路２段１７６號,,22.9964855,120.2042503
3821050081,立德婦內科中醫診所,私立中醫診所,中醫專科診所,臺南市中西區,06 2281627,臺南市中西區永福里民權路２段２０７號,,22.995185,120.202012
3821050170,養原中醫診所,私立中醫診所,中醫一般診所,臺南市中西區,06-2149365,臺南市中西區仙草里府瑋街６８號,,22.9840241,120.198279
3821050205,忠山內科傷科中醫診所,私立中醫診所,中醫專科診所,臺南市中西區,06 2244604,臺南市中西區福安里永福路２段２５號,,22.9907594,120.2003801
3821050214,吉祥中醫診所,私立中醫診所,中醫一般診所,臺南市中西區,06 2290203,臺南市中西區永福里民權路２段１６５號,,22.99492,120.2027596
3821050376,茂松傷科中醫診所,私立中醫診所,中醫專科診所,臺南市中西區,06 2237277,臺南市中西區公正里民族路２段75號,,22.9944161,120.2092524
3821050410,鄭守柔中醫診所,私立中醫診所,中醫一般診所,臺南市中西區,06-2139322,臺南市中西區法華里慶中街二號,,22.9817291,120.205703
3821011815,陳皇志中醫診所,私立中醫診所,中醫一般診所,臺南市東區,06-2675110,臺南市東區崇明里崇明路722號1樓,,22.9680917,120.2255652
3821011860,德全中醫診所,私立中醫診所,中醫一般診所,臺南市東區,2670569、2671598、3366078,臺南市東區崇成里崇德路680號1~2樓,,22.9671848,120.227414
3821011897,懷安堂中醫診所,私立中醫診所,中醫診所,臺南市東區,06-2008769,臺南市東區東光里凱旋路33號1樓,,22.9928221,120.230502
3821011913,慈惠中醫診所,私立中醫診所,中醫診所,臺南市東區,06-3311988,臺南市東區文聖里裕信路298號1樓,,22.9805456,120.2451416
3821011922,執善中醫診所,私立中醫診所,中醫診所,臺南市東區,06-3368208,臺南市東區崇善里崇善路539號1-2樓,,22.9616682,120.2365151
3821011959,震暘堂中醫診所,私立中醫診所,中醫診所,臺南市東區,06-2602560,臺南市東區和平里文化路67號1、2樓,,22.9768684,120.2304022
3821020010,蔡宗熹中醫診所,私立中醫診所,中醫一般診所,臺南市南區,06 2651158,臺南市南區田寮里西門路１段３２９號,,22.9776155,120.1974961
3821020029,保元堂中醫診所,私立中醫診所,中醫一般診所,臺南市南區,06 2288969,臺南市南區廣州里金華路２段２９８號,,22.9826492,120.1917663
3821020109,黃水吉內科中醫診所,私立中醫診所,中醫一般診所,臺南市南區,06 2235337,臺南市南區廣州里福吉路７５號,,22.9819281,120.193522
3821020136,宏明中醫診所,私立中醫診所,中醫一般診所,臺南市南區,06 2616205,臺南市南區田寮里新興路３６３號,,22.9752811,120.191553
3821020181,慶仁中醫診所,私立中醫診所,中醫專科診所,臺南市南區,06 2901806,臺南市南區大恩里國民路１３２號,,22.9676427,120.212687
3836191464,乾乙堂 中醫診所,私立中醫診所,中醫一般診所,臺中市太平區,04-23915606,臺中市太平區新明街四十八號,,24.1498931,120.7182971
3836191535,迦勒堂中醫診所,私立中醫診所,中醫專科診所,臺中市太平區,04-23952947,臺中市太平區樹德路八十九之三號一樓,,24.1477358,120.6736482
3836191615,德濟中醫聯合診所,私立中醫診所,中醫一般診所,臺中市太平區,04-22787957,臺中市太平區太平路四六七號,,24.124699,120.715086
3836191697,恩典中醫診所,私立中醫診所,中醫一般診所,臺中市太平區,04-23510458,臺中市太平區永豐北路五十一號一樓,,24.125714,120.714949
3836191713,宥霖中醫診所,私立中醫診所,中醫一般診所,臺中市太平區,04-22734551,臺中市太平區宜昌路３７３號１、２樓,,24.145001,120.713727
3836191740,濟安堂中醫診所,私立中醫診所,中醫診所,臺中市太平區,04-22733387,臺中市太平區太平三街１５號１樓,,24.1189014,120.7217695
3836191759,德隆中醫診所,私立中醫診所,中醫診所,臺中市太平區,04-22775289,臺中市太平區中平路１３９號１樓,,24.127181,120.7187589
3836200039,泰安內科中醫診所,私立中醫診所,中醫一般診所,臺中市大里區,04-24830483,臺中市大里區新南路一三六號,,24.108161,120.688768
3836200048,德明中醫診所,私立中醫診所,中醫一般診所,臺中市大里區,04-24837040,臺中市大里區東榮路二一七號,,24.1101635,120.6844902
3836200084,富安中醫診所,私立中醫診所,中醫一般診所,臺中市大里區,04-24832312,臺中市大里區大里路１２２號１樓,,24.1027181,120.6851051
3836200100,三曜中醫診所,私立中醫診所,中醫一般診所,臺中市大里區,04-24070203,臺中市大里區東榮路655號1樓,,24.1093358,120.6755355
3836200128,基華內科針灸科中醫診所,私立中醫診所,中醫專科診所,臺中市大里區,04-24939088,臺中市大里區塗城路７２２號,,24.0899702,120.6982639
3836200155,駿發中醫診所,私立中醫診所,中醫一般診所,臺中市大里區,04-24837879,臺中市大里區中興路二段６７１巷６之２號,,24.0952411,120.6878732
3836200191,高田中醫診所,私立中醫診所,中醫一般診所,臺中市大里區,04-24932029,臺中市大里區塗城路８０２．８０４號,,24.090757,120.69672
3836110021,春生中醫診所,私立中醫診所,中醫一般診所,臺中市新社區,04-25811488,臺中市新社區永原村中和街一段七十四號,,24.2208381,120.7930281
3836111055,康福中醫診所,私立中醫診所,中醫一般診所,臺中市新社區,04-25822960,臺中市新社區中和街四段二八七號,,24.2461503,120.8083695
3836111082,新社廣濟中醫診所,私立中醫診所,中醫一般診所,臺中市新社區,04-25823277,臺中市新社區興社街四段三十二號,,24.241993,120.8084256
3836121024,鵲慈中醫診所,私立中醫診所,中醫一般診所,臺中市石岡區,04-25723518,臺中市石岡區石岡街1號2樓,,24.2758207,120.7779282
3836130014,恒健中醫診所,私立中醫診所,中醫一般診所,臺中市外埔區,04-26830057,臺中市外埔區甲后路429號,,24.3318096,120.653154
3836131039,外埔中醫診所,私立中醫診所,中醫一般診所,臺中市外埔區,04-26838113,臺中市外埔區甲后路４２６號,,24.3319793,120.6531164
3836150016,振堂中醫診所,私立中醫診所,中醫一般診所,臺中市烏日區,04-23381039,臺中市烏日區三民街二三０號,,24.1038042,120.6213891
3836150043,仁德堂中醫診所,私立中醫診所,中醫一般診所,臺中市烏日區,04-23382616,臺中市烏日區興祥街６０號,,24.1068053,120.6384112
3836150070,建誠中醫診所,私立中醫診所,中醫一般診所,臺中市烏日區,04-23365596,臺中市烏日區中山路三段５９１號,,24.1106276,120.6004732
3836150150,姥芝瑞中醫診所,私立中醫診所,中醫一般診所,臺中市烏日區,04-23360056,臺中市烏日區中山路一段四八八號,,24.1071628,120.6358181
3836151166,振新中醫診所,私立中醫診所,中醫一般診所,臺中市烏日區,04-23381711,臺中市烏日區溪南路一段２５９號１樓,,24.0820101,120.6438072
3836151175,東園中醫診所,私立中醫診所,中醫一般診所,臺中市烏日區,04-23356220,臺中市烏日區溪南路一段611號,,24.0741805,120.6429738
3836151184,華濟中醫診所,私立中醫診所,中醫一般診所,臺中市烏日區,04-23357500,臺中市烏日區溪南路一段640號,,24.0764435,120.6431246
3836151200,東億中醫診所,私立中醫診所,中醫專科診所,臺中市烏日區,04-23385156,臺中市烏日區中華路５７５號１樓,,24.1078114,120.6342118
3836151228,日安堂中醫診所,私立中醫診所,中醫診所,臺中市烏日區,04-23376778,臺中市烏日區信義街155號,,24.1047524,120.639172
3832011027,榮春中醫診所,私立中醫診所,中醫一般診所,桃園市桃園區,03 3322383,桃園市桃園區民有11街151號1樓,,25.0099223,121.3126473
3832011036,慈航中醫診所,私立中醫診所,中醫一般診所,桃園市桃園區,03 3335433,桃園市桃園區中山東路３２之２０號,,24.9956749,121.3142765
3832011054,昌達中醫診所,私立中醫診所,中醫一般診所,桃園市桃園區,03 3161016,桃園市桃園區新埔七街五號,,25.0183223,121.3022345
3832011143,金宏中醫診所,私立中醫診所,中醫一般診所,桃園市桃園區,(03)3365898,桃園市桃園區中山路４５３號,,24.991608,121.299472
3832012337,大眾中醫診所,私立中醫診所,中醫一般診所,桃園市桃園區,3331293,桃園市桃園區中山路120號2樓,,24.9939541,121.3098341
3831151175,大順中醫診所,私立中醫診所,中醫一般診所,新北市五股區,22916650,新北市五股區成泰路二段196號,,25.0848772,121.4387718
3831160030,黎明中醫聯合診所,私立中醫診所,中醫一般診所,新北市泰山區,02-22974515,新北市泰山區明志路一段３１５號,,25.0591018,121.4314639
3831161135,妙健堂中醫診所,私立中醫診所,中醫一般診所,新北市泰山區,29062788,新北市泰山區工專路三號,,25.0399245,121.4233748
3831161144,星光中醫診所,私立中醫診所,中醫一般診所,新北市泰山區,22968118,新北市泰山區明志路1段81號1樓,,25.0643687,121.4335167
3831170027,恆安中醫診所,私立中醫診所,中醫一般診所,新北市林口區,02 6011110,新北市林口區竹林路４０７號,,25.083851,121.3869052
3831171113,全德中醫診所,私立中醫診所,中醫一般診所,新北市林口區,26002438,新北市林口區文化二路1段三八四號二樓,,25.0829397,121.3840952
3836050100,正順天中醫診所,私立中醫診所,中醫一般診所,臺中市沙鹿區,04-26628910,臺中市沙鹿區四平街一五八號,,24.236779,120.560872
3836050173,同濟堂中醫聯合診所,私立中醫診所,中醫一般診所,臺中市沙鹿區,04-26651595,臺中市沙鹿區中山路三八六號,,24.242115,120.561362
3836051241,仁人堂中醫診所,私立中醫診所,中醫一般診所,臺中市沙鹿區,04-26655151,臺中市沙鹿區中山路三二０號,,24.2392433,120.5752123
3836051269,和平中醫診所,私立中醫診所,中醫一般診所,臺中市沙鹿區,04-26656368,臺中市沙鹿區臺灣大道7段1090號,,24.2419989,120.55861
3836051278,笙華中醫診所,私立中醫診所,中醫一般診所,臺中市沙鹿區,04-26368658,臺中市沙鹿區鎮南路２段２２７號,,24.2230603,120.5685588
3836061103,六安堂中醫診所,私立中醫診所,中醫專科診所,臺中市梧棲區,04-26568780,臺中市梧棲區中和街43號1樓,,24.2545362,120.5311811
3836070031,元安中醫診所,私立中醫診所,中醫一般診所,臺中市后里區,04-25572349,臺中市后里區福音路四十八號,,24.3053905,120.7125947
3836070059,嘉慶中醫診所,私立中醫診所,中醫一般診所,臺中市后里區,04-25580896,臺中市后里區后里里甲后路４３２號,,24.3092285,120.7208662
3836070086,效廣中醫診所,私立中醫診所,中醫一般診所,臺中市后里區,04-25583118,臺中市后里區三豐路２３３號,,24.3064534,120.7216187
3836071181,寶成中醫診所,私立中醫診所,中醫一般診所,臺中市后里區,04-25588818,臺中市后里區文明路50號1樓,,24.306347,120.7209656
3836071207,弘恩中醫診所,私立中醫診所,中醫診所,臺中市后里區,,臺中市后里區三豐路１５０、１５２號,,24.3095748,120.7226285
3836071216,弘春堂中醫診所,私立中醫診所,中醫診所,臺中市后里區,04-2558-6767,臺中市后里區民生路61號1、2、3樓,,24.3082341,120.7168611
3836010606,長生堂中醫診所,私立中醫診所,中醫一般診所,臺中市豐原區,04-25222825,臺中市豐原區復興路１５８號,,24.250852,120.716648
3836010642,永生堂中醫診所,私立中醫診所,中醫一般診所,臺中市豐原區,04 25225587,臺中市豐原區豐中路117號,,24.257665,120.721366
3836010651,久大中醫診所,私立中醫診所,中醫一般診所,臺中市豐原區,04-25293445,臺中市豐原區大明路２２號,,24.2398585,120.7106264
3836011818,弘一德中醫診所,私立中醫診所,中醫一般診所,臺中市豐原區,04-25286178,臺中市豐原區圓環東路五十一號,,24.2443877,120.7167291
3836011845,同慶中醫診所,私立中醫診所,中醫一般診所,臺中市豐原區,04-25231381,臺中市豐原區三豐路一四三號,,24.25405,120.717151
3836011854,昭慶中醫診所,私立中醫診所,中醫一般診所,臺中市豐原區,04-25206635,臺中市豐原區成功路三四六號,,24.248679,120.706585
3836011863,泰揚中醫診所,私立中醫診所,中醫專科診所,臺中市豐原區,04-25287562,臺中市豐原區水源路601號,,24.254909,120.72928
3836011907,永豐中醫診所,私立中醫診所,中醫專科診所,臺中市豐原區,04-25287395,臺中市豐原區中山路401號,,24.250289,120.714371
3836011916,調昀中醫診所,私立中醫診所,中醫一般診所,臺中市豐原區,04-25202333,臺中市豐原區圓環東路三九四號,,24.245083,120.724725
3836011943,寶祥中醫診所,私立中醫診所,中醫一般診所,臺中市豐原區,04-25120383,臺中市豐原區中正路三九六號,,24.250913,120.711964
3821020234,金禾堂中醫診所,私立中醫診所,中醫一般診所,臺南市南區,06 2658869,臺南市南區文華里文南路３４６之１號,,22.9879286,120.1903312
3821020243,范姜皓亮中醫診所,私立中醫診所,中醫一般診所,臺南市南區,06 2630587,臺南市南區文華里金華路２段337號1F,,22.985667,120.1914489
3821020261,胡智能中醫診所,私立中醫診所,中醫一般診所,臺南市南區,06 2110128,臺南市南區廣州里金華路２段３５４號,,22.9841353,120.1918536
3821021286,謝昆紘中醫診所,私立中醫診所,中醫一般診所,臺南市南區,2914208,臺南市南區日新里新興路453號,,22.974954,120.1893703
3821021320,仲春堂中醫診所,私立中醫診所,中醫一般診所,臺南市南區,06-2657389,臺南市南區田寮里大成路２段44號,,22.9750613,120.1963988
3821021357,回春中醫診所,私立中醫診所,中醫一般診所,臺南市南區,06-2917440,臺南市南區郡南里新都路455號1樓,,22.9671076,120.1928468
3821021384,自然中醫診所,私立中醫診所,中醫診所,臺南市南區,06-2150666,臺南市南區新生里大同路２段112巷1號1樓,,22.9797448,120.2123806
3821021400,賴中醫診所,私立中醫診所,中醫診所,臺南市南區,06-2650808,臺南市南區明興里永興４街45號1樓,,22.964334,120.191946
3821030098,建安中醫診所,私立中醫診所,中醫一般診所,臺南市中西區,06 2251707,臺南市中西區民主里保安路１５４號,,22.9909371,120.1937427
3821030132,陳金泉中醫診所,私立中醫診所,中醫一般診所,臺南市中西區,06 2244246,臺南市中西區協和里民族路３段266號,,23.0002645,120.1928624
3821031175,妙心中醫診所,私立中醫診所,中醫一般診所,臺南市中西區,06-2507807,臺南市中西區西賢里西賢１街57巷2號,,23.0006609,120.1773517
3821031219,聖恩中醫診所,私立中醫診所,中醫一般診所,臺南市中西區,2268787,臺南市中西區三合里成功路441號一樓,,23.000839,120.196844
3821031264,真善美中醫診所,私立中醫診所,中醫一般診所,臺南市中西區,06-2212580,臺南市中西區協合里臨安路１段210號1樓,,23.0014044,120.1937148
3821031273,上品堂中醫診所,私立中醫診所,中醫診所,臺南市中西區,06-2257108,臺南市中西區青年里青年路127號1樓,,22.992064,120.2088279
3821040021,建壽中醫診所,私立中醫診所,中醫一般診所,臺南市北區,06 2224305,臺南市北區裕民里臨安路２段２０號,,23.0022429,120.1957534
3821040085,生原中醫診所,私立中醫診所,中醫一般診所,臺南市北區,06 2512034,臺南市北區正風里公園路８７８號,,23.0141311,120.2127415
3817082333,晏琳中醫診所,私立中醫診所,中醫一般診所,臺中市北屯區,04-24378728,臺中市北屯區東山路一段197之5號1樓,,24.1720739,120.7107769
3817082360,樓中亮中醫診所,私立中醫診所,中醫一般診所,臺中市北屯區,04-24222000,臺中市北屯區崇德路三段695號1樓,,24.1957855,120.6862603
3817082397,惠民中醫診所,私立中醫診所,中醫一般診所,臺中市北屯區,04-22476618,臺中市北屯區興安路一段270號1樓,,24.1725695,120.6945482
3817082413,太一中醫診所,私立中醫診所,中醫一般診所,臺中市北屯區,04-24211737,臺中市北屯區崇德九路572號1樓,,24.1870692,120.6853018
3817082440,春元中醫診所,私立中醫診所,中醫一般診所,臺中市北屯區,04-22381598、22330362,臺中市北屯區進化北路75號1樓,,24.1628118,120.6893124
3817082477,日救堂中醫診所,私立中醫診所,中醫一般診所,臺中市北屯區,22333277,臺中市北屯區昌平路一段30號1樓,,24.1664068,120.694269
3817082495,聖德慈善中醫診所,私立中醫診所,中醫診所,臺中市北屯區,04-22367306,臺中市北屯區青島路4段43號1樓,,24.168292,120.687094
3817082511,良禎中醫診所,私立中醫診所,中醫診所,臺中市北屯區,04-24266680,臺中市北屯區后庄路212號1樓,,24.1905519,120.6660268
3817082539,天醫中醫診所,私立中醫診所,中醫診所,臺中市北屯區,04-22433642,臺中市北屯區大連路二段215號1、2樓,,24.1758007,120.6878487
3817082557,光華中醫診所,私立中醫診所,中醫診所,臺中市北屯區,04-22475959,臺中市北屯區崇德路二段323號1樓,,24.1780291,120.6856645
3817082566,千庭中醫診所,私立中醫診所,中醫診所,臺中市北屯區,04-22420289,臺中市北屯區北屯路441-8號1樓,,24.1800218,120.7008716
3821010014,仁安內科中醫診所,私立中醫診所,中醫專科診所,臺南市東區,06 2344205,臺南市東區東明里東寧路２３５號,,22.9906661,120.2266481
3821010032,慧安內科婦科中醫診所,私立中醫診所,中醫專科診所,臺南市東區,06 2370823,臺南市東區裕農里裕農路１０３號,,22.9862991,120.2274614
3821010041,道元內婦科中醫診所,私立中醫診所,中醫專科診所,臺南市東區,06-2155557,臺南市東區大福里大同路2段３４３號,,22.973476,120.214856
3821010050,六安堂內科中醫診所,私立中醫診所,中醫專科診所,臺南市東區,06-2340665,臺南市東區東門里東榮街54號,,22.9897886,120.2151596
3821010112,周國恩中醫診所,私立中醫診所,中醫一般診所,臺南市東區,06 2385035,臺南市東區裕農里裕農路３１９號,,22.9869606,120.2289656
3821010130,良青中醫診所,私立中醫診所,中醫一般診所,臺南市東區,06 2670049,臺南市東區忠孝里崇明路６８號,,22.9806196,120.216746
3821010158,陳德森內傷科中醫診所,私立中醫診所,中醫專科診所,臺南市東區,06 2603276,臺南市東區德光里林森路１段１９２號,,22.982074,120.216623
3821010176,賴金蓉中醫診所,私立中醫診所,中醫一般診所,臺南市東區,06 2340880,臺南市東區後甲里裕農路６４１號,,22.988798,120.235997
3836011970,趙中醫診所,私立中醫診所,中醫一般診所,臺中市豐原區,04-25152686,臺中市豐原區成功路七十一號一、二樓,,24.242776,120.711221
3836012011,宗聖中醫診所,私立中醫診所,中醫一般診所,臺中市豐原區,04-25254019,臺中市豐原區中正路四二０號,,24.2532261,120.7219197
3836012020,養生中醫診所,私立中醫診所,中醫一般診所,臺中市豐原區,04-25262492,臺中市豐原區三豐路六八六號,,24.267254,120.720874
3836012057,天寶中醫診所,私立中醫診所,中醫一般診所,臺中市豐原區,04-25286455,臺中市豐原區北陽二街119號1樓,,24.2526025,120.7340724
3836012066,一品堂豐原中醫診所,私立中醫診所,中醫診所,臺中市豐原區,04-25232568,臺中市豐原區圓環北路二段１６１、１６３號１樓、２樓、３樓,,24.2608249,120.7236283
3836012075,健原中醫診所,私立中醫診所,中醫診所,臺中市豐原區,04-25267455,臺中市豐原區三民路１６６號１、２樓,,24.253553,120.718852
3836020059,永全中醫診所,私立中醫診所,中醫一般診所,臺中市東勢區,04-25875988,臺中市東勢區東崎街三四八號,,24.2517664,120.8424179
3836020111,永祥中醫診所,私立中醫診所,中醫一般診所,臺中市東勢區,04-25872786,臺中市東勢區東坑路二０六號,,24.24774,120.8320829
3836020139,德旺中醫診所,私立中醫診所,中醫一般診所,臺中市東勢區,04-25880995,臺中市東勢區東關路640之14號,,24.2455638,120.832262
3836021163,仁祐堂中醫診所,私立中醫診所,中醫專科診所,臺中市東勢區,04-25773311,臺中市東勢區豐勢路四八七號,,24.257884,120.8279561
3836021172,清源中醫診所,私立中醫診所,中醫一般診所,臺中市東勢區,04-25881190,臺中市東勢區本街１５７號,,24.2540088,120.8286893
3836030019,晉安中醫診所,私立中醫診所,中醫一般診所,臺中市大甲區,04-26869365,臺中市大甲區水源路９０號,,24.3409416,120.6236
3836030028,明德中醫診所,私立中醫診所,中醫一般診所,臺中市大甲區,04 26878606,臺中市大甲區鎮瀾街１６１號,,24.3456585,120.6239575
3836030037,大仁中醫診所,私立中醫診所,中醫專科診所,臺中市大甲區,04-26873313,臺中市大甲區順天路７２號,,24.3433285,120.621548
3836030064,恒源中醫診所,私立中醫診所,中醫一般診所,臺中市大甲區,04-26873390,臺中市大甲區光明路２０６號,,24.345341,120.619782
3836030073,東仁眼內科中醫診所,私立中醫診所,中醫專科診所,臺中市大甲區,04-26874562,臺中市大甲區中山路１１５９號,,24.35331,120.629416
3836030091,瑩安中醫診所,私立中醫診所,中醫一般診所,臺中市大甲區,04-26875299,臺中市大甲區鎮政路４０－３號,,24.3461159,120.6256671
3836030171,健安堂中醫診所,私立中醫診所,中醫一般診所,臺中市大甲區,04-26870166,臺中市大甲區順天路２６６號,,24.347869,120.6252888
3835050053,惠民中醫診所,私立中醫診所,中醫一般診所,苗栗縣頭份市,37660862,苗栗縣頭份市頭份里８鄰中正路２１６號,,24.6907872,120.9173479
3835050062,陽明中醫診所,私立中醫診所,中醫一般診所,苗栗縣頭份市,37671445,苗栗縣頭份市興華里１０鄰中正一路８５號,,24.6884438,120.9024836
3835050099,科學中醫診所,私立中醫診所,中醫一般診所,苗栗縣頭份市,37665592,苗栗縣頭份市中華路９２１號,,24.683667,120.905554
3835051130,林嘉發全方位中醫診所,私立中醫診所,中醫一般診所,苗栗縣頭份市,037-691168,苗栗縣頭份市東庄里18鄰東民路175號2樓,,24.6880036,120.8943892
3835051176,大安堂中醫診所,私立中醫診所,中醫一般診所,苗栗縣頭份市,037-660242,苗栗縣頭份市信東路57號,,24.6866418,120.9113612
3835051185,正中華中醫診所,私立中醫診所,中醫一般診所,苗栗縣頭份市,688219,苗栗縣頭份市中華路1121號,,24.6876671,120.910345
3835051210,康福中醫診所,私立中醫診所,中醫診所,苗栗縣頭份市,681501,苗栗縣頭份市和平路43號1樓,,24.684253,120.9076817
3835070028,永德堂中醫診所,私立中醫診所,中醫一般診所,苗栗縣卓蘭鎮,04-25895228,苗栗縣卓蘭鎮民權路二十七號,,24.311243,120.827771
3835080015,六安堂中醫診所,私立中醫診所,中醫一般診所,苗栗縣大湖鄉,37991155,苗栗縣大湖鄉中華路４鄰５號,,24.4231993,120.8674614
3835081021,天成中醫診所,私立中醫診所,中醫一般診所,苗栗縣大湖鄉,037-996226,苗栗縣大湖鄉中正路101號,,24.4226873,120.8662944
3836090239,玉泉堂中醫診所,私立中醫診所,中醫一般診所,臺中市潭子區,04-25317063,臺中市潭子區中山路一段一巷五六弄五號,,24.1875212,120.7007864
3836091272,聯安中醫診所,私立中醫診所,中醫一般診所,臺中市潭子區,04-25332712,臺中市潭子區中山路一段一七九號,,24.195354,120.7024355
3836091290,乙仁中醫診所,私立中醫診所,中醫一般診所,臺中市潭子區,04-25356385,臺中市潭子區頭張路一段四十三號,,24.1942892,120.700765
3836091316,禾伸堂中醫診所,私立中醫診所,中醫一般診所,臺中市潭子區,04-25373908,臺中市潭子區潭興路二段四六二號,,24.2110778,120.707645
3836091343,傳承中醫診所,私立中醫診所,中醫一般診所,臺中市潭子區,04-25352106,臺中市潭子區雅潭路一段一六三號一樓,,24.2162373,120.700987
3836091389,瀚聲中醫診所,私立中醫診所,中醫一般診所,臺中市潭子區,04-25353053,臺中市潭子區勝利路１４７號１樓,,24.210083,120.7009198
3836091423,吉安堂中醫診所,私立中醫診所,中醫診所,臺中市潭子區,04-25341769,臺中市潭子區中山路一段２９８之１８號,,24.1939108,120.702534
3836091441,鼎善十方中醫診所,私立中醫診所,中醫診所,臺中市潭子區,04-25337747,臺中市潭子區頭張路二段３６號１樓,,24.1945848,120.6971279
3836100052,一誠堂中醫診所,私立中醫診所,中醫一般診所,臺中市大雅區,04-25683701,臺中市大雅區民生路一段７５號,,24.2263981,120.6476403
3836101200,尚安堂中醫診所,私立中醫診所,中醫專科診所,臺中市大雅區,04-25678022,臺中市大雅區學府路學府路四一一號,,24.227215,120.6480215
3836101219,順安堂中醫診所,私立中醫診所,中醫一般診所,臺中市大雅區,04- 25654089,臺中市大雅區民生路一段二一三號,,24.2277773,120.651132
3836101228,聖原中醫診所,私立中醫診所,中醫一般診所,臺中市大雅區,04-25672200,臺中市大雅區雅環路二段２７６號１樓、２樓,,24.2294006,120.6492371
3836101255,耕心中醫診所,私立中醫診所,中醫一般診所,臺中市大雅區,04-25665799,臺中市大雅區民興街６９號１、２樓,,24.2256799,120.6484588
3836101264,陳怡吏中醫診所,私立中醫診所,中醫診所,臺中市大雅區,912255957,臺中市大雅區學府路１２９之４號１樓,,24.2197843,120.6502468
3836031301,泰乙堂中醫診所,私立中醫診所,中醫一般診所,臺中市大甲區,04-26868557,臺中市大甲區水源路十七號,,24.3418366,120.622984
3836031347,同慶堂中醫診所,私立中醫診所,中醫一般診所,臺中市大甲區,04-26883008,臺中市大甲區文武路135號,,24.347701,120.621287
3836031365,太陽中醫診所,私立中醫診所,中醫一般診所,臺中市大甲區,04-26869289,臺中市大甲區新政路256號1、2、3樓,,24.351124,120.6191575
3836031374,永吉中醫診所,私立中醫診所,中醫一般診所,臺中市大甲區,04-26866262,臺中市大甲區中華街８６號,,24.34549,120.6211978
3836031383,仁恩堂中醫診所,私立中醫診所,中醫一般診所,臺中市大甲區,04-26801000,臺中市大甲區蔣公路四十六號,,24.3450148,120.6250347
3836040024,王振生中醫診所,私立中醫診所,中醫一般診所,臺中市清水區,04-26221235,臺中市清水區鎮北街３０－１號,,24.2682699,120.576825
3836040033,老春中醫診所,私立中醫診所,中醫一般診所,臺中市清水區,04-26232210,臺中市清水區中山路３４３號,,24.271857,120.576297
3836040088,太安堂中醫診所,私立中醫診所,中醫一般診所,臺中市清水區,04 26225817,臺中市清水區中山路１５１號,,24.265417,120.573715
3836040097,太和春中醫診所,私立中醫診所,中醫一般診所,臺中市清水區,04-26222673,臺中市清水區新興路３３號,,24.26863,120.576663
3836040159,宗德中醫診所,私立中醫診所,中醫一般診所,臺中市清水區,04-26221329,臺中市清水區光華路77號,,24.264685,120.572509
3836040177,仁安堂中醫診所,私立中醫診所,中醫一般診所,臺中市清水區,04-26236651,臺中市清水區中山路77、77-1號1樓,,24.3047953,120.6011707
3836041236,仁合堂中醫診所,私立中醫診所,中醫診所,臺中市清水區,04-26236161,臺中市清水區中山路４３１、４３３號,,24.2735479,120.577003
3836041245,倉葦中醫診所,私立中醫診所,中醫診所,臺中市清水區,04-26232278,臺中市清水區中山路１２７－１號１、２樓,,24.264396,120.573336
3836050048,弘達中醫診所,私立中醫診所,中醫一般診所,臺中市沙鹿區,04-26625728,臺中市沙鹿區中山路永和巷２６２號,,24.221915,120.6454299
3836050057,一品堂中醫診所,私立中醫診所,中醫一般診所,臺中市沙鹿區,04 26655567,臺中市沙鹿區四平街６６號,,24.234543,120.560473
3831032102,家康中醫診所,私立中醫診所,中醫一般診所,新北市永和區,29291223,新北市永和區中正路三五八號一樓,,25.00071,121.5178346
3831032111,祺元堂中醫診所,私立中醫診所,中醫一般診所,新北市永和區,89253601,新北市永和區竹林路71-1號1樓,,25.0132877,121.5189658
3831032148,明仁中醫診所,私立中醫診所,中醫診所,新北市永和區,29223008,新北市永和區永貞路352號1樓,,25.006114,121.510848
3831032157,永和易元堂中醫診所,私立中醫診所,中醫診所,新北市永和區,29420899,新北市永和區中正路62號1、2樓,,24.9947203,121.5134547
3831032175,祥寧中醫診所,私立中醫診所,中醫診所,新北市永和區,02-29266869,新北市永和區中興街104號1-2樓及106號1-2樓,,25.0123211,121.5191245
3831032193,泉安堂中醫診所,私立中醫診所,中醫診所,新北市永和區,29207377,新北市永和區竹林路4號1樓,,25.0146679,121.516135
3831040015,華星中醫診所,私立中醫診所,中醫一般診所,新北市中和區,02 9432288,新北市中和區興南路一段１５１號,,24.9870324,121.5088772
3831040033,朝春中醫診所,私立中醫診所,中醫一般診所,新北市中和區,02 9419229,新北市中和區景新街３８５－２號２Ｆ,,24.9902528,121.5124756
3831040042,三元中醫診所,私立中醫診所,中醫一般診所,新北市中和區,02-22429808,新北市中和區中興街二０二巷十六之一號一樓,,24.9923302,121.499874
3831040051,福星中醫診所,私立中醫診所,中醫一般診所,新北市中和區,02 2236609,新北市中和區連城路３１６號,,24.9960498,121.4834112
3831040079,陳南中醫診所,私立中醫診所,中醫一般診所,新北市中和區,02 2227337,新北市中和區民享街５８－１號,,25.001995,121.474054
3831040097,進安中醫診所,私立中醫診所,中醫一般診所,新北市中和區,02-22485986,新北市中和區保平路356號、358號1樓,,25.0045612,121.5082
3831040417,寶島中醫診所,私立中醫診所,中醫一般診所,新北市中和區,22427093,新北市中和區景平路742號１樓,,25.0042502,121.4966738
3831040471,元隆堂中醫診所,私立中醫診所,中醫一般診所,新北市中和區,9417504,新北市中和區宜安路一九號,,24.9959023,121.512848
3831027852,六福中醫診所,私立中醫診所,中醫一般診所,新北市三重區,2973-1088,新北市三重區集成路１０號,,25.0520459,121.488392
3831027923,林源泉中醫診所,私立中醫診所,中醫一般診所,新北市三重區,2984-1753,新北市三重區碧華街５９號,,25.0813361,121.48462
3831027996,新昌中醫診所,私立中醫診所,中醫診所,新北市三重區,82879885,新北市三重區自強路三段１１０巷１５之２號,,25.07479,121.486317
3831028000,洪中醫診所,私立中醫診所,中醫診所,新北市三重區,29898612,新北市三重區長壽西街１７號,,25.0676342,121.4975025
3831030028,泰華內科針炙科中醫診所,私立中醫診所,中醫專科診所,新北市永和區,02 9275634,新北市永和區保平路１２１號,,25.0063539,121.510749
3817040111,慶全中醫診所,私立中醫診所,中醫一般診所,臺中市南區,04 2872889,臺中市南區建成路１５１９號,,24.1265684,120.6785174
3817040139,香港全壽堂中醫診所,私立中醫診所,中醫一般診所,臺中市南區,04 2619411,臺中市南區復興路一段３１０號,,24.1152826,120.6557375
3817040157,劉俊昌中醫診所,私立中醫診所,中醫一般診所,臺中市南區,04 2619121,臺中市南區復興路三段２６號,,24.1277129,120.667508
3817040175,正記中醫診所,私立中醫診所,中醫一般診所,臺中市南區,04 22622338,臺中市南區福新街２３號,,24.126404,120.6667939
3817040200,德和中醫診所,私立中醫診所,中醫一般診所,臺中市南區,04-22227490,臺中市南區濟世街六四號一樓,,24.1311999,120.677856
3817040264,居仁堂內科傷科中醫診所,私立中醫診所,中醫專科診所,臺中市南區,04-22625981,臺中市南區復興路二段１３３－３號,,24.1254129,120.664101
3817040273,大慶中醫診所,私立中醫診所,中醫一般診所,臺中市南區,04 22639363,臺中市南區高工路一二五號,,24.1133121,120.6589535
3817040344,明吉中醫診所,私立中醫診所,中醫一般診所,臺中市南區,04 2238371,臺中市南區濟世街２７號,,24.1321209,120.677809
3817040353,楊永銓中醫診所,私立中醫診所,中醫一般診所,臺中市南區,04 22201965,臺中市南區復興路三段１４８之１號,,24.1303957,120.6734725
3817040380,保健堂中醫診所,私立中醫診所,中醫一般診所,臺中市南區,04 22659089,臺中市南區工學路５２號１Ｆ,,24.1169973,120.6659523
3817040406,惟真中醫診所,私立中醫診所,中醫一般診所,臺中市南區,04 22853387,臺中市南區復新街86號1樓,,24.124979,120.676525
3817043381,健康中醫聯合診所,私立中醫診所,中醫一般診所,臺中市南區,04 22615595,臺中市南區工學路十之七號一樓,,24.1167407,120.6666783
3817043390,慈明中醫診所,私立中醫診所,中醫一般診所,臺中市南區,04 22636068,臺中市南區工學路６－６號１、２樓,,24.1170369,120.6677915
3817044404,常春中醫診所,私立中醫診所,中醫一般診所,臺中市南區,04   2236691,臺中市南區國光路六十號一樓,,24.1312142,120.676765
3817044468,順天堂中醫診所,私立中醫診所,中醫一般診所,臺中市南區,04-22600077,臺中市南區文心南十路210號1樓,,24.1170114,120.6570243
3817021787,行願中醫診所,私立中醫診所,中醫一般診所,臺中市東區,04-23604669,臺中市東區力行路50號1樓,,24.1511392,120.6959778
3817021803,開祥中醫診所,私立中醫診所,中醫一般診所,臺中市東區,04-23603465,臺中市東區進化路255號1樓,,24.152332,120.6942043
3817021849,林茂樟中醫診所,私立中醫診所,中醫一般診所,臺中市東區,04-22879989,臺中市東區建成路778號1樓,,24.130283,120.686564
3817021901,弘生堂中醫診所,私立中醫診所,中醫一般診所,臺中市東區,04-22808959,臺中市東區忠孝路476號1、2樓,,24.1332324,120.6908695
3817021929,大群中醫診所,私立中醫診所,中醫一般診所,臺中市東區,04-22130828,臺中市東區東信里樂業路298號1樓,,24.1387738,120.7026079
3817021947,裕芳中醫診所,私立中醫診所,中醫診所,臺中市東區,22878369,臺中市東區大公街102-7號1.2樓,,24.1309704,120.6869337
3817030017,泰安中醫診所,私立中醫診所,中醫一般診所,臺中市西區,04-23731825,臺中市西區林森路二五三號,,24.1401281,120.6674705
3817030071,順泰中醫診所,私立中醫診所,中醫一般診所,臺中市西區,04 3215807,臺中市西區華美街２１５號,,24.1474888,120.6586795
3817030106,吉生中醫診所,私立中醫診所,中醫一般診所,臺中市西區,04 3712828,臺中市西區南屯路一段７６號,,24.132296,120.664135
3835091063,慈祐中醫診所,私立中醫診所,中醫一般診所,苗栗縣公館鄉,231388,苗栗縣公館鄉大同路91號1樓,,24.5003691,120.8278751
3836010071,生春中醫診所,私立中醫診所,中醫專科診所,臺中市豐原區,04-25266367,臺中市豐原區中興路１１０號,,24.248328,120.715573
3836010080,德成中醫診所,私立中醫診所,中醫一般診所,臺中市豐原區,04-25225233,臺中市豐原區成功路４６３號,,24.251794,120.705684
3836010106,美雅中醫診所,私立中醫診所,中醫一般診所,臺中市豐原區,04-25265257,臺中市豐原區中興路今日市場１７號,,24.2479111,120.7135165
3836010115,貴仁堂中醫診所,私立中醫診所,中醫一般診所,臺中市豐原區,04-25247669,臺中市豐原區豐勢路一段２２４號,,24.2554484,120.7265196
3836010142,犁安中醫診所,私立中醫診所,中醫一般診所,臺中市豐原區,04-25232413,臺中市豐原區圓環西路１５９號,,24.254747,120.709893
3836010151,豐原堂中醫診所,私立中醫診所,中醫一般診所,臺中市豐原區,04-25279337,臺中市豐原區忠孝街１０３號,,24.2538643,120.7159748
3836010222,立華內科中醫診所,私立中醫診所,中醫專科診所,臺中市豐原區,04-25225601,臺中市豐原區中正路３３２號,,24.2511719,120.7134322
3836010231,泉和中醫診所,私立中醫診所,中醫一般診所,臺中市豐原區,04-25228007,臺中市豐原區市前街４１號,,24.249496,120.715541
3836010268,全生眼科中醫診所,私立中醫診所,中醫專科診所,臺中市豐原區,04-25225561,臺中市豐原區三豐路一一七號,,24.253563,120.716707
3836010277,順安中醫診所,私立中醫診所,中醫一般診所,臺中市豐原區,04-25247227,臺中市豐原區南陽路３９８號,,24.246872,120.724746
3836010286,健益中醫診所,私立中醫診所,中醫一般診所,臺中市豐原區,04-25233757,臺中市豐原區水源路６２３號,,24.254814,120.728359
3836010320,詹中醫診所,私立中醫診所,中醫一般診所,臺中市豐原區,04-25267707,臺中市豐原區惠陽街７號１樓,,24.248804,120.722537
3836010348,全德中醫診所,私立中醫診所,中醫一般診所,臺中市豐原區,04-25267652,臺中市豐原區南陽路２６７號,,24.2447546,120.727575
3836010366,德昌中醫診所,私立中醫診所,中醫一般診所,臺中市豐原區,04-25231300,臺中市豐原區中正路８７２號,,24.2493253,120.700611
3836010400,德純中醫診所,私立中醫診所,中醫一般診所,臺中市豐原區,04 25263750,臺中市豐原區成功路１８５號,,24.2454308,120.7089811
3836010446,順智謜中醫診所,私立中醫診所,中醫一般診所,臺中市豐原區,04-25228468,臺中市豐原區自立街１２３號,,24.250653,120.723692
3836010464,祥發中醫診所,私立中醫診所,中醫一般診所,臺中市豐原區,04-25285474,臺中市豐原區中正路５０２號,,24.250585,120.7086591
3836010482,金生中醫診所,私立中醫診所,中醫一般診所,臺中市豐原區,04-25267688,臺中市豐原區博愛街３０４號,,24.2459237,120.715493
3836010491,健福中醫診所,私立中醫診所,中醫一般診所,臺中市豐原區,04-25251956,臺中市豐原區中正路三三六號,,24.2512441,120.7134362
3836010553,德恩堂中醫診所,私立中醫診所,中醫一般診所,臺中市豐原區,04-25242079,臺中市豐原區中正路431號1樓,,24.25058,120.712204
3836010571,慧光中醫診所,私立中醫診所,中醫一般診所,臺中市豐原區,04-25273878,臺中市豐原區水源路一九九號,,24.2556395,120.7401104
3836010580,銧明中醫診所,私立中醫診所,中醫一般診所,臺中市豐原區,04-25231741,臺中市豐原區水源路二二三號,,24.2556942,120.7394283
3834080020,吉慶中醫診所,私立中醫診所,中醫一般診所,宜蘭縣冬山鄉,39568635,宜蘭縣冬山鄉群英村義成路３段５５２號,,24.6689161,121.768632
3834090026,同濟中醫診所,私立中醫診所,中醫一般診所,宜蘭縣五結鄉,39506507,宜蘭縣五結鄉五結村中興路2段60號,,24.6911727,121.7842468
3834101033,星現代中醫診所,私立中醫診所,中醫一般診所,宜蘭縣三星鄉,03-9895588,宜蘭縣三星鄉三星路五段180號,,24.6658461,121.649571
3835010086,吳家熙中醫診所,私立中醫診所,中醫一般診所,苗栗縣苗栗市,37337139,苗栗縣苗栗市大同里６鄰中山路８１４號,,24.555603,120.8104098
3835010175,錦昌中醫診所,私立中醫診所,中醫一般診所,苗栗縣苗栗市,37322883,苗栗縣苗栗市大同路124號,,24.5518849,120.8152819
3835010200,郭豐演中醫診所,私立中醫診所,中醫一般診所,苗栗縣苗栗市,37354705,苗栗縣苗栗市府前路81號,,24.5614938,120.8197189
3835010228,大德中醫診所,私立中醫診所,中醫一般診所,苗栗縣苗栗市,37357583,苗栗縣苗栗市北苗里8鄰橫車路85號,,24.5735335,120.8226155
3835011243,京鼎中醫聯合診所,私立中醫診所,中醫一般診所,苗栗縣苗栗市,037-366876,苗栗縣苗栗市中山路六六二號,,24.556508,120.818475
3831171168,國寶堂中醫診所,私立中醫診所,中醫一般診所,新北市林口區,26021950,新北市林口區文化二路二段159號1樓,,25.0832444,121.3800911
3831171186,達可得黃中醫診所,私立中醫診所,中醫診所,新北市林口區,26098067,新北市林口區仁愛路2段269號2樓之1,,25.0742848,121.3825559
3831230519,十全中醫診所,私立中醫診所,中醫一般診所,新北市八里區,26185377,新北市八里區龍米路一段119號1樓,,25.125261,121.4531243
3831230528,九如中醫診所,私立中醫診所,中醫診所,新北市八里區,86302819,新北市八里區中華路二段460號1樓,,25.1459777,121.4005585
3831280019,天寶堂中醫診所,私立中醫診所,中醫一般診所,新北市萬里區,02 4920789,新北市萬里區瑪鍊路１１２號,,25.1406792,121.7143014
3832010048,正錦中醫診所,私立中醫診所,中醫一般診所,桃園市桃園區,03 3375084,桃園市桃園區民生路６１６號,,25.0021192,121.3097849
3832010084,仁愛中醫診所,私立中醫診所,中醫一般診所,桃園市桃園區,03 3351036,桃園市桃園區中山路２８號,,24.995354,121.312261
3832010100,永春堂中醫診所,私立中醫診所,中醫一般診所,桃園市桃園區,03 3321032,桃園市桃園區文化街七十七號,,24.991355,121.306946
3832010164,林內科中醫診所,私立中醫診所,中醫一般診所,桃園市桃園區,(03)3012431,桃園市桃園區永安路１０２６號,,25.0091023,121.2882908
3832010208,銀堂中醫診所,私立中醫診所,中醫一般診所,桃園市桃園區,03 3326653,桃園市桃園區中山路327號,"內科,",24.9915759,121.303174
3832010217,國元中醫診所,私立中醫診所,中醫專科診所,桃園市桃園區,(03)3168161,桃園市桃園區慈文路一九七號,,25.0076897,121.3032142
3832010226,李府恩中醫診所,私立中醫診所,中醫一般診所,桃園市桃園區,(03)2202439,桃園市桃園區中山路６２１號,,24.990939,121.294178
3832010253,順安中醫診所,私立中醫診所,中醫一般診所,桃園市桃園區,03 3552768,桃園市桃園區永安路１４３２號,,25.01248,121.274976
3832010306,陳錦川中醫診所,私立中醫診所,中醫一般診所,桃園市桃園區,03 3610373,桃園市桃園區長沙街３８號,,24.980859,121.307537
3832010351,陽明中醫診所,私立中醫診所,中醫一般診所,桃園市桃園區,03 3353451,桃園市桃園區撫街５０號,,24.9736299,121.2645774
3832010360,曾中醫診所,私立中醫診所,中醫一般診所,桃園市桃園區,03 3322765,桃園市桃園區永樂街１１０號,,24.998187,121.310579
3831131860,易元堂中醫診所,私立中醫診所,中醫一般診所,新北市土城區,22634669,新北市土城區學府路1段107號1、2樓,,24.9875059,121.4558062
3831131897,弘祐中醫診所,私立中醫診所,中醫診所,新北市土城區,,新北市土城區中央路4段113號1樓,,24.9576978,121.4166463
3831140056,培元中醫診所,私立中醫診所,中醫一般診所,新北市蘆洲區,02 2810328,新北市蘆洲區中山二路６９號,,25.0819155,121.473552
3831140065,一品堂中醫診所,私立中醫診所,中醫一般診所,新北市蘆洲區,02 2812373,新北市蘆洲區中正路１１８號,,25.084832,121.4694386
3831140136,同仁堂中醫診所,私立中醫診所,中醫一般診所,新北市蘆洲區,02 2818192,新北市蘆洲區信義路２９7、299號,,25.085985,121.4785019
3831030046,大德生中醫診所,私立中醫診所,中醫專科診所,新北市永和區,02 9216354,新北市永和區竹林路２２５巷２號,,25.008407,121.5210988
3831030073,康源中醫診所,私立中醫診所,中醫一般診所,新北市永和區,02 9258628,新北市永和區得和路３５１號,,24.999595,121.5242557
3831030162,俊發中醫診所,私立中醫診所,中醫一般診所,新北市永和區,02 9213815,新北市永和區復興街３１號,,25.013155,121.516305
3831030206,竹林堂中醫診所,私立中醫診所,中醫一般診所,新北市永和區,02 9213290,新北市永和區永和路二段２４９號,,25.0151496,121.5157383
3831030260,竹安堂中醫診所,私立中醫診所,中醫一般診所,新北市永和區,02 9212751,新北市永和區永亨路７號,,25.0058415,121.5193257
3831030331,上海堂中醫診所,私立中醫診所,中醫一般診所,新北市永和區,02 2319589,新北市永和區永貞路２１８號,,25.0040446,121.5151863
3831030340,獻寶中醫診所,私立中醫診所,中醫一般診所,新北市永和區,02 9296945,新北市永和區福和路三六二號,,25.0075081,121.5147167
3831030402,合元中醫診所,私立中醫診所,中醫一般診所,新北市永和區,02 9418857,新北市永和區民權路８號,,24.999645,121.5201613
3831030411,利源中醫診所,私立中醫診所,中醫一般診所,新北市永和區,(02)89252558,新北市永和區竹林路179巷1號1樓,,25.0099802,121.5208273
3831030420,永豐中醫診所,私立中醫診所,中醫一般診所,新北市永和區,9213264,新北市永和區永平路１４６號,,25.0086539,121.511458
3831030457,葉圳松中醫診所,私立中醫診所,中醫一般診所,新北市永和區,2461398,新北市永和區中和路３４３號１２．１２之２樓,,24.999844,121.507879
3831030475,華興中醫診所,私立中醫診所,中醫一般診所,新北市永和區,9488722,新北市永和區成功路二段９０號,,24.9986711,121.5264803
3831030546,秀朗中醫診所,私立中醫診所,中醫一般診所,新北市永和區,29488502,新北市永和區民權路二四號,,24.9992989,121.5201224
3831020657,永昇中醫診所,私立中醫診所,中醫一般診所,新北市三重區,02 29780781,新北市三重區中寮街20號之5,,25.0595107,121.4923456
3831020675,國嘉中醫診所,私立中醫診所,中醫一般診所,新北市三重區,9804259,新北市三重區重新路三段１１５巷１８號,,25.0606543,121.4899346
3831020835,楊士弘中醫診所,私立中醫診所,中醫一般診所,新北市三重區,02 23920305,新北市三重區五華街１４４號,,25.0839336,121.4913133
3831020906,陳逸德中醫診所,私立中醫診所,中醫一般診所,新北市三重區,29721815,新北市三重區中央南路二號,,25.0631644,121.501287
3831020915,集美中醫診所,私立中醫診所,中醫一般診所,新北市三重區,02 29746397,新北市三重區集美街47號,,25.055345,121.4880099
3821010256,黃修傑中醫診所,私立中醫診所,中醫一般診所,臺南市東區,06 2901455,臺南市東區崇德里崇德路５１８號,,22.973337,120.227332
3821010283,崇德中醫診所,私立中醫診所,中醫一般診所,臺南市東區,06 2890421,臺南市東區崇文里崇德１７街７１號,,22.967037,120.229189
3821010336,育德中醫診所,私立中醫診所,中醫一般診所,臺南市東區,06 2695597,臺南市東區東智里崇德３４街３０號,,22.9609119,120.2288105
3821010354,天仁中醫診所,私立中醫診所,中醫一般診所,臺南市東區,06-2903645,臺南市東區復興里富農街１段２３０號,,22.982804,120.23521
3821010381,鴻安中醫診所,私立中醫診所,中醫一般診所,臺南市東區,06 2907578,臺南市東區崇成里崇德路606號1樓,,22.9709882,120.2273753
3821010470,天一中醫聯合診所,私立中醫診所,中醫一般診所,臺南市東區,06 2083935,臺南市東區崇信里東門路二段332之2號1樓,,22.9836712,120.2258567
3821010498,聖達中醫診所,私立中醫診所,中醫一般診所,臺南市東區,06 2351141,臺南市東區後甲里建東街４１號,,22.9902804,120.2369487
3821010514,馮榮陞中醫診所,私立中醫診所,中醫一般診所,臺南市東區,06 2384138,臺南市東區崇誨里林森路２段214號1樓,,22.9900181,120.224414
3821010523,吳建興中醫診所,私立中醫診所,中醫一般診所,臺南市東區,06 2343996,臺南市東區東安里東門路２段５７號,,22.9861884,120.2206023
3821010532,吉泰中醫診所,私立中醫診所,中醫一般診所,臺南市東區,06 2898742,臺南市東區崇德里崇明路443號,,22.973319,120.2244305
3821011600,高堂中醫診所,私立中醫診所,中醫一般診所,臺南市東區,2146969,臺南市東區路東里大同路2段89號,,22.9793171,120.2131175
3821011619,陳得財中醫診所,私立中醫診所,中醫一般診所,臺南市東區,06-3316869,臺南市東區文聖里裕文路323號1樓,,22.9824515,120.2467425
3821011682,觀音中醫診所,私立中醫診所,中醫一般診所,臺南市東區,3364330,臺南市東區虎尾里東門路３段205號1樓,,22.9772451,120.2349272
3821011708,永豪中醫診所,私立中醫診所,中醫一般診所,臺南市東區,2608528,臺南市東區自強里富農街１段191巷4號,,22.9828828,120.2346672
3821011735,奇德中醫診所,私立中醫診所,中醫一般診所,臺南市東區,2890162,臺南市東區崇成里崇德路633號,,22.971072,120.227749
3817080535,菩心中醫診所,私立中醫診所,中醫一般診所,臺中市北屯區,04 22393771,臺中市北屯區和祥街十三號一樓,,24.1770851,120.7273334
3817080562,仲正中醫診所,私立中醫診所,中醫一般診所,臺中市北屯區,04-22354836,臺中市北屯區崇德路一段５５２號,,24.167243,120.685452
3817080606,保生中醫診所,私立中醫診所,中醫一般診所,臺中市北屯區,04 22306432,臺中市北屯區國校巷２０號,,24.1652156,120.6909738
3817080615,聖惠中醫診所,私立中醫診所,中醫一般診所,臺中市北屯區,04 2420968,臺中市北屯區崇德二路一段二六○號,,24.1815237,120.6861019
3817080642,有慈氏中醫診所,私立中醫診所,中醫一般診所,臺中市北屯區,04-22416376,臺中市北屯區松竹路二段362之1、362之2號1樓,,24.182479,120.68979
3817080660,同濟中醫聯合診所,私立中醫診所,中醫一般診所,臺中市北屯區,04 22976702,臺中市北屯區中清路二段46號、48號1樓、2樓,,24.1746983,120.6712348
3817080697,安泰中醫診所,私立中醫診所,中醫一般診所,臺中市北屯區,04-22421172,臺中市北屯區昌平路一段105之10號1樓,,24.17331,120.690327
3817080713,慶和中醫診所,私立中醫診所,中醫一般診所,臺中市北屯區,04 22349336,臺中市北屯區北屯路232之2號1樓,,24.169372,120.697437
3817080777,大眾中醫診所,私立中醫診所,中醫一般診所,臺中市北屯區,04-22492327,臺中市北屯區昌平路二段一之一號一樓,,24.1817586,120.6886481
3817080786,康然中醫診所,私立中醫診所,中醫一般診所,臺中市北屯區,04-2243-5766,臺中市北屯區安順東十街56號1樓,,24.175322,120.6920649
3817080802,松鶴二仙堂中醫診所,私立中醫診所,中醫一般診所,臺中市北屯區,04-22955713,臺中市北屯區中清路一○七之九號一樓,,24.1833165,120.6654953
3817080811,大翰中醫診所,私立中醫診所,中醫一般診所,臺中市北屯區,04 24361005,臺中市北屯區松竹5路 332號1樓 ,,24.1826192,120.6909765
3835011261,彭千芸中醫診所,私立中醫診所,中醫一般診所,苗栗縣苗栗市,356275,苗栗縣苗栗市天雲街17號,,24.5521563,120.8166946
3835011289,保生堂中醫診所,私立中醫診所,中醫一般診所,苗栗縣苗栗市,037-327759,苗栗縣苗栗市大同路130號,,24.5517377,120.81531
3835011369,林基石中醫診所,私立中醫診所,中醫一般診所,苗栗縣苗栗市,(037)377911,苗栗縣苗栗市玉清路39號,,24.563745,120.827825
3835011412,梧桐中醫診所,私立中醫診所,中醫診所,苗栗縣苗栗市,275588,苗栗縣苗栗市北苗里19鄰正發路27號1樓,,24.5735335,120.8226155
3835011430,昆賢中醫診所,私立中醫診所,中醫一般診所,苗栗縣苗栗市,260918,苗栗縣苗栗市為公路81號1樓,,24.570369,120.824757
3835020064,一品堂中醫診所,私立中醫診所,中醫一般診所,苗栗縣苑裡鎮,37869518,苗栗縣苑裡鎮信義路48號1樓,,24.4418951,120.6546379
3835021098,荃春中醫診所,私立中醫診所,中醫一般診所,苗栗縣苑裡鎮,037_856607,苗栗縣苑裡鎮新興路三十五巷六號,,24.4409426,120.6514994
3835021141,漢昌中醫診所,私立中醫診所,中醫診所,苗栗縣苑裡鎮,037-852118,苗栗縣苑裡鎮為公路11號1樓,,24.4419944,120.655088
3835031058,賢明中醫診所,私立中醫診所,中醫診所,苗栗縣通霄鎮,037-765500,苗栗縣通霄鎮中正路32號1樓,,24.4902606,120.681368
3835040020,神農中醫診所,私立中醫診所,中醫一般診所,苗栗縣竹南鎮,472789,苗栗縣竹南鎮光復路176之3號1樓,,24.688009,120.879608
3835040075,鴻仁中醫診所,私立中醫診所,中醫一般診所,苗栗縣竹南鎮,037-475198,苗栗縣竹南鎮環市路一段一八九號,,24.6819759,120.8743963
3835041081,漢林中醫診所,私立中醫診所,中醫一般診所,苗栗縣竹南鎮,37482208,苗栗縣竹南鎮博愛街202號,,24.6872221,120.874162
3835041143,全安堂中醫診所,私立中醫診所,中醫一般診所,苗栗縣竹南鎮,460700,苗栗縣竹南鎮立達街81號1樓,,24.6900138,120.8777609
3834051074,大新中醫診所,私立中醫診所,中醫一般診所,宜蘭縣礁溪鄉,03-9880080,宜蘭縣礁溪鄉中山路一段203號,,24.8216996,121.770962
3833051258,光明中醫診所,私立中醫診所,中醫診所,新竹縣竹北市,36586098,新竹縣竹北市莊敬5街11號,,24.8215521,121.0260309
3833051267,立心中醫診所,私立中醫診所,中醫診所,新竹縣竹北市,03-6576626,新竹縣竹北市勝利五路225號,,24.8231093,121.0297357
3833060024,仁安中醫診所,私立中醫診所,中醫一般診所,新竹縣湖口鄉,35692603,新竹縣湖口鄉湖鏡村湖口老街二五七號,,24.8776448,121.058342
3833060033,范中醫診所,私立中醫診所,中醫一般診所,新竹縣湖口鄉,03-5903503,新竹縣湖口鄉達生路８０號,,24.9030827,121.0470409
3833060079,信華中醫診所,私立中醫診所,中醫一般診所,新竹縣湖口鄉,03-5902781,新竹縣湖口鄉中民街15號1樓,,24.905749,121.0464749
3833060088,毅安中醫診所,私立中醫診所,中醫一般診所,新竹縣湖口鄉,03-5903068,新竹縣湖口鄉成功路一七五號,,24.90369,121.042739
3833061101,盧廷圳中醫診所,私立中醫診所,中醫一般診所,新竹縣湖口鄉,5904733,新竹縣湖口鄉忠孝路26號,,24.9004939,121.046222
3833061110,秀輝中醫診所,私立中醫診所,中醫一般診所,新竹縣湖口鄉,03-5903931,新竹縣湖口鄉達生路52號,,24.9034117,121.0463683
3833080044,長安中醫診所,私立中醫診所,中醫一般診所,新竹縣新豐鄉,35594218,新竹縣新豐鄉新興路２３７號,,24.8701364,120.9966714
3833081069,均安中醫診所,私立中醫診所,中醫一般診所,新竹縣新豐鄉,03-5578356,新竹縣新豐鄉泰安街82號,,24.8705206,120.993551
3833081087,上上中醫診所,私立中醫診所,中醫診所,新竹縣新豐鄉,5579399,新竹縣新豐鄉建興路一段74號1樓,,24.871317,120.9952955
3833091029,劉仁貴中醫診所,私立中醫診所,中醫一般診所,新竹縣芎林鄉,5923649,新竹縣芎林鄉文山路620號,,24.7789161,121.0765522
3834010082,六安堂中醫診所,私立中醫診所,中醫一般診所,宜蘭縣宜蘭市,39334565,宜蘭縣宜蘭市光復路２３號,,24.7548542,121.7565046
3834010091,慶安中醫診所,私立中醫診所,中醫一般診所,宜蘭縣宜蘭市,39357877,宜蘭縣宜蘭市和睦路７０號,,24.7573892,121.7576964
3834010117,林鴻飛中醫診所,私立中醫診所,中醫一般診所,宜蘭縣宜蘭市,39387899,宜蘭縣宜蘭市延平路３８－４５號,,24.7557543,121.7662951
3834010153,德安中醫診所,私立中醫診所,中醫一般診所,宜蘭縣宜蘭市,03 9330220,宜蘭縣宜蘭市復興路49號,,24.748701,121.74844
3831140449,勝原堂中醫診所,私立中醫診所,中醫一般診所,新北市蘆洲區,282835981,新北市蘆洲區信義路246號之5  246號之6  1樓,,25.0863826,121.4785231
3831141688,新立中醫診所,私立中醫診所,中醫一般診所,新北市蘆洲區,02 22817900,新北市蘆洲區中山二路四十六巷十三號,,25.0823784,121.4743564
3831141722,大春中醫診所,私立中醫診所,中醫一般診所,新北市蘆洲區,02-22881052,新北市蘆洲區中正路1號1樓,,25.0815704,121.4716068
3831141839,同慶堂中醫診所,私立中醫診所,中醫一般診所,新北市蘆洲區,22895799,新北市蘆洲區長安街295號1樓,,25.0847192,121.458101
3831141866,得康中醫診所,私立中醫診所,中醫一般診所,新北市蘆洲區,22898866,新北市蘆洲區中原路41號1樓,,25.0823475,121.4596054
3831141884,信義中醫診所,私立中醫診所,中醫診所,新北市蘆洲區,82831919,新北市蘆洲區信義路261號,,25.0847248,121.4789375
3831141937,元安堂中醫診所,私立中醫診所,中醫診所,新北市蘆洲區,,新北市蘆洲區長榮路34號1樓,,25.082824,121.463285
3831150043,周中醫診所,私立中醫診所,中醫一般診所,新北市五股區,2915662,新北市五股區成泰路二段１８２號,,25.0846058,121.4386128
3831151077,聖德堂中醫診所,私立中醫診所,中醫一般診所,新北市五股區,22952888,新北市五股區成泰路二段一四○號,,25.0848317,121.4386586
3831111242,廣緣堂中醫診所,私立中醫診所,中醫診所,新北市汐止區,02-86951725,新北市汐止區明峰街132號,,25.0710113,121.6298776
3831130121,吉德中醫診所,私立中醫診所,中醫一般診所,新北市土城區,02 6462901,新北市土城區土城市延吉街１６８巷３號,,24.9850564,121.4668128
3831130238,延和中醫診所,私立中醫診所,中醫一般診所,新北市土城區,22635611,新北市土城區延和路127號1樓、125巷2號1樓、125巷4號1樓,,24.990567,121.468774
3831027361,華泰中醫診所,私立中醫診所,中醫一般診所,新北市三重區,02-22839907,新北市三重區三和路四段153-1號,,25.0783602,121.4838263
3831027414,忠孝龍安中醫診所,私立中醫診所,中醫一般診所,新北市三重區,89813498,新北市三重區忠孝路二段五十三號,,25.0708679,121.485209
3831027521,天士堂中醫診所,私立中醫診所,中醫一般診所,新北市三重區,02 29738867,新北市三重區信義街七十三號,,25.0650803,121.5016177
3831027629,龍安中醫診所,私立中醫診所,中醫一般診所,新北市三重區,22878797,新北市三重區仁愛街680號1樓,,25.0801552,121.4816253
3831027665,益成中醫診所,私立中醫診所,中醫一般診所,新北市三重區,29725039,新北市三重區三和路二段77號,,25.0682105,121.5000421
3831027709,保安堂中醫診所,私立中醫診所,中醫一般診所,新北市三重區,2989-6251,新北市三重區正義北路四七.四九號一.二樓,,25.0628279,121.4975392
3831027816,全心堂中醫診所,私立中醫診所,中醫一般診所,新北市三重區,89829966,新北市三重區自強路三段３５?３７號,,25.072664,121.48711
3831013143,聖杰中醫診所,私立中醫診所,中醫一般診所,新北市板橋區,02-22588445,新北市板橋區陽明街一二六號1、2樓,,25.023668,121.4637531
3831013189,裕芳中醫診所,私立中醫診所,中醫一般診所,新北市板橋區,29588222,新北市板橋區貴興路三十八號,,25.00335,121.457195
3831013278,仁心中醫診所,私立中醫診所,中醫一般診所,新北市板橋區,29665049,新北市板橋區北門街42-3號1、2樓,,25.0111764,121.4570017
3831013296,德康中醫診所,私立中醫診所,中醫一般診所,新北市板橋區,22512988,新北市板橋區漢生西路36號,,25.0184085,121.4634352
3831013330,明德中醫診所,私立中醫診所,中醫一般診所,新北市板橋區,22544898,新北市板橋區文聖街19號,,25.0321692,121.4757868
3831013367,回春中醫診所,私立中醫診所,中醫一般診所,新北市板橋區,29667970  0933122962,新北市板橋區國光路17號1樓,,25.017547,121.4567611
3831013385,原福德中醫診所,私立中醫診所,中醫一般診所,新北市板橋區,02-2959-0886,新北市板橋區四川路1段477號1樓．2樓,,24.997287,121.457237
3831013394,華康中醫診所,私立中醫診所,中醫一般診所,新北市板橋區,,新北市板橋區陽明街80號,,25.022812,121.464558
3831013401,六合堂中醫診所,私立中醫診所,中醫診所,新北市板橋區,02-29668397,新北市板橋區中正路332-4號1樓,,25.0225179,121.454563
3831013410,榮德中醫診所,私立中醫診所,中醫一般診所,新北市板橋區,02-22568227  02-22568228,新北市板橋區懷德街131號,,25.0306469,121.47921
3831013429,鴻仁中醫診所,私立中醫診所,中醫一般診所,新北市板橋區,02-29546268,新北市板橋區三民路2段136之2號1樓,,25.01622,121.479129
3817062242,醫龍中醫診所,私立中醫診所,中醫診所,臺中市西屯區,04-27071009,臺中市西屯區上安路132號1樓,,24.171423,120.63994
3817062260,翁誌宏中醫診所,私立中醫診所,中醫診所,臺中市西屯區,04-23153358,臺中市西屯區甘肅路一段81號1樓,,24.1662851,120.6587709
3817062279,永禾堂中醫診所,私立中醫診所,中醫診所,臺中市西屯區,04-22985999,臺中市西屯區中清西二街125號1樓,,24.175623,120.665052
3817062304,昀闛中醫診所,私立中醫診所,中醫診所,臺中市西屯區,04-24636606,臺中市西屯區永福路37號1樓,,24.1832307,120.6201145
3817062313,存仁堂中醫診所,私立中醫診所,中醫診所,臺中市西屯區,04-27073655,臺中市西屯區青海路二段320號1樓,,24.175003,120.63927
3817070020,景泰中醫診所,私立中醫診所,中醫專科診所,臺中市南屯區,04 3823178,臺中市南屯區南屯路二段７００號,,24.1394679,120.639382
3817070039,龍生堂中醫診所,私立中醫診所,中醫一般診所,臺中市南屯區,04 3898480,臺中市南屯區南屯路二段６２７號,,24.1398318,120.6379132
3817070084,天真中醫診所,私立中醫診所,中醫一般診所,臺中市南屯區,04-24721245,臺中市南屯區精誠路六七二號一樓,,24.138518,120.654357
3817070128,楊中醫診所,私立中醫診所,中醫一般診所,臺中市南屯區,04-24728125,臺中市南屯區南屯路二段１１５號,,24.1358813,120.6520204
3817070146,黎明中醫診所,私立中醫診所,中醫一般診所,臺中市南屯區,3877366,臺中市南屯區京展街二二○號,,24.1471183,120.6084832
3817070164,仰德中醫診所,私立中醫診所,中醫一般診所,臺中市南屯區,04-24737808,臺中市南屯區大墩四街三三二號一樓,,24.1413524,120.6460187
3817070182,白旭容中醫診所,私立中醫診所,中醫一般診所,臺中市南屯區,04-2382-1995,臺中市南屯區永春東路872號1樓,,24.13517,120.640745
3817070208,明德中醫聯合診所,私立中醫診所,中醫一般診所,臺中市南屯區,04 3845972,臺中市南屯區黎明路一段１１５０、１１５２號,,24.141784,120.63819
3817070235,鴻安中醫診所,私立中醫診所,中醫一般診所,臺中市南屯區,04-22549323,臺中市南屯區干城街291號1樓,,24.152511,120.6339195
3817070244,漢昇中醫診所,私立中醫診所,中醫一般診所,臺中市南屯區,04 23866267,臺中市南屯區忠勇路２７之３、２７之４號１Ｆ,,24.1334984,120.6089305
3817070253,順源堂中醫診所,私立中醫診所,中醫一般診所,臺中市南屯區,04 2581080,臺中市南屯區黎明路二段４５０號１Ｆ,,24.151831,120.635377
3817070271,維信華信聯合門診華信中醫診所,私立中醫診所,中醫一般診所,臺中市南屯區,04-23195319,臺中市南屯區大墩路四七一號二樓,,24.147554,120.649637
3817070397,呂祐吉中醫診所,私立中醫診所,中醫一般診所,臺中市南屯區,04-23286146,臺中市南屯區大業路１９７號１Ｆ,,24.15335,120.650337
3817070422,葉慧昌中醫診所,私立中醫診所,中醫一般診所,臺中市南屯區,04-24716048,臺中市南屯區精誠路５３２號一樓,,24.142277,120.654917
3817070468,臻品聯合診所臻品中醫診所,私立中醫診所,中醫一般診所,臺中市南屯區,04-24756986,臺中市南屯區東興路二段341號1樓,,24.1444903,120.6528493
3817071465,青芙杰中醫診所,私立中醫診所,中醫一般診所,臺中市南屯區,04-23819881,臺中市南屯區惠中路3段363號1樓,,24.1427504,120.6408834
3817060060,雍昌中醫診所,私立中醫診所,中醫一般診所,臺中市西屯區,04-27054771,臺中市西屯區西屯路二段２９５－５號,,24.1774447,120.642368
3817060097,德泰中醫診所,私立中醫診所,中醫一般診所,臺中市西屯區,04-23135648,臺中市西屯區重慶路１４３號,,24.166658,120.656436
3817060140,新仁安中醫診所,私立中醫診所,中醫一般診所,臺中市西屯區,04-24630401,臺中市西屯區臺灣大道四段808號,,24.181136,120.620103
3817060168,永春堂中醫診所,私立中醫診所,中醫一般診所,臺中市西屯區,04-23584136,臺中市西屯區安和路４１號,,24.164352,120.61888
3817060186,廣生堂中醫診所,私立中醫診所,中醫一般診所,臺中市西屯區,04-23295827,臺中市西屯區大墩路９３４號,,24.157562,120.651299
3817060239,文心中醫診所,私立中醫診所,中醫一般診所,臺中市西屯區,04-27061315,臺中市西屯區逢甲路１２４號一樓,,24.1786042,120.6432526
3817060346,景新中醫診所,私立中醫診所,中醫一般診所,臺中市西屯區,04-24625025,臺中市西屯區福科路四七三、四七五號一、二樓,,24.1835407,120.6214118
3817060426,博愛中醫診所,私立中醫診所,中醫一般診所,臺中市西屯區,04-23142012,臺中市西屯區漢口路二段１０７號１Ｆ,,24.16495,120.660816
3834011178,六順中醫診所,私立中醫診所,中醫一般診所,宜蘭縣宜蘭市,03-9366696,宜蘭縣宜蘭市宜興路1段55號,,24.7496534,121.7554261
3834011196,仁濟中醫聯合診所,私立中醫診所,中醫一般診所,宜蘭縣宜蘭市,9323249,宜蘭縣宜蘭市文昌路147之1號,,24.7581555,121.7487467
3834011203,慶餘堂中醫診所,私立中醫診所,中醫一般診所,宜蘭縣宜蘭市,928522073,宜蘭縣宜蘭市康樂路5號,,24.755576,121.757415
3834011221,成春中醫診所,私立中醫診所,中醫一般診所,宜蘭縣宜蘭市,03-9322606,宜蘭縣宜蘭市康樂路九十號,,24.7562293,121.7546763
3834011276,國泰中醫診所,私立中醫診所,中醫診所,宜蘭縣宜蘭市,39360869,宜蘭縣宜蘭市農權路三段10號,,24.7487996,121.7427645
3834011285,新南大中醫診所,私立中醫診所,中醫診所,宜蘭縣宜蘭市,39355007,宜蘭縣宜蘭市宜興路1段97號,,24.7508491,121.755854
3834020104,羅國鶴中醫診所,私立中醫診所,中醫一般診所,宜蘭縣羅東鎮,039515825;039515835,宜蘭縣羅東鎮維揚路188號,,24.6721432,121.7581634
3834020122,現代中醫診所,私立中醫診所,中醫一般診所,宜蘭縣羅東鎮,03 9613361,宜蘭縣羅東鎮公正路405號,,24.6805141,121.7594793
3834021183,佳恩中醫診所,私立中醫診所,中醫一般診所,宜蘭縣羅東鎮,9560558,宜蘭縣羅東鎮中華路70號,,24.6786327,121.7672185
3834021209,同仁堂中醫聯合診所,私立中醫診所,中醫一般診所,宜蘭縣羅東鎮,9573095,宜蘭縣羅東鎮天津路60號,,24.680627,121.770244
3834021245,羅東仁濟中醫聯合診所,私立中醫診所,中醫一般診所,宜蘭縣羅東鎮,39533106,宜蘭縣羅東鎮興東南路１號,,24.66867,121.7719694
3834021263,羅東南大中醫診所,私立中醫診所,中醫一般診所,宜蘭縣羅東鎮,03-9531717,宜蘭縣羅東鎮中山路三段438號,,24.6747928,121.7653398
3834021281,養生堂中醫診所,私立中醫診所,中醫一般診所,宜蘭縣羅東鎮,03-9541010,宜蘭縣羅東鎮林森路101號,,24.679706,121.768661
3834021307,一生中醫診所,私立中醫診所,中醫一般診所,宜蘭縣羅東鎮,03-9603753,宜蘭縣羅東鎮光榮路328號,,24.6783086,121.7780291
3834021343,存仁堂中醫診所,私立中醫診所,中醫診所,宜蘭縣羅東鎮,03-9573456,宜蘭縣羅東鎮倉前路36、38號,,24.6808899,121.7702138
3834021352,怡得心中醫診所,私立中醫診所,中醫診所,宜蘭縣羅東鎮,03-9610068,宜蘭縣羅東鎮中山路四段262號,,24.6731671,121.7584271
3834030020,世揚中醫診所,私立中醫診所,中醫一般診所,宜蘭縣蘇澳鎮,39962038,宜蘭縣蘇澳鎮蘇西里中山路１１３號,,24.5962353,121.8400454
3834041023,陳春光中醫診所,私立中醫診所,中醫一般診所,宜蘭縣頭城鎮,03-9782937,宜蘭縣頭城鎮吉祥路九十號,,24.856928,121.820644
3834050059,曾燦傑中醫診所,私立中醫診所,中醫一般診所,宜蘭縣礁溪鄉,39287551,宜蘭縣礁溪鄉礁溪路１段248號,,24.7884596,121.7620063
3832101204,范逢中醫診所,私立中醫診所,中醫一般診所,桃園市平鎮區,03-4015166,桃園市平鎮區義興街52號1樓,,24.949146,121.209561
3832101222,賴傳洪中醫診所,私立中醫診所,中醫一般診所,桃園市平鎮區,03-4226003,桃園市平鎮區康樂路四五之一號,,24.9530929,121.221259
3832101375,一品堂中醫診所,私立中醫診所,中醫一般診所,桃園市平鎮區,4952000,桃園市平鎮區延平路二段九一號一樓,,24.9492309,121.2120284
3832101446,龍興中醫診所,私立中醫診所,中醫診所,桃園市平鎮區,03-4195219,桃園市平鎮區南豐路63號,,24.9003309,121.2092364
3832110034,祥安中醫診所,私立中醫診所,中醫一般診所,桃園市新屋區,03 -4776095,桃園市新屋區中興路２０號,,24.9724684,121.1030998
3832111077,保安堂中醫診所,私立中醫診所,中醫一般診所,桃園市新屋區,34970270,桃園市新屋區中山路306號,,24.973021,121.105793
3831130550,祐生中醫診所,私立中醫診所,中醫一般診所,新北市土城區,222741763,新北市土城區裕民路二０二號,,24.9891415,121.4466372
3831130569,陳鴻翔中醫診所,私立中醫診所,中醫一般診所,新北市土城區,02-82732377,新北市土城區裕民路98號1、2樓,,24.9868649,121.4504783
3831131584,清水建全中醫診所,私立中醫診所,中醫一般診所,新北市土城區,02-22649299,新北市土城區明德路一段59號1樓,,24.9845322,121.4654085
3831131600,林原億中醫診所,私立中醫診所,中醫一般診所,新北市土城區,22649428,新北市土城區學府路1段二三六號,,24.9849573,121.4517501
3831131799,聖和中醫診所,私立中醫診所,中醫一般診所,新北市土城區,89666288,新北市土城區廣興街28、30號1樓,,24.9917847,121.4557229
3831131815,渼林中醫診所,私立中醫診所,中醫一般診所,新北市土城區,22645353,新北市土城區清水路179號1樓,,24.9816065,121.4595098
3831090033,太元堂中醫診所,私立中醫診所,中醫一般診所,新北市三峽區,02 6714920,新北市三峽區大勇路82號１樓,,24.9360375,121.367128
3831090042,同福堂中醫診所,私立中醫診所,中醫一般診所,新北市三峽區,02 6717719,"新北市三峽區中正路一段109號1樓,111號1樓",,24.9292949,121.374129
3831091110,慈恩中醫診所,私立中醫診所,中醫一般診所,新北市三峽區,86713371,新北市三峽區文化路七○號一、二樓,,24.9358605,121.3744903
3831100034,慶安中醫診所,私立中醫診所,中醫一般診所,新北市淡水區,02 6223730,新北市淡水區中山路１４３號,,25.1717845,121.4407066
3831100052,逢春中醫診所,私立中醫診所,中醫一般診所,新北市淡水區,02 6235501,新北市淡水區中正路２６４號,,25.1714652,121.4383174
3831013509,施丞修中醫診所,私立中醫診所,中醫診所,新北市板橋區,02-2956-2225,新北市板橋區中山路2段362號,,25.0200239,121.481764
3831013518,坤儒中醫診所,私立中醫診所,中醫診所,新北市板橋區,82598386,新北市板橋區陽明街77號1樓,,25.0229956,121.4641814
3831013527,隆安中醫診所,私立中醫診所,中醫診所,新北市板橋區,02-2258-8907,新北市板橋區新海路120號(1樓),,25.022962,121.461349
3831013536,洪天註中醫診所,私立中醫診所,中醫診所,新北市板橋區,82588019,新北市板橋區四維路289巷44號1樓,,25.0281633,121.4610195
3831013554,宏國中醫診所,私立中醫診所,中醫診所,新北市板橋區,2253-1680,新北市板橋區宏國路103號1樓,,25.0324214,121.4700436
3831013581,鴻林中醫診所,私立中醫診所,中醫診所,新北市板橋區,02-8953-9118,新北市板橋區成都街37號1樓,,25.0050028,121.4611221
3831020077,長興中醫診所,私立中醫診所,中醫一般診所,新北市三重區,02 2866533,新北市三重區溪尾街１８４號,,25.0807464,121.488282
3831020120,何合安中醫診所,私立中醫診所,中醫一般診所,新北市三重區,29816188,新北市三重區忠孝路一段35號4樓之1,,25.071954,121.4916577
3831020139,軒元堂中醫診所,私立中醫診所,中醫一般診所,新北市三重區,2981-2826/2857-8635,新北市三重區溪尾街374號1樓、376號1樓,,25.0855765,121.4888023
3831020148,懷德中醫診所,私立中醫診所,中醫一般診所,新北市三重區,02-2857-1227,新北市三重區溪尾街289號1樓,,25.082975,121.487662
3831020166,林寶華中醫診所,私立中醫診所,中醫一般診所,新北市三重區,02 9889212,新北市三重區中正北路２１８號,,25.0675345,121.4821722
3831020175,富信中醫診所,私立中醫診所,中醫一般診所,新北市三重區,229855368,新北市三重區三民街一四三號,,25.064231,121.484502
3831020219,慧光中醫診所,私立中醫診所,中醫一般診所,新北市三重區,02 9736843,新北市三重區仁福街６４巷４號,,25.0747667,121.4976673
3831020326,啄木鳥中醫診所,私立中醫診所,中醫一般診所,新北市三重區,02 29729218,新北市三重區長安街24號1樓、26號1樓,,25.0670735,121.4991309
3831020460,新博愛中醫診所,私立中醫診所,中醫一般診所,新北市三重區,02 9757139,新北市三重區中央南路３１號,,25.0621419,121.501136
3831020479,正五華中醫診所,私立中醫診所,中醫一般診所,新北市三重區,229811575,新北市三重區溪尾街１２１號,,25.0790685,121.4896197
3831020513,東華堂中醫診所,私立中醫診所,中醫一般診所,新北市三重區,02 9761080,新北市三重區龍門路５８號,,25.072673,121.4966417
3831020522,慶春堂中醫診所,私立中醫診所,中醫一般診所,新北市三重區,02 8572939,新北市三重區溪尾街三０八號,,25.0741998,121.4918383
3831020586,三和中醫診所,私立中醫診所,中醫一般診所,新北市三重區,02 2870080,新北市三重區三和路四段４０２號,,25.0795361,121.4811484
3831020620,聖昌中醫診所,私立中醫診所,中醫一般診所,新北市三重區,02 2803326,新北市三重區中華路八十七號,,25.06287,121.483734
3831011256,板橋聖昌中醫診所,私立中醫診所,中醫一般診所,新北市板橋區,02 2530844,新北市板橋區松柏街６５號1樓,,25.030588,121.4760375
3831011283,陳東熙中醫診所,私立中醫診所,中醫一般診所,新北市板橋區,222592189,新北市板橋區文化路二段１６５號,,25.027438,121.4701781
3831011309,日祥中醫診所,私立中醫診所,中醫一般診所,新北市板橋區,02-9662359,新北市板橋區中正路203號1、2、3樓,,25.0173719,121.45619
3831011345,健福中醫診所,私立中醫診所,中醫一般診所,新北市板橋區,229597695,新北市板橋區三民路一段54、56號1樓,,25.0224786,121.4793513
3831011363,人和中醫診所,私立中醫診所,中醫一般診所,新北市板橋區,286753008,新北市板橋區溪北路四十八號,,24.98987,121.427301
3831011425,聖原中醫診所,私立中醫診所,中醫一般診所,新北市板橋區,222541199,新北市板橋區雙十路二段一七０號一樓,,25.0253928,121.4769909
3817060499,萬安中醫診所,私立中醫診所,中醫一般診所,臺中市西屯區,04-23148488,臺中市西屯區重慶路１３１號,,24.166237,120.656147
3817060506,仁美中醫診所,私立中醫診所,中醫一般診所,臺中市西屯區,04-23138067,臺中市西屯區文心路3段138之20號1樓,,24.1676721,120.6543434
3817060515,漢唐中醫診所,私立中醫診所,中醫一般診所,臺中市西屯區,04-23260585,臺中市西屯區大墩十九街１３７號１Ｆ,,24.157721,120.652724
3817060560,建德中醫診所,私立中醫診所,中醫一般診所,臺中市西屯區,04-27073572,臺中市西屯區逢甲路２２７－２號１、２樓,,24.1765255,120.6411597
3817060588,陽光中醫診所,私立中醫診所,中醫一般診所,臺中市西屯區,04-24519668,臺中市西屯區西屯路2段108-1號1樓,,24.1664836,120.6532097
3817060604,陳文秀中醫診所,私立中醫診所,中醫一般診所,臺中市西屯區,04-23115950,臺中市西屯區惠來路三段４６號一樓,,24.1666539,120.644899
3817060677,佳德中醫診所,私立中醫診所,中醫一般診所,臺中市西屯區,04-22952386,臺中市西屯區成都路３２９號1樓,,24.1732392,120.6637924
3817060702,百合中醫診所,私立中醫診所,中醫一般診所,臺中市西屯區,04-24635605,臺中市西屯區福順路325號1樓,,24.1835636,120.6177014
3817061781,主安中醫診所,私立中醫診所,中醫一般診所,臺中市西屯區,04-27033118,臺中市西屯區河南路二段357號1樓,,24.171764,120.645102
3817050957,諸元中醫診所,私立中醫診所,中醫一般診所,臺中市北區,04 22386706,臺中市北區雙十路二段４０巷３２號一樓,,24.1550299,120.6923413
3817050975,賴中醫診所,私立中醫診所,中醫一般診所,臺中市北區,04 22063698,臺中市北區原子街９９號１樓,,24.1473696,120.6749941
3817052031,永德中醫診所,私立中醫診所,中醫一般診所,臺中市北區,04-22992688,臺中市北區太原六街九號一樓,,24.166405,120.670403
3817052111,李德茂中醫診所,私立中醫診所,中醫一般診所,臺中市北區,04-22919399,臺中市北區梅川西路三段三五巷六號一樓,,24.1663889,120.677075
3817052120,仁濟中醫診所,私立中醫診所,中醫一般診所,臺中市北區,04-22081179,臺中市北區大雅路三０五號一樓,,24.1569614,120.6767271
3817052200,濟生中醫診所,私立中醫診所,中醫一般診所,臺中市北區,04-22076836,臺中市北區西屯路一段四六四之一號一、二樓,,24.1614747,120.6647701
3832081305,聖渝中醫診所,私立中醫診所,中醫一般診所,桃園市八德區,3756356,桃園市八德區介壽路一段820號1樓,,24.9622018,121.2997139
3832081378,國輝中醫診所,私立中醫診所,中醫診所,桃園市八德區,03-3620770,桃園市八德區介壽路一段801號,,24.962245,121.300375
3832081387,春暉中醫診所,私立中醫診所,中醫診所,桃園市八德區,03-3688101,桃園市八德區介壽路二段1131號,,24.9326476,121.2976586
3832090019,惠康中醫診所,私立中醫診所,中醫一般診所,桃園市龍潭區,03 4701655,桃園市龍潭區中正村中正路１６３號,,24.8611879,121.2179766
3832090037,徐中醫診所,私立中醫診所,中醫一般診所,桃園市龍潭區,03 4792767,桃園市龍潭區中山村東龍路２７９號,,24.8660894,121.2134618
3832090046,福生中醫診所,私立中醫診所,中醫一般診所,桃園市龍潭區,03 4792983,桃園市龍潭區龍元路５７號,,24.8647085,121.2122347
3832090135,仁心中醫聯合診所,私立中醫診所,中醫一般診所,桃園市龍潭區,03-4992486,桃園市龍潭區東龍路一八０號,,24.8611263,121.2148825
3832091169,懷恩中醫診所,私立中醫診所,中醫一般診所,桃園市龍潭區,4898489,桃園市龍潭區北龍路267號1樓及269號1樓,,24.8678346,121.2169489
3832091178,恩典中醫診所,私立中醫診所,中醫一般診所,桃園市龍潭區,34891886,桃園市龍潭區中正路龍華段312號1樓、314號1樓、316號1樓,,24.8664631,121.2146176
3832100038,武德中醫診所,私立中醫診所,中醫一般診所,桃園市平鎮區,03 4228421,桃園市平鎮區延平路一段７１號,,24.9514456,121.2211014
3832100065,華南中醫診所,私立中醫診所,中醫一般診所,桃園市平鎮區,03 4697995,桃園市平鎮區中豐路山頂段221號1樓,,24.8992571,121.2109614
3832100083,呂芳仁中醫診所,私立中醫診所,中醫一般診所,桃園市平鎮區,03 4691466,桃園市平鎮區南京路１２巷45弄6號,,24.9175909,121.2099157
3832022584,弘安堂中醫聯合診所,私立中醫診所,中醫一般診所,桃園市中壢區,03-43333943,桃園市中壢區莊敬路151號1樓,,24.9679362,121.2574759
3832022619,方濟中醫診所,私立中醫診所,中醫一般診所,桃園市中壢區,34562968,桃園市中壢區中山東路三段246號,,24.9418944,121.2504449
3832022628,信望愛中醫診所,私立中醫診所,中醫一般診所,桃園市中壢區,34028099,桃園市中壢區中山路499號,,24.9569622,121.2150125
3832022655,通安堂中醫診所,私立中醫診所,中醫一般診所,桃園市中壢區,34567900,桃園市中壢區嘉興二街48號,,24.9542064,121.232864
3832022664,康博中醫診所,私立中醫診所,中醫一般診所,桃園市中壢區,34555577,桃園市中壢區長春路108號,,24.9782563,121.2479701
3832022673,億軒中醫診所,私立中醫診所,中醫一般診所,桃園市中壢區,34551145,桃園市中壢區環北路351號,,24.9661577,121.2247355
3832022726,華川中醫診所,私立中醫診所,中醫一般診所,桃園市中壢區,34276758,桃園市中壢區中美路105號,,24.9586749,121.224869
3832022753,仁和堂中醫診所,私立中醫診所,中醫診所,桃園市中壢區,03-4368265,桃園市中壢區中山東路三段111號1樓,,24.9445709,121.24874
3832022799,明道中醫診所,私立中醫診所,中醫診所,桃園市中壢區,03-4623385,桃園市中壢區莊敬路811巷20號1樓、22號1樓,,24.9635031,121.255591
3832022806,華信中醫診所,私立中醫診所,中醫診所,桃園市中壢區,03-4251678,桃園市中壢區元化路2段34號,,24.9626889,121.221938
3832022815,益壽中醫診所,私立中醫診所,中醫診所,桃園市中壢區,03-4220816,桃園市中壢區中正路191號,,24.955388,121.220748
3832030013,仁漢中醫診所,私立中醫診所,中醫一般診所,桃園市大溪區,03 3804659,桃園市大溪區員林路一段１８號,,24.8986929,121.283653
3832030040,仰德中醫診所,私立中醫診所,中醫一般診所,桃園市大溪區,03 3893447,桃園市大溪區員林路一段１０號,,24.898671,121.284237
3832031083,安泰中醫診所,私立中醫診所,中醫診所,桃園市大溪區,03-3801327,桃園市大溪區員林路二段384號,,24.884289,121.268049
3832040055,榮安中醫診所,私立中醫診所,中醫一般診所,桃園市楊梅區,03 4753575,桃園市楊梅區大華街３３號,,24.9074945,121.1448515
3831100098,金德中醫診所,私立中醫診所,中醫一般診所,新北市淡水區,02 6226555,新北市淡水區學府路７９號,,25.1702379,121.4486447
3831100178,大愛中醫診所,私立中醫診所,中醫一般診所,新北市淡水區,02-26200525,新北市淡水區北新路17號2樓,,25.178,121.4442514
3831101193,竹圍中醫診所,私立中醫診所,中醫一般診所,新北市淡水區,88094088,新北市淡水區民生路34號1樓,,25.1378229,121.4614759
3831101317,仙台中醫診所,私立中醫診所,中醫一般診所,新北市淡水區,26282297,新北市淡水區大忠街七十五號,,25.1773757,121.4458001
3831101335,建順中醫診所,私立中醫診所,中醫一般診所,新北市淡水區,86312418,新北市淡水區英專路一二 一號,,25.1719775,121.4458273
3831101362,仁禾中醫診所,私立中醫診所,中醫一般診所,新北市淡水區,26260719,新北市淡水區原德路37號,,25.1718239,121.4422189
3831101406,陽明中醫診所,私立中醫診所,中醫診所,新北市淡水區,26268298,新北市淡水區中山路63號,,25.1703925,121.4430338
3831101415,祐安中醫診所,私立中醫診所,中醫診所,新北市淡水區,26293058,新北市淡水區北新路171號1樓,,25.1822498,121.459297
3831110076,華佗中醫診所,私立中醫診所,中醫一般診所,新北市汐止區,223659502,新北市汐止區樟樹一路十號,,25.0621729,121.64191
3831110101,華成中醫診所,私立中醫診所,中醫一般診所,新北市汐止區,226934346,新北市汐止區福德二路１００號1樓,,25.066256,121.632473
3831111126,健榮中醫診所,私立中醫診所,中醫一般診所,新北市汐止區,2692-6991,新北市汐止區康寧街487號1樓,,25.068658,121.632345
3831111162,大漢中醫診所,私立中醫診所,中醫一般診所,新北市汐止區,86919488,新北市汐止區忠孝東路212號1樓,,25.0664,121.662125
3831061890,賀安中醫診所,私立中醫診所,中醫一般診所,新北市新莊區,02 22069545,新北市新莊區龍安路495號1樓,,25.0183759,121.425702
3831061998,神農中醫診所,私立中醫診所,中醫一般診所,新北市新莊區,02-22791359,新北市新莊區新泰路三四二號一樓,,25.042328,121.444967
3831062048,大德中醫診所,私立中醫診所,中醫一般診所,新北市新莊區,02-82012550,新北市新莊區新莊路四七五號一樓,,25.0333754,121.4490663
3831062084,佑德中醫診所,私立中醫診所,中醫一般診所,新北市新莊區,02-22070619,新北市新莊區八德街137號1樓,,25.0207139,121.424104
3831062100,慶安居中醫診所,私立中醫診所,中醫一般診所,新北市新莊區,29980799,新北市新莊區中港路259號1樓,,25.0431979,121.4537029
3831062119,大方中醫診所,私立中醫診所,中醫診所,新北市新莊區,22063390,新北市新莊區中誠街13號1樓,,25.0481061,121.4519645
3831012593,同心堂中醫診所,私立中醫診所,中醫一般診所,新北市板橋區,89531121,新北市板橋區中山路2段123號1樓,,25.0165299,121.4748371
3831012691,板橋同仁堂中醫診所,私立中醫診所,中醫一般診所,新北市板橋區,29589000,新北市板橋區四川路一段一三○號,,25.0114095,121.4618415
3831012753,和康中醫診所,私立中醫診所,中醫一般診所,新北市板橋區,89530695,新北市板橋區中山路二段291-11號一樓,,25.018312,121.478176
3831012799,基平中醫診所,私立中醫診所,中醫一般診所,新北市板橋區,02 29517851,新北市板橋區四川路二段一一六號一樓,,24.9940709,121.450256
3831012904,宏仁中醫診所,私立中醫診所,中醫一般診所,新北市板橋區,02 29560337,新北市板橋區忠孝路五十七號一樓,,25.0021209,121.461393
3831012959,蓁禾堂中醫診所,私立中醫診所,中醫專科診所,新北市板橋區,222533579,新北市板橋區文化路二段六號,,25.0239994,121.4689112
3831013009,遠東中醫診所,私立中醫診所,中醫一般診所,新北市板橋區,229638668,新北市板橋區漢生東路335號1樓,,25.007765,121.4720259
3831013072,鈺安中醫診所,私立中醫診所,中醫一般診所,新北市板橋區,282586204,新北市板橋區陽明街一三０號一樓,,25.021485,121.466502
3822021771,慈仁中醫診所,私立中醫診所,中醫診所,嘉義市西區,05-2258837,嘉義市西區志昇街71號1樓,,23.4690574,120.443289
3831010044,竹林中醫診所,私立中醫診所,中醫一般診所,新北市板橋區,02 -22560966,新北市板橋區漢生西路７７之２號,,25.019041,121.462746
3831010053,國平內科中醫診所,私立中醫診所,中醫一般診所,新北市板橋區,02 9670629,新北市板橋區中正路１巷６號,,25.0118371,121.4555382
3831010115,吉安堂中醫診所,私立中醫診所,中醫一般診所,新北市板橋區,02 9681998,新北市板橋區後菜園街４３號,,25.0099849,121.456217
3831010124,生永中醫診所,私立中醫診所,中醫一般診所,新北市板橋區,02 9651386,新北市板橋區中正路２９號,,25.012811,121.456082
3831010179,漢昇中醫診所,私立中醫診所,中醫一般診所,新北市板橋區,02 9524149,新北市板橋區三民路二段３５巷２１號,,25.013242,121.478742
3831010277,新榮盛中醫診所,私立中醫診所,中醫一般診所,新北市板橋區,02 9669065,新北市板橋區國光路一八五號,,25.0186356,121.4609823
3831010320,黃永生中醫診所,私立中醫診所,中醫一般診所,新北市板橋區,02 9552848,新北市板橋區中山路一段２８號,,25.0084409,121.460437
3831010357,壽春中醫診所,私立中醫診所,中醫一般診所,新北市板橋區,02 9693238,新北市板橋區中正路２３６巷６號,,25.0189225,121.4560557
3831010393,惠群中醫診所,私立中醫診所,中醫一般診所,新北市板橋區,02 9589788,新北市板橋區民族路165號1樓,,25.007687,121.4683489
3831010508,福安堂中醫診所,私立中醫診所,中醫一般診所,新北市板橋區,02-29532645,新北市板橋區重慶路一九三號一樓,,25.0020034,121.4628628
3817080866,華安中醫診所,私立中醫診所,中醫一般診所,臺中市北屯區,04 22433212,臺中市北屯區松竹北路一四二號一樓,,24.185497,120.698575
3817080919,德慈堂蔡明錦中醫診所,私立中醫診所,中醫一般診所,臺中市北屯區,04-22322178,臺中市北屯區興安路一段８８號一樓,,24.167297,120.692128
3817080937,上鼎中醫診所,私立中醫診所,中醫一般診所,臺中市北屯區,04-24224870,臺中市北屯區四平路三七五號一樓,,24.1892808,120.6802827
3817081998,健盛中醫診所,私立中醫診所,中醫一般診所,臺中市北屯區,04-24253619,臺中市北屯區中清路2段878號1樓,,24.1874016,120.6631681
3817082011,汪敬超中醫診所,私立中醫診所,中醫一般診所,臺中市北屯區,04-22492677,臺中市北屯區昌平路一段105之6號1樓,,24.1732809,120.6904277
3817082020,慶祥中醫診所,私立中醫診所,中醫一般診所,臺中市北屯區,04 22364768,臺中市北屯區北平路三段十五號一樓,,24.171296,120.679994
3817082093,聖明中醫診所,私立中醫診所,中醫一般診所,臺中市北屯區,04-22352632,臺中市北屯區天津路三段六三號一樓,,24.1697439,120.681665
3817082119,尚宏中醫診所,私立中醫診所,中醫一般診所,臺中市北屯區,04-22429096,臺中市北屯區旅順路二段九十三號一樓,,24.174332,120.688532
3817082137,普門堂中醫診所,私立中醫診所,中醫一般診所,臺中市北屯區,04-22397521,臺中市北屯區東山路二段二二之一號一樓,,24.1962419,120.78172
3817082182,昌生中醫診所,私立中醫診所,中醫一般診所,臺中市北屯區,04-24211431,臺中市北屯區崇德十路二段二七六號一樓,,24.1911545,120.6780341
3817082191,芳生中醫診所,私立中醫診所,中醫一般診所,臺中市北屯區,04-22473906,臺中市北屯區興安路二段四七九號一樓,,24.1846889,120.694927
3817082262,仲良中醫診所,私立中醫診所,中醫一般診所,臺中市北屯區,04-22320798,臺中市北屯區國校巷五號一樓,,24.1639011,120.6906827
3817082271,萬善中醫診所,私立中醫診所,中醫一般診所,臺中市北屯區,04-22972966,臺中市北屯區文心路三段一○三五號一樓,,24.1815237,120.6861019
3817082324,逢源中醫診所,私立中醫診所,中醫一般診所,臺中市北屯區,22389956,臺中市北屯區梅川東路四段五○號一樓,,24.1815237,120.6861019
3817071554,楓林中醫診所,私立中醫診所,中醫一般診所,臺中市南屯區,04-2479-6919,臺中市南屯區永春東二路73號1樓,,24.1198583,120.6315205
3817071705,得康中醫診所,私立中醫診所,中醫一般診所,臺中市南屯區,04-24737334,臺中市南屯區文心路一段151號2、3樓,,24.1410133,120.6464532
3817071714,現代中醫聯合診所,私立中醫診所,中醫一般診所,臺中市南屯區,04-24753661,臺中市南屯區文心路一段七十六號一、二、三樓,,24.1395597,120.6470573
3817071769,博士中醫診所,私立中醫診所,中醫一般診所,臺中市南屯區,04-22546187,臺中市南屯區公益路二段602號1樓,,24.151483,120.63453
3817071778,博安中醫診所,私立中醫診所,中醫一般診所,臺中市南屯區,04-23288232,臺中市南屯區大業路308號1樓,,24.1538439,120.647662
3833011058,長鴻中醫診所,私立中醫診所,中醫診所,新竹縣關西鎮,03-5876633,新竹縣關西鎮正義路120號之1,,24.79425,121.176166
3833020066,黎中醫診所,私立中醫診所,中醫一般診所,新竹縣新埔鎮,35882358,新竹縣新埔鎮中正路３５９巷１９弄１１號,,24.827357,121.077262
3833020084,蘇中醫診所,私立中醫診所,中醫一般診所,新竹縣新埔鎮,03 -5889159,新竹縣新埔鎮中正路７５０號,,24.8278519,121.0717327
3833030017,姜仁壽中醫診所,私立中醫診所,中醫一般診所,新竹縣竹東鎮,35967866,新竹縣竹東鎮長春路二段９８號,,24.7391132,121.0874672
3833030044,中美中醫診所,私立中醫診所,中醫一般診所,新竹縣竹東鎮,35953949,新竹縣竹東鎮商華街４９號,,24.7375429,121.088413
3833030062,彭中醫診所,私立中醫診所,中醫一般診所,新竹縣竹東鎮,35966571,新竹縣竹東鎮長春路三段２３號,,24.7404536,121.0860806
3833030080,慶安中醫診所,私立中醫診所,中醫一般診所,新竹縣竹東鎮,35963641,新竹縣竹東鎮仁愛路３１４號,,24.7375224,121.0907673
3833031167,易東中醫診所,私立中醫診所,中醫一般診所,新竹縣竹東鎮,03-5101582,新竹縣竹東鎮北興路三段五七0號,,24.7454814,121.086294
3833031176,和新中醫診所,私立中醫診所,中醫一般診所,新竹縣竹東鎮,5103499,新竹縣竹東鎮長春路一段二八0號,,24.7304499,121.0921585
3833031210,寶安堂中醫診所,私立中醫診所,中醫一般診所,新竹縣竹東鎮,03-5959128,新竹縣竹東鎮北興路一段611號1樓,,24.7366675,121.0953239
3833031229,杏林中醫診所,私立中醫診所,中醫診所,新竹縣竹東鎮,35964361,新竹縣竹東鎮仁愛路350號,,24.7384484,121.0908751
3833050019,鄭中醫診所,私立中醫診所,中醫一般診所,新竹縣竹北市,35552682,新竹縣竹北市博愛街１６０號,,24.8320635,121.0054688
3833050055,天安中醫診所,私立中醫診所,中醫一般診所,新竹縣竹北市,35516606,新竹縣竹北市博愛街３７９號,,24.8366872,121.0086359
3833050073,宏德中醫診所,私立中醫診所,中醫一般診所,新竹縣竹北市,35518129,新竹縣竹北市文信路261號,,24.8316943,121.0137989
3833051178,仁義中醫診所,私立中醫診所,中醫一般診所,新竹縣竹北市,03-6580357,新竹縣竹北市成功六街57號1樓,,24.8184776,121.020555
3833051203,安興中醫診所,私立中醫診所,中醫一般診所,新竹縣竹北市,5553718,新竹縣竹北市三民路407號,,24.834404,121.009445
3833051221,啟真中醫診所,私立中醫診所,中醫一般診所,新竹縣竹北市,5534034,新竹縣竹北市文信路362號,,24.8323902,121.0110709
3832051334,安康中醫診所,私立中醫診所,中醫診所,桃園市蘆竹區,03-3227976,桃園市蘆竹區南順七街27號,,25.0390711,121.2906193
3832060057,億安中醫診所,私立中醫診所,中醫一般診所,桃園市大園區,33868613,桃園市大園區新興路１７１號,,25.06088,121.195679
3832060066,許健治中醫診所,私立中醫診所,中醫一般診所,桃園市大園區,3867154,桃園市大園區中華路十七號,,25.066369,121.197466
3832061072,振興中醫診所,私立中醫診所,中醫一般診所,桃園市大園區,03-3866987,桃園市大園區中華路71號1樓,,25.0670521,121.198559
3832070035,瑞星中醫診所,私立中醫診所,中醫一般診所,桃園市龜山區,03 3285456,桃園市龜山區大湖ㄧ路106巷29號,,25.056761,121.359226
3832070053,通發中醫診所,私立中醫診所,中醫一般診所,桃園市龜山區,03 3201779,桃園市龜山區自強南路６９８號,,24.9914616,121.3338359
3832070106,健順中醫診所,私立中醫診所,中醫一般診所,桃園市龜山區,03 3203133,桃園市龜山區萬壽路二段1152號,,24.9936234,121.332653
3832070142,德盛堂中醫診所,私立中醫診所,中醫一般診所,桃園市龜山區,(03)3509666,桃園市龜山區萬壽路二段943號,,24.995155,121.338215
3832071185,泓順中醫診所,私立中醫診所,中醫一般診所,桃園市龜山區,33285848,桃園市龜山區復興一路340號,,25.0553708,121.3620467
3832071194,馮曄中醫診所,私立中醫診所,中醫一般診所,桃園市龜山區,33182188,桃園市龜山區文興路213號1樓,,25.0556415,121.3670076
3831062217,天澤中醫診所,私立中醫診所,中醫診所,新北市新莊區,89925687,新北市新莊區中華路2段91號1樓,,25.0494881,121.4525857
3831062235,仁愛中醫診所,私立中醫診所,中醫診所,新北市新莊區,29018130,新北市新莊區中正路879-6號1樓,,25.026172,121.417987
3831062262,德安中醫診所,私立中醫診所,中醫診所,新北市新莊區,22040866,新北市新莊區民安西路187號,,25.015558,121.426258
3831070031,新永生中醫診所,私立中醫診所,中醫一般診所,新北市樹林區,02 26807360,新北市樹林區佳園路1段22-8號1樓,,24.9713114,121.3927489
3831070148,陳春錦中醫診所,私立中醫診所,中醫一般診所,新北市樹林區,02 26843777,新北市樹林區樹德街22號1樓,,24.9916322,121.4226666
3831071369,漢昌中醫診所,私立中醫診所,中醫一般診所,新北市樹林區,26753115,新北市樹林區保安街一段三一五號,,24.997956,121.417747
3831071387,游中醫診所,私立中醫診所,中醫一般診所,新北市樹林區,26837933,新北市樹林區樹新路三十六之一號,,24.9974669,121.4293037
3831071458,樹林同欣堂中醫診所,私立中醫診所,中醫一般診所,新北市樹林區,02-26757616,新北市樹林區日新街45號,,24.991953,121.422726
3831071467,華邦中醫診所,私立中醫診所,中醫診所,新北市樹林區,26872887,新北市樹林區保安街一段118號,,24.99496,121.4234536
3831071476,祥瑞中醫診所,私立中醫診所,中醫診所,新北市樹林區,86865980,新北市樹林區八德街102、106、106之1號,,24.9809599,121.4203511
3831080046,世達中醫診所,私立中醫診所,中醫一般診所,新北市鶯歌區,02 6796812,新北市鶯歌區鶯桃路３７３號,,24.96313,121.333278
3831051616,百漢中醫診所,私立中醫診所,中醫一般診所,新北市新店區,229178569,新北市新店區中正路一一三號一樓,,24.971013,121.5422078
3831051661,安慶中醫診所,私立中醫診所,中醫一般診所,新北市新店區,02-22152889,新北市新店區安康路三段51號1樓,,24.9524004,121.4927773
3831060035,劉俊男中醫診所,私立中醫診所,中醫一般診所,新北市新莊區,02 9917110,新北市新莊區民樂街８５號,,25.0432394,121.4578199
3831060099,樹德中醫診所,私立中醫診所,中醫一般診所,新北市新莊區,02 9941403,新北市新莊區中港路１１１號,,25.0396939,121.45518
3831060124,黃高村中醫診所,私立中醫診所,中醫一般診所,新北市新莊區,02 2051595,新北市新莊區民全街八號,,25.0215972,121.4291001
3831060133,平安中醫診所,私立中醫診所,中醫一般診所,新北市新莊區,02 9944169,新北市新莊區中港三街３５號,,25.0462106,121.4500653
3831060142,曾亨安中醫診所,私立中醫診所,中醫一般診所,新北市新莊區,02 29031079,新北市新莊區中正路８８３巷３號1樓,,25.036326,121.4559937
3831060179,楊中醫診所,私立中醫診所,中醫一般診所,新北市新莊區,02 2095366,新北市新莊區富國路１４４號,,25.024823,121.42279
3831060197,瑞宏中醫診所,私立中醫診所,中醫一般診所,新北市新莊區,02 2033932,新北市新莊區新莊路３９８號,,25.0334595,121.4487034
3831060240,安心中醫診所,私立中醫診所,中醫一般診所,新北市新莊區,02 29910199,新北市新莊區中和街一九八號一樓,,25.050211,121.44767
3831010580,林園中醫診所,私立中醫診所,中醫一般診所,新北市板橋區,02 29609611,新北市板橋區林園街二十四號,,25.009934,121.453838
3831010599,廖世輝中醫診所,私立中醫診所,中醫一般診所,新北市板橋區,02 9542343,新北市板橋區國慶路１４９巷３６號,,24.9980244,121.4610233
3831010679,泰源中醫診所,私立中醫診所,中醫一般診所,新北市板橋區,02 9621298,新北市板橋區四川路一段９８號,,25.004861,121.4596504
3831010704,莒光中醫診所,私立中醫診所,中醫一般診所,新北市板橋區,02 2531188,新北市板橋區莊敬路171號,,25.0238601,121.4711205
3831010731,儒林居中醫診所,私立中醫診所,中醫一般診所,新北市板橋區,02 2526419,新北市板橋區雙十路三段２２號,,25.030831,121.471398
3831010740,廣生堂中醫診所,私立中醫診所,中醫一般診所,新北市板橋區,02 9678438,新北市板橋區府中路７８號,,25.009597,121.456434
3831010839,德昇中醫診所,私立中醫診所,中醫一般診所,新北市板橋區,02 9698399,新北市板橋區中正路37號1F、B1F,,25.013144,121.456132
3831010946,陳榮文中醫診所,私立中醫診所,中醫一般診所,新北市板橋區,02 2272-3526,新北市板橋區新生街11號1樓,,25.021285,121.4552411
3831011158,良醫中醫診所,私立中醫診所,中醫一般診所,新北市板橋區,02 29636381,新北市板橋區四維路１２４號,,25.025075,121.465484
3822011408,嘉德中醫診所,私立中醫診所,中醫一般診所,嘉義市東區,05-2270112,嘉義市東區吳鳳北路216號,,23.4794395,120.4532402
3822011417,芳安中醫診所,私立中醫診所,中醫一般診所,嘉義市東區,52289913,嘉義市東區芳安路103號,,23.468453,120.4631297
3822011435,誠泰中醫診所,私立中醫診所,中醫一般診所,嘉義市東區,05-2713969,嘉義市東區民權路188號,,23.4832658,120.4555585
3822011453,文德中醫診所,私立中醫診所,中醫一般診所,嘉義市東區,05-2251827,嘉義市東區和平路261號,,23.4796529,120.4569084
3822011462,和信中醫診所,私立中醫診所,中醫一般診所,嘉義市東區,05-2766256,嘉義市東區嘉北街106號,,23.4941249,120.453365
3822011471,兆春中醫診所,私立中醫診所,中醫一般診所,嘉義市東區,05 2752282,嘉義市東區林森東路82號,,23.4867457,120.4572196
3822011506,濟世中醫診所,私立中醫診所,中醫一般診所,嘉義市東區,05-2740868,嘉義市東區林森東路800號、802號1樓,,23.4924976,120.4789688
3822011551,天仁堂中醫診所,私立中醫診所,中醫診所,嘉義市東區,05-2301900,嘉義市東區吳鳳南路579號,,23.4547819,120.4594789
3822011588,金陵中醫診所,私立中醫診所,中醫診所,嘉義市東區,05-2759014,嘉義市東區吳鳳北路353號之1一樓,,23.4835516,120.4523264
3822011597,天祥中醫診所,私立中醫診所,中醫診所,嘉義市東區,05-2253607,嘉義市東區中山路210號,,23.4807674,120.4515484
3822011604,吉祥中醫診所,私立中醫診所,中醫診所,嘉義市東區,2230229,嘉義市東區興業東路317號,,23.469591,120.4565988
3822020050,李中醫診所,私立中醫診所,中醫一般診所,嘉義市西區,05 2852059,嘉義市西區杭州三街２１號,,23.466618,120.4452572
3817050528,德昌中醫診所,私立中醫診所,中醫一般診所,臺中市北區,04 22237701,臺中市北區原子街１２５－６號,,24.1480915,120.6757591
3817050537,健順中醫診所,私立中醫診所,中醫一般診所,臺中市北區,04 22038357,臺中市北區美德街三九七號,,24.1583943,120.671283
3817050546,賜福中醫診所,私立中醫診所,中醫一般診所,臺中市北區,04 22974533,臺中市北區文昌東一街２９８號,,24.169712,120.676739
3817050573,明功堂中醫診所,私立中醫診所,中醫一般診所,臺中市北區,04 2203495,臺中市北區成功路４２８號,,24.146567,120.6766
3817050608,九褔中醫診所,私立中醫診所,中醫一般診所,臺中市北區,04-22201442,臺中市北區新興里三民路三段６５－６號,,24.1463881,120.6822582
3817050644,李慧嫺中醫診所,私立中醫診所,中醫一般診所,臺中市北區,04-22379822,臺中市北區進化路六四九號一、二樓,,24.1610539,120.693922
3817050671,神灃中醫診所,私立中醫診所,中醫一般診所,臺中市北區,04 22233365,臺中市北區篤行路５５號,,24.1472092,120.6767769
3817050742,大大中醫診所,私立中醫診所,中醫一般診所,臺中市北區,04-22309539,臺中市北區育德路一一０號一Ｆ,,24.15712,120.679822
3817050779,佑生堂中醫診所,私立中醫診所,中醫一般診所,臺中市北區,04 2935612,臺中市北區武昌路８６號１、２樓,,24.1685926,120.6693336
3817050788,幼祥中西醫聯合診所第一中醫診所,私立中醫診所,中醫一般診所,臺中市北區,04 22328500,臺中市北區崇德路一段五三一號二樓,,24.165574,120.684829
3817050859,中友中醫診所,私立中醫診所,中醫一般診所,臺中市北區,04 22265036,臺中市北區三民路三段210-16號１樓,,24.1540854,120.6860266
3817044520,安世中醫診所,私立中醫診所,中醫一般診所,臺中市南區,04-22229549,臺中市南區復興路三段369號1樓,,24.1329729,120.67892
3817031836,東興中醫診所,私立中醫診所,中醫一般診所,臺中市西區,04-23100485,臺中市西區東興路三段一二六之三號一樓,,24.148645,120.653156
3817031872,靖唐中醫診所,私立中醫診所,中醫一般診所,臺中市西區,04-24755535,臺中市西區向上南路一段166之5號1、2樓,,24.145215,120.653257
3817031916,明慧中醫診所,私立中醫診所,中醫一般診所,臺中市西區,0928-926669,臺中市西區自立街77號1樓,,24.1395893,120.6699621
3817031961,承德中醫診所,私立中醫診所,中醫一般診所,臺中市西區,04-23298192,臺中市西區館前路4號1樓,,24.1560284,120.6655286
3817031970,佑明中醫診所,私立中醫診所,中醫一般診所,臺中市西區,04-23207289,臺中市西區精誠十六街18-2號1樓,,24.1502002,120.6557766
3817031998,明道中醫診所,私立中醫診所,中醫專科診所,臺中市西區,23729235,臺中市西區南屯路一段66之1號1樓,,24.132301,120.665504
3817032002,公益中醫診所,私立中醫診所,中醫一般診所,臺中市西區,04-23016858,臺中市西區向上北路231號1樓,,24.1477015,120.6592146
3817032048,DR.SHEN醫豪中醫診所,私立中醫診所,中醫一般診所,臺中市西區,04-22296825,臺中市西區金山路29號1樓,,24.1407654,120.670653
3817032057,昱壹中醫診所,私立中醫診所,中醫診所,臺中市西區,04-2310-6899,臺中市西區公益路48號1、2樓,,24.1510156,120.6681069
3817032066,德珍中醫診所,私立中醫診所,中醫診所,臺中市西區,23175887,臺中市西區太原路一段22號1樓,,24.1587125,120.6584205
3817032084,林鼎堂中醫診所,私立中醫診所,中醫診所,臺中市西區,0911-688042,臺中市西區民權路288-1號1樓,,24.1467609,120.670103
3817032100,弘道中醫診所,私立中醫診所,中醫診所,臺中市西區,04-23020201,臺中市西區民權路229巷1號1樓,,24.1488922,120.6695277
3817040031,國安內科中醫診所,私立中醫診所,中醫專科診所,臺中市南區,04 2208035,臺中市南區有恒街３０號,,24.1315465,120.6752316
3832040064,德安中醫診所,私立中醫診所,中醫一般診所,桃園市楊梅區,03 4782532,桃園市楊梅區大成路202號,,24.9126162,121.1458284
3832040153,禎康中醫診所,私立中醫診所,中醫一般診所,桃園市楊梅區,03 4784083,桃園市楊梅區新成路８６號,,24.9113421,121.1467602
3832040199,信彰中醫診所,私立中醫診所,中醫一般診所,桃園市楊梅區,34854006,桃園市楊梅區新成路38號,,24.9125759,121.1468968
3832040215,中興中醫診所,私立中醫診所,中醫診所,桃園市楊梅區,03 4810347,桃園市楊梅區文化街122號1樓,,24.9140275,121.1842656
3832040233,連中醫診所,私立中醫診所,中醫一般診所,桃園市楊梅區,(03)4784045,桃園市楊梅區楊新路六三巷一號,,24.9200431,121.1358635
3832041258,陳怡年中醫診所,私立中醫診所,中醫一般診所,桃園市楊梅區,03-4964546,桃園市楊梅區青山一街267號,,24.9216031,121.1707447
3832041267,東廣中醫診所,私立中醫診所,中醫一般診所,桃園市楊梅區,03-4756296,桃園市楊梅區大成路一三二號,,24.9111173,121.1457491
3832041294,盛安中醫診所,私立中醫診所,中醫一般診所,桃園市楊梅區,(03)4820360,桃園市楊梅區新興街一一五巷七號,,24.9169027,121.1833261
3832041310,大愛中醫診所,私立中醫診所,中醫一般診所,桃園市楊梅區,03-4315609,桃園市楊梅區永美路三一九號,,24.917424,121.1822893
3832041338,禾豐中醫診所,私立中醫診所,中醫一般診所,桃園市楊梅區,34822623,桃園市楊梅區永美路219號,,24.9193215,121.1841136
3832041356,乙仁中醫診所,私立中醫診所,中醫診所,桃園市楊梅區,(03)4316230,桃園市楊梅區萬大路6號,,24.9125321,121.1771918
3832041365,永勝中醫診所,私立中醫診所,中醫診所,桃園市楊梅區,03-4315557,桃園市楊梅區永美路397號,,24.9145926,121.1790745
3832050015,金德中醫診所,私立中醫診所,中醫一般診所,桃園市蘆竹區,033228869、2125367,桃園市蘆竹區南竹路一段四七號,,25.0467604,121.2910485
3832051209,南竹中醫診所,私立中醫診所,中醫一般診所,桃園市蘆竹區,3215045、2124176,桃園市蘆竹區南崁路二八二號,,25.0498412,121.2928318
3832051245,永康中醫診所,私立中醫診所,中醫一般診所,桃園市蘆竹區,33217976,桃園市蘆竹區南崁路70號1樓,,25.045647,121.296352
3832051316,健煜中醫診所,私立中醫診所,中醫診所,桃園市蘆竹區,03-2126882,桃園市蘆竹區中正路126號,,25.0464871,121.2927482
3832020688,增安中醫診所,私立中醫診所,中醫一般診所,桃園市中壢區,03 4656686,桃園市中壢區中山東路三段４１號,,24.945735,121.24754
3832020795,聖鶴堂中醫診所,私立中醫診所,中醫一般診所,桃園市中壢區,03 4551199,桃園市中壢區福德路４３號,,24.9740993,121.2583279
3832020820,陳中醫診所,私立中醫診所,中醫一般診所,桃園市中壢區,03 4229916,桃園市中壢區中北路二段344號,,24.953408,121.2305496
3832020848,震天堂中醫診所,私立中醫診所,中醫一般診所,桃園市中壢區,03-4667500,桃園市中壢區中山東路二段二九號,,24.954438,121.237526
3832020857,隆安中醫診所,私立中醫診所,中醫一般診所,桃園市中壢區,4635427,桃園市中壢區正神路一二三號,,24.975383,121.2560026
3832020893,東山傷科中醫診所,私立中醫診所,中醫一般診所,桃園市中壢區,03 4934968,桃園市中壢區中山路４６８號,,24.9572139,121.216503
3832020955,江新發中醫診所,私立中醫診所,中醫一般診所,桃園市中壢區,03 4571182,桃園市中壢區龍岡路一段一三三號,,24.9494045,121.2241823
3832020964,慶和中醫診所,私立中醫診所,中醫一般診所,桃園市中壢區,03 4927227,桃園市中壢區中正路３５６號,,24.955709,121.216745
3832021005,厚安中醫診所,私立中醫診所,中醫一般診所,桃園市中壢區,03 4270689,桃園市中壢區中原路１８號,,24.954643,121.218418
3831060286,仁山中醫診所,私立中醫診所,中醫一般診所,新北市新莊區,02 9924738,新北市新莊區幸福路７９３號,,25.0490053,121.4464616
3831060311,劉茂祥中醫診所,私立中醫診所,中醫一般診所,新北市新莊區,02 9924158,新北市新莊區幸福路655號1樓,,25.0490574,121.4510666
3831060508,永福中醫診所,私立中醫診所,中醫一般診所,新北市新莊區,2030799,新北市新莊區民安西路６７號,,25.020103,121.427541
3831060679,豐生中醫診所,私立中醫診所,中醫一般診所,新北市新莊區,282012206,新北市新莊區富國路146號,,25.0247999,121.422862
3831042500,申一中醫診所,私立中醫診所,中醫一般診所,新北市中和區,82216711,新北市中和區員山路四六０號一樓,,24.9914285,121.482116
3831042537,宜佑中醫診所,私立中醫診所,中醫一般診所,新北市中和區,22218976,新北市中和區莒光路一一三號一樓,,25.0024162,121.472589
3831042644,世安中醫診所,私立中醫診所,中醫診所,新北市中和區,22264880,新北市中和區新生街3號1樓,,25.0046979,121.4834442
3831042715,漢元中醫診所,私立中醫診所,中醫診所,新北市中和區,29451110,新北市中和區興南路一段119號1樓,,24.9884854,121.5095183
3831042779,詹錫彥中醫診所,私立中醫診所,中醫診所,新北市中和區,29453592,新北市中和區宜安路159號,,24.9987959,121.508822
3831042788,元真堂中醫診所,私立中醫診所,中醫診所,新北市中和區,29452985,新北市中和區捷運路149號1樓,,24.9910073,121.5064207
3831042813,玖德中醫診所,私立中醫診所,中醫診所,新北市中和區,22401898,新北市中和區景安路78-1.80號1樓,,24.9964699,121.5055469
3822020130,杏林堂中醫診所,私立中醫診所,中醫一般診所,嘉義市西區,05 2353309,嘉義市西區民生南路５５０號,,23.4589785,120.4434788
3822020149,中和內科傷科中醫診所,私立中醫診所,中醫專科診所,嘉義市西區,05 2273543,嘉義市西區民族路806號,,23.4751959,120.4404593
3822020274,張福泉中醫診所,私立中醫診所,中醫一般診所,嘉義市西區,05 2320181,嘉義市西區北興街１７４號,,23.484237,120.441414
3822020336,蔡國忠中醫診所,私立中醫診所,中醫一般診所,嘉義市西區,05 2854696,嘉義市西區仁愛路２９７號,,23.4724335,120.4424398
3822020345,聖林中醫診所,私立中醫診所,中醫一般診所,嘉義市西區,05 2320581,嘉義市西區自由路３１２號,,23.4902502,120.4354694
3822020416,洪鳳鳴中醫診所,私立中醫診所,中醫一般診所,嘉義市西區,05 2321091,嘉義市西區博愛路一段207號,,23.4885514,120.4456928
3822020434,大成中醫診所,私立中醫診所,中醫一般診所,嘉義市西區,05 2222635,嘉義市西區書院里新榮路307號1至2樓,,23.4763952,120.4442769
3822020461,建成中醫診所,私立中醫診所,中醫一般診所,嘉義市西區,05 2866058,嘉義市西區建成街７３之２號,,23.4711086,120.4406598
3822020470,養心齋中醫診所,私立中醫診所,中醫一般診所,嘉義市西區,05 2341971,嘉義市西區八德路56號,,23.4834829,120.4309994
3822020532,朝榮中醫診所,私立中醫診所,中醫一般診所,嘉義市西區,05 2855888,嘉義市西區仁愛路３０１號,,23.4724959,120.4424338
3822021584,正慶中醫診所,私立中醫診所,中醫一般診所,嘉義市西區,05-2270130,嘉義市西區仁愛路372號,,23.4727081,120.442573
3822021628,德隆中醫診所,私立中醫診所,中醫一般診所,嘉義市西區,05-2315556,嘉義市西區友順街85號,,23.486587,120.434672
3822021637,仲聖中醫診所,私立中醫診所,中醫一般診所,嘉義市西區,52270513,嘉義市西區興業西路85號地下一樓,,23.4678804,120.4388077
3822021646,百安堂中醫診所,私立中醫診所,中醫一般診所,嘉義市西區,05-2321355,嘉義市西區興達路158號1樓,,23.4891216,120.4417547
3822021691,復安堂中醫診所,私立中醫診所,中醫一般診所,嘉義市西區,05-2231858,嘉義市西區蘭井街316號之2,,23.476977,120.4443992
3822021735,儒佑中醫診所,私立中醫診所,中醫一般診所,嘉義市西區,05-2744973,嘉義市西區忠義街135號,,23.4803083,120.4472557
3821050509,林茂宗中醫診所,私立中醫診所,中醫一般診所,臺南市中西區,06 2253807,臺南市中西區福安里西門路２段６４號,,22.9918689,120.198468
3821051515,東春中醫診所,私立中醫診所,中醫一般診所,臺南市中西區,2143456,臺南市中西區仙草里健康路1段416號1樓,,22.9816541,120.1980753
3821060014,德和中醫診所,私立中醫診所,中醫一般診所,臺南市安南區,06 2560007,臺南市安南區安東里安和路１段３８２號,,23.0339443,120.2129068
3821060023,慧春中醫診所,私立中醫診所,中醫一般診所,臺南市安南區,06 2595832,臺南市安南區海佃里海佃路１段１69號,,23.0236776,120.1915073
3821060041,慶和中醫診所,私立中醫診所,中醫一般診所,臺南市安南區,06 2562230,臺南市安南區安西里安和路１段１５９巷１０２號,,23.0308092,120.2114768
3821060069,強生中醫診所,私立中醫診所,中醫一般診所,臺南市安南區,06 3552410,臺南市安南區州南里安和路４段４５０號,,23.0600506,120.2187413
3821060078,長和中醫診所,私立中醫診所,中醫一般診所,臺南市安南區,06 2560964,臺南市安南區州南里安和路４段５５６號,,23.0620318,120.2187349
3821060096,慶安中醫診所,私立中醫診所,中醫一般診所,臺南市安南區,06-3557737,臺南市安南區州南里安和路５段４４號,,23.0641323,120.2185982
3821060103,大漢士中醫診所,私立中醫診所,中醫一般診所,臺南市安南區,06 2477185,臺南市安南區溪心里海佃路２段７７２號,,23.0458702,120.1850192
3821060167,德州中醫診所,私立中醫診所,中醫一般診所,臺南市安南區,06 2832118,臺南市安南區溪北里安和路１段127號,,23.028588,120.214059
3821060238,吉原內婦科中醫診所,私立中醫診所,中醫一般診所,臺南市安南區,06 2457686,臺南市安南區梅花里安中路１段７５９號,,23.0435711,120.194208
3821061244,王育才中醫診所,私立中醫診所,中醫一般診所,臺南市安南區,2567092,臺南市安南區淵中里安中路４段57號,,23.0498209,120.1724904
3817052228,長霖中醫診所,私立中醫診所,中醫一般診所,臺中市北區,04-22957136,臺中市北區山西路二段203號1樓,,24.1725915,120.67588
3817052264,東易堂中醫診所,私立中醫診所,中醫一般診所,臺中市北區,04-22086678,臺中市北區健行路698號1樓,,24.1594139,120.671344
3817052273,惠群中醫診所,私立中醫診所,中醫一般診所,臺中市北區,04-22375603,臺中市北區崇德路一段四三八號一、二樓,,24.163223,120.685443
3817052335,國寶中醫診所,私立中醫診所,中醫一般診所,臺中市北區,04-23199410,臺中市北區博館一街12號1樓,,24.1550518,120.6671044
3817052371,燃燈中醫診所,私立中醫診所,中醫一般診所,臺中市北區,04-22340047,臺中市北區永興街五十號一樓,,24.159796,120.68243
3817052380,誠泰中醫診所,私立中醫診所,中醫一般診所,臺中市北區,04-22990582,臺中市北區漢口路四段五號一樓,,24.167135,120.673648
3817052415,文華中醫診所,私立中醫診所,中醫一般診所,臺中市北區,04-23172966,臺中市北區太原路一段二三四號一樓,,24.1640234,120.6633467
3817052451,建成中醫診所,私立中醫診所,中醫一般診所,臺中市北區,04-22230377,臺中市北區三民路三段210之5號、210之6號1樓,,24.1537,120.685942
3817052479,盛唐中醫診所,私立中醫診所,中醫一般診所,臺中市北區,04-22300711,臺中市北區太原路二段一九二號一樓,,24.1649627,120.6806428
3817052497,德濟中醫診所,私立中醫診所,中醫一般診所,臺中市北區,04-22038799,臺中市北區五權路488-8號1樓、2樓、3樓,,24.1533692,120.683158
3817052522,正和中醫診所,私立中醫診所,中醫一般診所,臺中市北區,04-22032727,臺中市北區健行路524號1樓,,24.159383,120.679021
3817052531,摯信中醫診所,私立中醫診所,中醫一般診所,臺中市北區,04-22084806,臺中市北區育德路158號1樓,,24.1577267,120.6717507
3817052540,宜德中醫診所,私立中醫診所,中醫一般診所,臺中市北區,04-22371518,臺中市北區天祥街72號1樓,,24.1607871,120.6966529
3817052577,宏安中醫診所,私立中醫診所,中醫一般診所,臺中市北區,04-22056899,臺中市北區育德路99號1、2樓,,24.1571056,120.6752173
3817052586,其玉中醫診所,私立中醫診所,中醫一般診所,臺中市北區,04-22061296,臺中市北區健行路768號1樓,,24.159331,120.6699662
3817052611,忠明中醫診所,私立中醫診所,中醫診所,臺中市北區,04-22085480,臺中市北區華美街2段88號1樓,,24.162219,120.6629889
3817052648,醫心堂中醫診所,私立中醫診所,中醫診所,臺中市北區,04-22076888,臺中市北區博館路8號1樓,,24.158715,120.669407
3817052666,義德椿中醫診所,私立中醫診所,中醫診所,臺中市北區,04-22321157,臺中市北區青島路三段80號1樓,,24.1683969,120.68084
3817052675,崇益中醫診所,私立中醫診所,中醫診所,臺中市北區,04-22386818,臺中市北區崇德路一段135號1樓,,24.1611598,120.6848651
3817060024,日安堂中醫診所,私立中醫診所,中醫一般診所,臺中市西屯區,04-24518973,臺中市西屯區福星路６２７號,,24.1747269,120.6473854
3817044548,宥善中醫診所,私立中醫診所,中醫一般診所,臺中市南區,04-22610202,臺中市南區復興路3段181號1樓,,24.1309539,120.6740868
3817044566,世傳中醫診所,私立中醫診所,中醫一般診所,臺中市南區,04 22685200,臺中市南區復興路二段34之7號1樓,,24.1191797,120.6598329
3817044575,康健中醫診所,私立中醫診所,中醫一般診所,臺中市南區,23786008,臺中市南區忠明南路482號1樓,,24.133035,120.657194
3817044584,酉安中醫診所,私立中醫診所,中醫一般診所,臺中市南區,22621211,臺中市南區美村南路113號1樓,,24.1175237,120.666698
3817044593,黃秋勇中醫診所,私立中醫診所,中醫專科診所,臺中市南區,22637976,臺中市南區美村南路105-1號1樓,,24.1179736,120.6666937
3817044628,信宏中醫診所,私立中醫診所,中醫診所,臺中市南區,04-22858886,臺中市南區永東街49號1、2樓,,24.1246433,120.6731184
3817050055,振興中醫診所,私立中醫診所,中醫一般診所,臺中市北區,22323012,臺中市北區西屯路一段４２９號,,24.162464,120.663582
3817050251,純德中醫診所,私立中醫診所,中醫一般診所,臺中市北區,04 22272780,臺中市北區西屯路一段４３３號,,24.1625249,120.663539
3817050313,慶元中醫診所,私立中醫診所,中醫一般診所,臺中市北區,04 22225793,臺中市北區成功路４２６號,,24.146542,120.67663
3817050340,德恩中醫診所,私立中醫診所,中醫一般診所,臺中市北區,04 22060289,臺中市北區大雅路４３０之２號一樓,,24.2289735,120.6445866
3817050386,廣成中醫診所,私立中醫診所,中醫一般診所,臺中市北區,04 22928712,臺中市北區青島路二段６３號,,24.168827,120.676114
3832021078,萬川中醫診所,私立中醫診所,中醫一般診所,桃園市中壢區,03 4222757,桃園市中壢區大同路１１７號,,24.9572135,121.2224366
3832022173,聖明中醫診所,私立中醫診所,中醫一般診所,桃園市中壢區,03-4950889,桃園市中壢區中正路五０四號,,24.9595889,121.211462
3832022235,華泰中醫診所,私立中醫診所,中醫一般診所,桃園市中壢區,03-4287711,桃園市中壢區健行路一五三之一號,,24.9491425,121.2275584
3832022280,陳君隆中醫診所,私立中醫診所,中醫一般診所,桃園市中壢區,(03)4562008,桃園市中壢區莒光路27號1樓,,24.9527952,121.2383037
3832022306,王秀女中醫診所,私立中醫診所,中醫一般診所,桃園市中壢區,03-4257227,桃園市中壢區元化路三十七號,,24.956855,121.227836
3832022440,光隆中醫診所,私立中醫診所,中醫一般診所,桃園市中壢區,4016505,桃園市中壢區中央西路二段三九號,,24.9585726,121.2175971
3832022477,明生中醫診所,私立中醫診所,中醫一般診所,桃園市中壢區,(03)4222022,桃園市中壢區裕民街二七號,,24.958335,121.225149
3832022486,新隆中醫診所,私立中醫診所,中醫一般診所,桃園市中壢區,03-4551486,桃園市中壢區福德路十二號,,24.9736002,121.2591255
3832022557,同德中醫診所,私立中醫診所,中醫一般診所,桃園市中壢區,03-4664331,桃園市中壢區龍昌路475號1樓,,24.9305318,121.2488295
3832022566,安馨中醫診所,私立中醫診所,中醫一般診所,桃園市中壢區,(03)4386930,桃園市中壢區新中北路五七號,,24.9570507,121.2601848
3832012659,安慶中醫診所,私立中醫診所,中醫一般診所,桃園市桃園區,(03)2200700,桃園市桃園區國際路一段１２１４號,,24.9895028,121.2888055
3832012668,杏安中醫診所,私立中醫診所,中醫一般診所,桃園市桃園區,(03)3369499,桃園市桃園區永安路２１６號,,24.997958,121.305012
3832012720,廖桂聲中醫診所,私立中醫診所,中醫一般診所,桃園市桃園區,03-3397528,桃園市桃園區力行路五十五號,,25.0024163,121.3039515
3832012739,普賢中醫診所,私立中醫診所,中醫一般診所,桃園市桃園區,3587160,桃園市桃園區長春路112號1樓,,25.0026051,121.3045398
3832012757,全心中醫診所,私立中醫診所,中醫一般診所,桃園市桃園區,(03)3024267,桃園市桃園區莊一街190號1樓,,25.0209114,121.2906742
3832012855,澎湖仁中醫診所,私立中醫診所,中醫一般診所,桃園市桃園區,33355068,桃園市桃園區永安路275號1樓,,24.998873,121.302096
3831042831,刁仁杰中醫診所,私立中醫診所,中醫診所,新北市中和區,22227562,新北市中和區莒光路155號1樓,,25.0008487,121.4728295
3831042859,富邦中醫診所,私立中醫診所,中醫診所,新北市中和區,229487720,新北市中和區忠孝街85號1樓,,24.9853552,121.5120175
3831050011,德昌中醫診所,私立中醫診所,中醫一般診所,新北市新店區,02 9115401,新北市新店區中正路３７０號,,24.976766,121.534995
3831050020,順安堂傷科中醫診所,私立中醫診所,中醫專科診所,新北市新店區,02 9155971,新北市新店區順安街１６號,,24.985154,121.5410824
3831050039,德林中醫診所,私立中醫診所,中醫一般診所,新北市新店區,02 9420086,新北市新店區安和路三段１３３號,,24.9852329,121.516965
3831050048,仁安中醫診所,私立中醫診所,中醫一般診所,新北市新店區,02 9112867,新北市新店區光明街１７８號,,24.962037,121.539689
3831050057,萬安中醫診所,私立中醫診所,中醫一般診所,新北市新店區,02 9110148,新北市新店區中正路234號2樓,,24.9730408,121.5398951
3831050182,健宏中醫診所,私立中醫診所,中醫一般診所,新北市新店區,2218-8120,新北市新店區中央路一九八號,,24.974558,121.530559
3831050208,新店建成中醫診所,私立中醫診所,中醫一般診所,新北市新店區,29135522,新北市新店區北新路二段176、178號1樓,,24.97588,121.543116
3831050226,新福安中醫診所,私立中醫診所,中醫一般診所,新北市新店區,229105657,新北市新店區中正路三二０號一樓,,24.9937623,121.502444
3831050244,育豐中醫診所,私立中醫診所,中醫一般診所,新北市新店區,02 9111367,新北市新店區三民路７３號,,24.9712978,121.5361441
3831051438,新店榮星中醫診所,私立中醫診所,中醫一般診所,新北市新店區,02 89113502,新北市新店區大豐路二十四號,,24.9801648,121.5406098
3831040622,培敦中醫診所,私立中醫診所,中醫一般診所,新北市中和區,02 2484969,新北市中和區連城路２６１－４號１樓,,24.9963841,121.4921146
3831040748,大眾中醫診所,私立中醫診所,中醫一般診所,新北市中和區,222266680,新北市中和區員山路一七六號,,25.000034,121.4814163
3831040784,景新中醫診所,私立中醫診所,中醫一般診所,新北市中和區,286687686,新北市中和區景新街４４８號,,24.9879471,121.5133645
3831040819,中和健宏中醫聯合診所,私立中醫診所,中醫一般診所,新北市中和區,229441995,新北市中和區景新街二九三號及二九五巷一號,,24.9932906,121.5099138
3831040864,元慶中醫診所,私立中醫診所,中醫一般診所,新北市中和區,936053501,新北市中和區保健路２７之４號,,24.9978584,121.5085528
3831040926,漢唐中醫診所,私立中醫診所,中醫一般診所,新北市中和區,289417376,新北市中和區捷運路１２５號１樓,,24.9904712,121.5076054
3821061333,周良渝中醫診所,私立中醫診所,中醫一般診所,臺南市安南區,(06)2455067,臺南市安南區安東里安和路１段170號,,23.0299461,120.213627
3821061388,安和中醫診所,私立中醫診所,中醫一般診所,臺南市安南區,06-3564343,臺南市安南區州北里安和路５段212號1樓,,23.0669609,120.217473
3821061397,順泰中醫診所,私立中醫診所,中醫一般診所,臺南市安南區,06-2800668,臺南市安南區溪墘里海佃路１段158巷27號1樓,,23.0244546,120.1926756
3821061404,海佃中醫診所,私立中醫診所,中醫一般診所,臺南市安南區,,臺南市安南區溪墘里海佃路１段16、18號1樓,,23.0205931,120.19251
3821061413,健庭中醫診所,私立中醫診所,中醫診所,臺南市安南區,06-2453288,臺南市安南區鳳凰里安中路１段562號1樓,,23.0400062,120.2009769
3821070074,安慶中醫診所,私立中醫診所,中醫一般診所,臺南市安平區,06 2249372,臺南市安平區平安里民權路四段２１號,,22.9989055,120.1858692
3821071099,長仁堂中醫診所,私立中醫診所,中醫診所,臺南市安平區,,臺南市安平區怡平里永華路２段468號1樓,,22.9906222,120.1764172
3821071106,慶平中醫診所,私立中醫診所,中醫診所,臺南市安平區,06-2938915,臺南市安平區怡平里慶平路237號1樓,,22.9968357,120.1774364
3821071115,大現代中醫診所,私立中醫診所,中醫診所,臺南市安平區,06-2955796,臺南市安平區怡平里華平路412號1樓,,22.9910983,120.1750967
3822010054,鍾明昌中醫診所,私立中醫診所,中醫一般診所,嘉義市東區,05 2782208,嘉義市東區民國路２１１號,,23.481119,120.4599971
3822010072,詹輝次中醫診所,私立中醫診所,中醫一般診所,嘉義市東區,05 2271177,嘉義市東區初陽里民族路３６２號,,23.4800663,120.4491054
3822010081,亞產中醫診所,私立中醫診所,中醫一般診所,嘉義市東區,05 2229612,嘉義市東區吳鳳北路226號,,23.4797533,120.4531958
3822010116,斌德中醫診所,私立中醫診所,中醫一般診所,嘉義市東區,05 2224123,嘉義市東區鎮南里忠孝路５號,,23.4800663,120.4491054
3822010134,日生堂中醫診所,私立中醫診所,中醫一般診所,嘉義市東區,05-2226097,嘉義市東區公明路213號,,23.4799146,120.4536292
