機構代碼,機構名稱,權屬別,型態別,縣市鄉鎮,電話,地址,診療科別,經度,緯度
3712041607,陳清龍牙醫診所,私立牙醫診所,牙醫一般診所,新竹市北區,03-5220899,新竹市北區中山路183號,,24.802511,120.962761
3712041670,周易中牙醫診所,私立牙醫診所,牙醫一般診所,新竹市北區,03-5367653,新竹市北區東大路三段三百九十五號,,24.8371758,120.9423659
3712041705,冠傑牙醫診所,私立牙醫診所,牙醫一般診所,新竹市北區,03-5238635,新竹市北區林森路二五三號三樓,,24.7979789,120.9626612
3712041714,譚牙醫診所,私立牙醫診所,牙醫一般診所,新竹市北區,03-5333142,新竹市北區武陵路2號,,24.8152011,120.962305
3712041741,黃建群牙醫診所,私立牙醫診所,牙醫一般診所,新竹市北區,03-5259939,新竹市北區中華路三段28號,,24.7971736,120.9628218
3712041812,傑霖牙醫診所,私立牙醫診所,牙醫診所,新竹市北區,03-5265995,新竹市北區西大路634號,,24.80777,120.961495
3712041830,黃啟祥牙醫診所,私立牙醫診所,牙醫診所,新竹市北區,03-5269095,新竹市北區和福街105號,,24.8030018,120.9639399
3712050026,深潭牙醫診所,私立牙醫診所,牙醫一般診所,新竹市香山區,03-5388127、5388420,新竹市香山區牛埔路４４０號,,24.7974574,120.9422341
3712050035,永志牙醫診所,私立牙醫診所,牙醫一般診所,新竹市香山區,03-5387553,新竹市香山區牛埔路４３７號,,24.7963192,120.9413121
3712050044,陳培中牙醫診所,私立牙醫診所,牙醫一般診所,新竹市香山區,03-5398499,新竹市香山區香北路二一五號,,24.7902914,120.9255092
3712010988,雅旭牙醫診所,私立牙醫診所,牙醫一般診所,新竹市東區,03-5750256,新竹市東區大學路七十六號,,24.7896041,121.00012
3712012008,普洛牙醫診所,私立牙醫診所,牙醫一般診所,新竹市東區,03-5751992,新竹市東區建新路二十六號二樓,,24.7981294,120.9966758
3712012071,國喬牙醫診所,私立牙醫診所,牙醫一般診所,新竹市東區,03-5714520,新竹市東區光復路二段一七六號,,24.793819,121.000955
3712012080,敦品牙醫診所,私立牙醫診所,牙醫診所,新竹市東區,03-5438382,新竹市東區三民里民權路101號1樓,,24.807581,120.975185
3712012115,皇家牙醫診所,私立牙醫診所,牙醫一般診所,新竹市東區,03-5223811,新竹市東區中正路73號,,24.8051495,120.9695251
3712012151,秀雅牙醫診所,私立牙醫診所,牙醫一般診所,新竹市東區,03-5780580,新竹市東區金山里金山北二街61號,,24.7778951,121.024141
3712012179,微笑牙醫診所,私立牙醫診所,牙醫一般診所,新竹市東區,03-5152408,新竹市東區民族路一五八之一號一樓,,24.8086699,120.9786783
3712012222,展新牙醫診所,私立牙醫診所,牙醫一般診所,新竹市東區,03-5246312,新竹市東區勝利路一七五號二樓,,24.8012861,120.9646525
3712012259,敏華牙醫診所,私立牙醫診所,牙醫一般診所,新竹市東區,03-6686151,新竹市東區新莊里關新路27號3樓之2及3樓之3,,24.7847633,121.0182392
3712012268,永霖牙醫診所,私立牙醫診所,牙醫一般診所,新竹市東區,(03) 5246303,新竹市東區南門街16號,,24.8004551,120.9678469
3712012286,康齡牙醫診所,私立牙醫診所,牙醫一般診所,新竹市東區,(03)5753033、5738388,新竹市東區光復路二段222號,,24.7944525,121.0000629
3712012295,耕心牙醫診所,私立牙醫診所,牙醫診所,新竹市東區,03-5727139,新竹市東區光復路二段380號二樓,,24.796802,120.997192
3712012302,王存禎牙醫診所,私立牙醫診所,牙醫診所,新竹市東區,03-5615581,新竹市東區食品路142號1樓,"口腔顎面外科,",24.7976704,120.9768603
3712012311,品味牙醫診所,私立牙醫診所,牙醫診所,新竹市東區,03-6662299,新竹市東區金山街138號,,24.7760591,121.025228
3712040011,新捷牙醫診所,私立牙醫診所,牙醫專科診所,新竹市北區,03-5313190,新竹市北區水田街２１號,,24.813205,120.965704
3712040048,王牙醫診所,私立牙醫診所,牙醫專科診所,新竹市北區,03-5248922,新竹市北區中山路２２號２Ｆ,,24.8058909,120.9674918
3712040066,傑笙牙醫診所,私立牙醫診所,牙醫專科診所,新竹市北區,35227447,新竹市北區北新街48號1樓,,24.8031798,120.9561777
3712040075,上上牙醫診所,私立牙醫診所,牙醫專科診所,新竹市東區,35251383,新竹市東區中山路４００號,,24.8005597,120.9582896
3712040084,榮浩牙醫診所,私立牙醫診所,牙醫專科診所,新竹市北區,03-5335838,新竹市北區武陵路一五三號,,24.8204473,120.9676108
3712040100,陽明牙醫診所,私立牙醫診所,牙醫專科診所,新竹市北區,03-5282386,新竹市北區民富街２７號,,24.8099184,120.9645327
3712040137,翰霖牙醫診所,私立牙醫診所,牙醫一般診所,新竹市北區,03-5356930,新竹市北區西大路710號,,24.8095431,120.960067
3712040208,懷仁牙醫診所,私立牙醫診所,牙醫專科診所,新竹市北區,03-5268510,新竹市北區磐石路３５號,,24.8085906,120.9571795
3712040217,東大牙醫診所,私立牙醫診所,牙醫專科診所,新竹市北區,03-5312087,新竹市北區東大路２段３６５號,,24.8188111,120.962014
3712040244,仁德牙醫診所,私立牙醫診所,牙醫專科診所,新竹市北區,03-5265556,新竹市北區西大路４７３號,,24.804938,120.96291
3712040280,東寧牙醫診所,私立牙醫診所,牙醫專科診所,新竹市北區,03-5260768,新竹市北區大同里中央路89、91號第一層,,24.80577,120.968419
3712040306,許牙醫診所,私立牙醫診所,牙醫一般診所,新竹市北區,03-5241661,新竹市北區中山路２１１號,,24.802195,120.962133
3712040333,陳牙醫診所,私立牙醫診所,牙醫一般診所,新竹市北區,03-5234528,新竹市北區北大路２３９巷１號,,24.807346,120.9646261
3712040342,僑霖牙醫診所,私立牙醫診所,牙醫專科診所,新竹市北區,03-5330060,新竹市北區水田街１２０號,,24.8147103,120.9671044
3712040388,如意牙醫診所,私立牙醫診所,牙醫一般診所,新竹市北區,03-5422765,新竹市北區光田里水田街131號,,24.816363,120.968426
3712040404,親民牙醫診所,私立牙醫診所,牙醫一般診所,新竹市北區,03-5427027,新竹市北區竹光路２１號,,24.8144341,120.961439
3712040431,潔明牙醫診所,私立牙醫診所,牙醫一般診所,新竹市北區,03-5250227,新竹市北區西門街６２號,,24.8024916,120.964762
3712040459,雅群牙醫診所,私立牙醫診所,牙醫一般診所,新竹市北區,03-5153492,新竹市北區水田街134號1樓,,24.8149001,120.967352
3712040477,游牙醫診所,私立牙醫診所,牙醫一般診所,新竹市北區,03-5238158,新竹市北區四維路４5號,,24.7991284,120.9620407
3712040486,西門牙醫診所,私立牙醫診所,牙醫一般診所,新竹市北區,03-5213959,新竹市北區西大路６２７號,,24.8099288,120.9586002
3712040495,江牙醫診所,私立牙醫診所,牙醫一般診所,新竹市北區,03-5223450,新竹市北區中山路２５３號,,24.801554,120.961206
3712040502,懷恩牙醫診所,私立牙醫診所,牙醫一般診所,新竹市北區,03-5261357,新竹市北區潛園里北大路325號,,24.8056992,120.9620595
3712040539,吳慧琳牙醫診所,私立牙醫診所,牙醫一般診所,新竹市北區,03-5319264,新竹市北區經國路一段３２９號１樓,,24.8145898,120.9817998
3712040566,東濟牙醫診所,私立牙醫診所,牙醫一般診所,新竹市北區,03- 5349277,新竹市北區湳雅街2 - 5號,,24.816861,120.969759
3712010086,聯合牙醫診所,私立牙醫診所,牙醫一般診所,新竹市東區,03-5770643,新竹市東區光復路一段631號1樓、2樓,,24.7864279,121.0109994
3712010102,明皓牙醫診所,私立牙醫診所,牙醫一般診所,新竹市東區,03-5618777,新竹市東區食品路二二二號,,24.7966592,120.9751678
3712010166,維泰牙醫診所,私立牙醫診所,牙醫一般診所,新竹市東區,03-5320432,新竹市東區民族路４７號,,24.806357,120.974332
3712010193,孫牙醫診所,私立牙醫診所,牙醫一般診所,新竹市東區,03-5241665,新竹市東區西大路３７６號,,24.802463,120.965567
3712010219,宏昌牙醫診所,私立牙醫診所,牙醫一般診所,新竹市東區,03-5324237,新竹市東區中央路１４４號１樓,,24.8073,120.971674
3712010237,蔡牙醫診所,私立牙醫診所,牙醫一般診所,新竹市東區,03-5323636,新竹市東區民權路５９號,,24.8065095,120.9759745
3712010255,大學牙醫診所,私立牙醫診所,牙醫專科診所,新竹市東區,03-5720909,新竹市東區光復路二段４３４號,,24.7975475,120.9959907
3712010291,鄭牙醫診所,私立牙醫診所,牙醫專科診所,新竹市東區,03-5265456,新竹市東區南大路３４３號,,24.797286,120.969724
3712010308,福華牙醫診所,私立牙醫診所,牙醫專科診所,新竹市東區,03-5262345,新竹市東區中華路二段７１６號,,24.7976681,120.9643836
3712010335,園區牙醫診所,私立牙醫診所,牙醫專科診所,新竹市東區,03-5783712,新竹市東區光復路一段３０７號,,24.782254,121.018828
3712010344,禮正牙醫診所,私立牙醫診所,牙醫專科診所,新竹市東區,03-5776703,新竹市東區光復路一段３８１號,,24.7835121,121.016761
3712010371,沈牙醫診所,私立牙醫診所,牙醫專科診所,新竹市東區,(03) 5725735,新竹市東區博愛街138號,,24.799577,120.981422
3712010380,新明牙醫診所,私立牙醫診所,牙醫專科診所,新竹市東區,03-5798759,新竹市東區光復路一段４３６號,,24.7848432,121.0140434
3712010399,溫牙醫診所,私立牙醫診所,牙醫專科診所,新竹市東區,03-5331081,新竹市東區三民里民族路177號,,24.8093922,120.9793395
3712010406,唐牙醫診所,私立牙醫診所,牙醫專科診所,新竹市東區,03-5267838,新竹市東區南大路８１６號,,24.7883766,120.9668292
3712010442,親親牙醫診所,私立牙醫診所,牙醫專科診所,新竹市東區,(03) 5252771,新竹市東區東南街145號,,24.797504,120.97453
3712010451,明湖牙醫診所,私立牙醫診所,牙醫專科診所,新竹市東區,03-5256237,新竹市東區南大路４７１號,,24.795509,120.9665587
3712010460,光復牙醫診所,私立牙醫診所,牙醫專科診所,新竹市東區,03-5726508,新竹市東區光復路二段３５７號,,24.800975,120.986443
3712010488,三民牙醫診所,私立牙醫診所,牙醫專科診所,新竹市東區,03-5310486,新竹市東區中央路２８８號,,24.8099088,120.9775907
3712010497,陳奕熹牙醫診所,私立牙醫診所,牙醫專科診所,新竹市東區,03-5430272,新竹市東區民主路99號2樓,,24.8113548,120.9789987
3712010522,中心牙醫診所,私立牙醫診所,牙醫專科診所,新竹市東區,03-5152786,新竹市東區北大路76號,,24.8117348,120.9709842
3712010531,曾元春牙醫診所,私立牙醫診所,牙醫專科診所,新竹市東區,03-5336931,新竹市東區北大路２７－１號,,24.812807,120.973515
3712010577,智信牙醫診所,私立牙醫診所,牙醫專科診所,新竹市東區,03-5781997,新竹市東區新莊街75號77號1樓,,24.785956,121.015831
3712010620,先進牙醫診所,私立牙醫診所,牙醫專科診所,新竹市東區,03-5228999 ,新竹市東區食品路417號,,24.7935733,120.9679773
3712010639,金明牙醫診所,私立牙醫診所,牙醫專科診所,新竹市東區,03-5711899,新竹市東區食品路１０３巷２號１Ｆ,,24.7979447,120.9778924
3712010648,信愛牙醫診所,私立牙醫診所,牙醫專科診所,新竹市東區,03-5313760,新竹市東區北大路29之1號2樓,,24.812738,120.973291
3712010666,崇安牙醫診所,私立牙醫診所,牙醫專科診所,新竹市東區,03-5785936,新竹市東區科園里科學園路33號1樓及2樓,,24.7860282,121.0102673
3712010675,王子牙醫診所,私立牙醫診所,牙醫一般診所,新竹市東區,03-5337890,新竹市東區文華里田美三街20號,,24.8154578,120.9769081
3712010684,珂牙醫診所,私立牙醫診所,牙醫一般診所,新竹市東區,03-5234023,新竹市東區武昌街１０６號,,24.8030504,120.9672509
3712010746,宏大牙醫診所,私立牙醫診所,牙醫一般診所,新竹市東區,03-5613537,新竹市東區食品路５４５號,,24.79462,120.965147
3712010773,簡牙醫診所,私立牙醫診所,牙醫一般診所,新竹市東區,03-5320790,新竹市東區民生路２００號,,24.8115149,120.9761654
3712010782,上慈牙醫診所,私立牙醫診所,牙醫一般診所,新竹市東區,03-5355655,新竹市東區民族路84-2號,,24.8073389,120.976508
3712010791,貝多芬牙醫診所,私立牙醫診所,牙醫一般診所,新竹市東區,03-5749567,新竹市東區建功一路59巷6號,,24.8007187,120.9967374
3712010808,關東橋仁美牙醫診所,私立牙醫診所,牙醫一般診所,新竹市東區,03-5778528,新竹市東區西大路165號1F,,24.7974958,120.9687673
3712010826,誼安牙醫診所,私立牙醫診所,牙醫一般診所,新竹市東區,03-5357700,新竹市東區復中里中央路178號1樓,,24.8086484,120.9738765
3712010835,品傑牙醫診所,私立牙醫診所,牙醫一般診所,新竹市東區,03 5619665,新竹市東區東南街１５０號,,24.7960981,120.974928
3712010844,陳慧貞牙醫診所,私立牙醫診所,牙醫一般診所,新竹市東區,03-5723629,新竹市東區建新路36號,,24.798138,120.997001
3712010853,周禮賢牙醫診所,私立牙醫診所,牙醫一般診所,新竹市東區,03-5284882,新竹市東區東門街６７號,,24.803847,120.971665
3712010880,清華佳南牙醫診所,私立牙醫診所,牙醫一般診所,新竹市東區,03-5715684,新竹市東區光復路二段１４２號,,24.7932701,121.001761
3712010899,米羅牙醫診所,私立牙醫診所,牙醫一般診所,新竹市東區,03-5642009,新竹市東區光復路一段432號,,24.7848123,121.0141231
3712010942,新象牙醫診所,私立牙醫診所,牙醫一般診所,新竹市東區,03-5795839,新竹市東區科學園路６０號,,24.785359,121.0105611
3812011727,科理中醫診所,私立中醫診所,中醫一般診所,新竹市東區,03-5624128,新竹市東區東南街138之1號,,24.7974163,120.9742073
3812011807,恆安堂中醫診所,私立中醫診所,中醫一般診所,新竹市東區,03-5245221,新竹市東區勝利路51號,,24.8007283,120.9685898
3812011870,華陽中醫診所,私立中醫診所,中醫一般診所,新竹市東區,03-5748061,新竹市東區建功一路133號,,24.8020212,120.9952325
3812011898,聯春堂中醫診所,私立中醫診所,中醫一般診所,新竹市東區,03-5263274,新竹市東區勝利路八十八號,,24.801279,120.969006
3812011905,丞太中醫診所,私立中醫診所,中醫一般診所,新竹市東區,03-5332186,新竹市東區三民里民權路47-49號1樓,,24.8063169,120.9761274
3812011914,金雞堂中醫診所,私立中醫診所,中醫一般診所,新竹市東區,03=5224909,新竹市東區中華路二段三八五號,,24.8030543,120.9733109
3812011987,進安中醫診所,私立中醫診所,中醫專科診所,新竹市東區,03-5226655,新竹市東區中華路二段五七四號,,24.7997128,120.9678636
3812012028,琉璃光中醫診所,私立中醫診所,中醫一般診所,新竹市東區,(03)5615605,新竹市東區公園里南大路93之1號,,24.8014393,120.9762047
3812012037,陳俊麟中醫診所,私立中醫診所,中醫診所,新竹市東區,03-5738080,新竹市東區東光路45號,,24.80249,120.9869536
3812040059,丘氏中醫診所,私立中醫診所,中醫一般診所,新竹市北區,03-5347839,新竹市北區西大路７１８號,,24.8095708,120.95993
3812040086,李如英中醫診所,私立中醫診所,中醫一般診所,新竹市北區,03-5238090,新竹市北區中山路３２號一樓及二樓,,24.8013585,120.9579676
3812040120,順良中醫診所,私立中醫診所,中醫一般診所,新竹市北區,03-5336420,新竹市北區湳雅街２之2號,,24.816885,120.969607
3812040157,新德堂中醫診所,私立中醫診所,中醫一般診所,新竹市北區,03-5283388,新竹市北區北門街二○五號,,24.8238676,120.9474747
3812040175,德安中醫診所,私立中醫診所,中醫一般診所,新竹市北區,03-5315756,新竹市北區東大路二段１７９號,,24.8156467,120.9656138
3812040184,鶴山堂中醫診所,私立中醫診所,中醫一般診所,新竹市北區,03-5337573,新竹市北區光華北街２２號,,24.817928,120.973381
3812040200,大興中醫診所,私立中醫診所,中醫一般診所,新竹市北區,03-5349078,新竹市北區光田里水田街192號,,24.8160491,120.96877
3812040219,秀善中醫診所,私立中醫診所,中醫一般診所,新竹市東區,03 5245693,新竹市東區西門街２２３號,,24.799759,120.96115
3812040228,宜森中醫診所,私立中醫診所,中醫一般診所,新竹市北區,03-5353273,新竹市北區金竹路126號1樓,,24.824026,120.972487
3812040237,陳彥吉中醫診所,私立中醫診所,中醫一般診所,新竹市北區,03-5283327,新竹市北區四維路３６號,,24.798732,120.962905
3812041298,陳渭淦中醫診所,私立中醫診所,中醫一般診所,新竹市北區,03-5265386,新竹市北區西大路四三五號,,24.8040681,120.963742
3812041396,林金龍中醫診所,私立中醫診所,中醫一般診所,新竹市北區,(03) 5213195,新竹市北區北門街四十七號,,24.805972,120.965667
3812041430,康宸中醫診所,私立中醫診所,中醫一般診所,新竹市北區,03─5251319,新竹市北區經國路二段三七八號,,24.8076651,120.957249
3812041467,仁愛中醫診所,私立中醫診所,中醫診所,新竹市北區,(03)5260150,新竹市北區西門街111號,,24.801473,120.9637438
3812041485,聖堯中醫診所,私立中醫診所,中醫診所,新竹市北區,03-5409791,新竹市北區武陵路65號,,24.8181264,120.9652476
3812051043,川河堂中醫診所,私立中醫診所,中醫一般診所,新竹市香山區,03-5378116,新竹市香山區內湖路五十三號,,24.7438863,120.9060444
3812010024,順安堂中醫診所,私立中醫診所,中醫專科診所,新竹市東區,03-5229261,新竹市東區東前街十七號,,24.8044759,120.9682619
3812010060,劉中醫診所,私立中醫診所,中醫專科診所,新竹市東區,03-5775623,新竹市東區光復路一段３１４號,,24.7828091,121.019195
3812010088,同慶中醫診所,私立中醫診所,中醫專科診所,新竹市東區,03-5335733,新竹市東區民權路５８號,,24.806786,120.976389
3812010097,慶仁眼科內科中醫診所,私立中醫診所,中醫一般診所,新竹市東區,03-5257811,新竹市東區中華路二段３８１號,,24.8031148,120.9734063
3812010186,華信中醫診所,私立中醫診所,中醫專科診所,新竹市東區,03-5428008,新竹市東區中央路三○一號,,24.810799,120.978334
3812010195,詹台杰中醫診所,私立中醫診所,中醫專科診所,新竹市東區,(03)5334803,新竹市東區中央路182號2樓,,24.8085787,120.9740471
3812010211,保順中醫診所,私立中醫診所,中醫專科診所,新竹市東區,35780421,新竹市東區光復路一段１８１號,,24.7815641,121.0220793
3812010239,樓中亮中醫診所,私立中醫診所,中醫一般診所,新竹市東區,03-5611927,新竹市東區東南街七十八號,,24.7985368,120.9733206
3812011487,仁和堂中醫診所,私立中醫診所,中醫一般診所,新竹市東區,03-5436556,新竹市東區經國路一段七○二號一樓,,24.7920604,120.9933678
3812011496,漢華中醫診所,私立中醫診所,中醫一般診所,新竹市東區,03-5626761,新竹市東區南大路110之1號,,24.8017709,120.9762429
3812011512,祥發中醫診所,私立中醫診所,中醫一般診所,新竹市東區,03-5632568,新竹市東區光復路一段二六一號,,24.7818891,121.019803
3512040651,亞太診所,私立西醫診所,西醫專科診所,新竹市北區,03-5311924,新竹市北區光華街五十七號二樓、三樓,"內科,",24.815915,120.97217
3512040660,郭榮暉診所,私立西醫診所,西醫專科診所,新竹市東區,03 5251178,新竹市東區中山路３３號,"內科,",24.8055189,120.9671711
3512040697,楊耳鼻喉科診所,私立西醫診所,西醫專科診所,新竹市東區,03 5315348,新竹市東區中正路２５５號,"耳鼻喉科,",24.812587,120.963679
3512010233,張內科小兒科診所,私立西醫診所,西醫專科診所,新竹市東區,03 5236288,新竹市東區西大路１６８號,"內科,兒科,",24.7972471,120.9696365
3512010242,李榮輝診所,私立西醫診所,西醫專科診所,新竹市東區,03-5716708,新竹市東區光復里光復路二段722號,,24.8004654,120.9894777
3512010288,吳憲一內科小兒科診所,私立西醫診所,西醫專科診所,新竹市東區,03 5242351,新竹市東區西大路１３５巷１２號,"內科,兒科,",24.7951182,120.9723796
3512010368,傅內皮膚科診所,私立西醫診所,西醫專科診所,新竹市東區,03 5215730,新竹市東區中華路二段７２７號,"內科,皮膚科,",24.7975927,120.9646418
3512010386,羅世樑診所,私立西醫診所,西醫專科診所,新竹市東區,03-5316742,新竹市東區光華街29號之一１樓,,24.8142246,120.9725055
3512010457,林耳鼻喉科診所,私立西醫診所,西醫專科診所,新竹市東區,03 5239705,新竹市東區成功里大同路19號2樓,"耳鼻喉科,",24.8030461,120.969605
3512010528,林芳勝診所,私立西醫診所,西醫醫務室,新竹市東區,03 5710363,新竹市東區東山街５２號,,24.7966876,120.9796766
3512010617,簡小兒科內科診所,私立西醫診所,西醫專科診所,新竹市東區,03 5223963,新竹市東區西大路３６４號,"內科,兒科,",24.802236,120.965742
3512010653,陳耳鼻喉科診所,私立西醫診所,西醫專科診所,新竹市東區,03 5227158,新竹市東區東門街７７號２樓,"耳鼻喉科,",24.803869,120.971345
3512010715,苑芝珊診所,私立西醫診所,西醫專科診所,新竹市東區,03-5749860,新竹市東區建功一路59巷22號,"內科,",24.8005031,120.9956446
3512010724,范診所,私立西醫診所,西醫醫務室,新竹市東區,03 5777987,新竹市東區長春街３９號,,24.7857408,121.0141809
3512010751,倪耳鼻喉科診所,私立西醫診所,西醫專科診所,新竹市東區,03- 5253472,新竹市東區東門街90號,"耳鼻喉科,",24.8043324,120.9717168
3512010760,上明眼科診所,私立西醫診所,西醫專科診所,新竹市東區,03- 5248758,新竹市東區南門街28號,"眼科,",24.8006236,120.9676623
3512010822,邱診所,私立西醫診所,西醫醫務室,新竹市東區,03-5266229,新竹市東區振興里振興路112號1樓,"家庭醫學科,內科,",24.7952948,120.9608493
3512010859,王松桂泌尿科診所,私立西醫診所,西醫專科診所,新竹市東區,03-5237126,新竹市東區東門街２８號,"泌尿科,",24.804427,120.974166
3512010868,張漢傑小兒科診所,私立西醫診所,西醫專科診所,新竹市東區,03 5239779,新竹市東區南門街１４號,"兒科,",24.8003625,120.9678308
3512010886,莊峻鏞內科診所,私立西醫診所,西醫專科診所,新竹市東區,03 5247485,新竹市東區文昌街１０７號,"內科,",24.8018873,120.966152
3512010902,蘇銘煜診所,私立西醫診所,西醫醫務室,新竹市東區,03 5781573,新竹市東區光復路一段３０１號,,24.7822091,121.018952
3512010911,林獻雄診所,私立西醫診所,西醫醫務室,新竹市東區,03 5254553,新竹市東區中華路二段６９６號,,24.7979395,120.9647902
3512010939,江婦產科診所,私立西醫診所,西醫專科診所,新竹市東區,03-5353532,新竹市東區三民里民族路125號,"婦產科,",24.8083196,120.9777581
3512010966,長庚婦產科診所,私立西醫診所,西醫專科診所,新竹市東區,03-5262299,新竹市東區中華路二段319號1樓,"婦產科,",24.8038696,120.9746974
3512010975,吳國治眼科診所,私立西醫診所,西醫專科診所,新竹市東區,03 5220699,新竹市東區中央路１００號,"眼科,",24.8055877,120.9689307
3512010984,羅興邦家庭醫學科診所,私立西醫診所,西醫專科診所,新竹市東區,03 5267999,新竹市東區南大路３４４號,"家庭醫學科,",24.7985081,120.970778
3512011007,蔡文進小兒科診所,私立西醫診所,西醫專科診所,新竹市東區,03-5627333,新竹市東區食品路１10號,"兒科,",24.7981803,120.977691
3512011016,和平婦產科診所,私立西醫診所,西醫專科診所,新竹市東區,03 5263141,新竹市東區大同路１００號,"婦產科,",24.8051956,120.96854
3512011034,吳廷臣診所,私立西醫診所,西醫醫務室,新竹市東區,03 5346677,新竹市東區中央路176號1樓,"兒科,",24.8085542,120.9738448
3512011052,欣安診所,私立西醫診所,西醫專科診所,新竹市東區,03-5775055,新竹市東區科園里科學園路12-1號,"家庭醫學科,",24.7863766,121.0095216
3512011070,石銘煌診所,私立西醫診所,西醫專科診所,新竹市東區,03 5277332,新竹市東區中正里東門街138號,"兒科,",24.8043335,120.9691805
3512011098,清華診所,私立西醫診所,西醫專科診所,新竹市東區,03-5735050,新竹市東區建功一路64號4樓,"家庭醫學科,兒科,",24.7982751,120.997987
3512040777,簡志澔小兒科診所,私立西醫診所,西醫專科診所,新竹市北區,03-5223855,新竹市北區客雅里延平路一段165號,"兒科,",24.8044721,120.956257
3512040795,張辰光復健科診所,私立西醫診所,西醫專科診所,新竹市東區,03 5355150,新竹市東區武陵路１５７號,"復健科,",24.8205826,120.9677571
3512040893,張錚小兒科診所,私立西醫診所,西醫專科診所,新竹市北區,03-5337928,新竹市北區中正路317號,"兒科,",24.8139752,120.9628443
3512040955,台安耳鼻喉科診所,私立西醫診所,西醫專科診所,新竹市北區,03-5246069,新竹市北區北大路466號,"耳鼻喉科,",24.801872,120.9599652
3512040964,李賢祺診所,私立西醫診所,西醫醫務室,新竹市北區,03-5368335,新竹市北區東大路３段３９７號１樓,"內科,",24.8372049,120.9423165
3512040982,張桓小兒科診所,私立西醫診所,西醫專科診所,新竹市北區,03 5253696,新竹市北區林森路２５０號一樓,"兒科,",24.7981671,120.962368
3512040991,惠生婦產科診所,私立西醫診所,西醫專科診所,新竹市北區,03- 5350358,新竹市北區東大路二段577號,"婦產科,",24.8221198,120.9592098
3512042075,陳達文內科診所,私立西醫診所,西醫醫務室,新竹市北區,03-5286220,新竹市北區四維路34號,"內科,",24.7987011,120.962948
3512042146,李育奇診所,私立西醫診所,西醫醫務室,新竹市北區,03-5255461,新竹市北區西大路四四二之一號,"家庭醫學科,",24.8041094,120.9641325
3512042226,丁眼科診所,私立西醫診所,西醫專科診所,新竹市北區,03-5439913,新竹市北區中正路三二一號一樓,"眼科,",24.8141021,120.96249
3512042235,大鵬復健科診所,私立西醫診所,西醫專科診所,新竹市北區,(03)5429308,新竹市北區經國路二段110號2樓,"復健科,",24.8118501,120.9641946
3512042253,健群耳鼻喉科診所,私立西醫診所,西醫專科診所,新竹市北區,03-5266368,新竹市北區北門街50號,"耳鼻喉科,",24.8060876,120.9660815
3512042262,莊士易內科心臟內科診所(英群莊聯合診所),私立西醫診所,西醫專科診所,新竹市北區,03-5250266 (0968-732265),新竹市北區中山路275號,"內科,",24.8013241,120.960787
3512042271,英群莊皮膚科診所(英群莊聯合診所),私立西醫診所,西醫專科診所,新竹市北區,03-5261092 (0968-800979,新竹市北區中山路275號,"皮膚科,",24.8013241,120.960787
3512042280,陳萬龍診所,私立西醫診所,西醫專科診所,新竹市北區,03-5152971,新竹市北區東大路二段180號,"外科,骨科,",24.8162071,120.965793
3512042315,實和診所,私立西醫診所,西醫專科診所,新竹市北區,03-5277333,新竹市北區中山路29號,"家庭醫學科,內科,",24.8055565,120.9672309
3512042351,祥仁內科診所,私立西醫診所,西醫專科診所,新竹市北區,03-5278651,新竹市北區中華路三段9號,"內科,",24.7958994,120.958278
3512050120,龔耳鼻喉科,私立西醫診所,西醫專科診所,新竹市香山區,03 5389324,新竹市香山區頂埔路９號,"耳鼻喉科,",24.7984356,120.9497204
3512013038,明錦診所,私立西醫診所,西醫醫務室,新竹市東區,(03) 5613535,新竹市東區南大路2號,,24.8033329,120.9787117
3512013056,林冠賢皮膚科診所,私立西醫診所,西醫專科診所,新竹市東區,(03) 5321313,新竹市東區民族路158 - 2 號,"皮膚科,",24.8086948,120.9787172
3512013065,惠民真平內科外科聯合診所,私立西醫診所,西醫醫務室,新竹市東區,03-5326125,新竹市東區民族路84之1號,"內科,外科,",24.8073042,120.9764657
3512013074,能清安欣診所,私立西醫診所,西醫專科診所,新竹市東區,03-5357600,新竹市東區中央路214號,"精神科,",24.8089834,120.9749904
3512013083,徐文錦眼科診所,私立西醫診所,西醫專科診所,新竹市東區,03-5356736   0918-255526,新竹市東區東大路一段118號,"眼科,",24.8060649,120.9739336
3512010019,王外科內科聯合診所,私立西醫診所,西醫專科診所,新竹市東區,03 5228371,新竹市東區東門街７１號,"內科,外科,",24.80385,120.971569
3512013154,林祺彬皮膚科診所,私立西醫診所,西醫診所,新竹市東區,03-5350566,新竹市東區中央路171號,"皮膚科,",24.8085521,120.972832
3512013163,廖健仲胃腸肝膽內科診所,私立西醫診所,西醫診所,新竹市東區,(03)5612297,新竹市東區西大路23號1樓、25號1樓、25號1樓2樓,"內科,",24.7945351,120.9724669
3512013172,何耳鼻喉科診所,私立西醫診所,西醫診所,新竹市東區,(03) 5230945,新竹市東區西大路141號,"耳鼻喉科,",24.7967041,120.969533
3512013181,林正修診所,私立西醫診所,西醫診所,新竹市東區,03-5166746,新竹市東區新光路38號,"精神科,",24.8020353,120.9886916
3512013216,麗池診所,私立西醫診所,西醫診所,新竹市東區,03-5615080,新竹市東區公園路280號,"外科,",24.8030388,120.9793839
3512013225,賴閔宦小兒科診所,私立西醫診所,西醫診所,新竹市東區,03-5611238,新竹市東區南大路387-1號,"兒科,",24.803288,120.979134
3512013234,長春診所,私立西醫診所,西醫醫務室,新竹市東區,03-5716837,新竹市東區光復路二段236號,,24.7946337,120.9998104
3512013289,陳雲濤眼科診所,私立西醫診所,西醫診所,新竹市東區,03-5282282,新竹市東區榮光里東門街39號,"眼科,",24.803889,120.973266
3512013305,廖慧敏小兒科診所,私立西醫診所,西醫診所,新竹市東區,03-5282282,新竹市東區榮光里東門街39號,"兒科,",24.803889,120.973266
3512013314,阮皮膚科診所,私立西醫診所,西醫診所,新竹市東區,(03) 5753256,新竹市東區建中路77號1樓,"皮膚科,",24.8021526,120.9954559
3512013332,秦登峰診所,私立西醫診所,西醫醫務室,新竹市東區,5258646,新竹市東區食品路596號,,24.794649,120.96552
3512013369,小太陽耳鼻喉科診所,私立西醫診所,西醫診所,新竹市東區,03-5750238,新竹市東區建功一路45之7號1樓,"耳鼻喉科,",24.798358,120.99758
3512013378,茱麗婦產科診所,私立西醫診所,西醫診所,新竹市東區,03-5735529,新竹市東區光復路二段352號3樓,"婦產科,",24.7963882,120.9977231
3512040026,杏林內科小兒科診所,私立西醫診所,西醫專科診所,新竹市北區,03 5235832,新竹市北區長安街８７－３號,"內科,兒科,",24.8070371,120.96495
3512040035,朱內科小兒科診所,私立西醫診所,西醫專科診所,新竹市北區,03-5341906,新竹市北區福林里東大路二段347號,"內科,兒科,",24.8184797,120.9622532
3512040062,蔡景銓內科小兒科診所,私立西醫診所,西醫專科診所,新竹市東區,03 5253636,新竹市東區西大路４９９號,"內科,兒科,",24.80566,120.9625914
3512040115,慈暉內科小兒科診所,私立西醫診所,西醫專科診所,新竹市東區,03 5220145,新竹市東區中山路１３６號,"內科,兒科,",24.804317,120.96459
3512040124,杏春內科小兒科診所,私立西醫診所,西醫專科診所,新竹市東區,03 5214162,新竹市東區民富街１０１號,"內科,兒科,",24.7920604,120.9933678
3512040142,永錫外科診所,私立西醫診所,西醫專科診所,新竹市東區,03 5234029,新竹市東區西大路４０７號,"外科,",24.803369,120.964278
3512040179,范耳鼻喉科診所,私立西醫診所,西醫專科診所,新竹市東區,03 5237380,新竹市東區北大路２６４號,"耳鼻喉科,",24.807636,120.963964
3512040259,卓耳鼻喉科診所,私立西醫診所,西醫專科診所,新竹市北區,03 5217369,新竹市北區境福里中正路446號,"耳鼻喉科,",24.816231,120.959425
3512040295,葉冠東婦產科診所,私立西醫診所,西醫專科診所,新竹市東區,03 5269111,新竹市東區中山路２４８號,"婦產科,",24.8027581,120.962196
3512040348,蕭子青小兒科診所,私立西醫診所,西醫專科診所,新竹市北區,03 5336100,新竹市北區自由路２７巷３７號,"兒科,",24.810851,120.980811
3512040393,郭外科診所,私立西醫診所,西醫專科診所,新竹市東區,35223258,新竹市東區中山路１３７號,"外科,",24.8032891,120.964122
3512040446,邊子揚診所,私立西醫診所,西醫專科診所,新竹市東區,03 5318208,新竹市東區中正路２７７號,"內科,",24.8130941,120.963345
3512040455,林聖旦耳鼻喉科診所,私立西醫診所,西醫專科診所,新竹市東區,03 5312030,新竹市東區湳雅街５８－２號,"耳鼻喉科,",24.8182818,120.9714307
3512040473,鄭眼科診所,私立西醫診所,西醫專科診所,新竹市東區,03 5424126,新竹市東區經國路二段９３號,"眼科,",24.812109,120.9654404
3512040482,黃瑞耳鼻喉科診所,私立西醫診所,西醫專科診所,新竹市北區,03 5263077,新竹市北區中山路１１６號,"耳鼻喉科,",24.8046031,120.964906
3512040517,陳建銘婦產科診所,私立西醫診所,西醫專科診所,新竹市北區,(03)5337789,新竹市北區武陵路218巷58號,"婦產科,",24.8200901,120.970355
3512040599,劉復國診所,私立西醫診所,西醫診所,新竹市北區,03-5210085,新竹市北區中山路４８號,,24.8055808,120.9667496
3512040615,陳吳坤骨科診所,私立西醫診所,西醫專科診所,新竹市北區,03-5428938,新竹市北區經國路二段6號,"骨科,復健科,",24.8137758,120.967002
3512040624,蔡坤榮診所,私立西醫診所,西醫專科診所,新竹市北區,03 5265279,新竹市北區西大路６５４號,"內科,",24.808236,120.961151
3512011105,李文華診所,私立西醫診所,西醫專科診所,新竹市東區,35355811,新竹市東區民生路２２５號,"內科,",24.8119,120.9755285
3512011123,永堅眼科診所,私立西醫診所,西醫專科診所,新竹市東區,03 5338568,新竹市東區中央路１７２號,"眼科,",24.808515,120.9737324
3512011150,廖明厚小兒科診所,私立西醫診所,西醫專科診所,新竹市東區,03-5316665,新竹市東區三民里民族路130號,"家庭醫學科,兒科,",24.8080853,120.9777015
3512011169,黃耳鼻喉科診所,私立西醫診所,西醫專科診所,新竹市東區,(03)5788899,新竹市東區光復路一段５９５號,"耳鼻喉科,",24.7858356,121.0117501
3512011187,謝碧祥診所,私立西醫診所,西醫醫務室,新竹市東區,(03) 5725099,新竹市東區光復路二段254號,"兒科,眼科,",24.7948817,120.9995284
3512011196,普惠耳鼻喉科診所,私立西醫診所,西醫醫務室,新竹市東區,03 5615151,新竹市東區食品路２５９號,"耳鼻喉科,",24.7953101,120.973873
3512011221,吳雨圭診所,私立西醫診所,西醫專科診所,新竹市東區,03-5261193,新竹市東區中正路５５號,,24.8045658,120.9699456
3512011230,范揚峰骨科診所,私立西醫診所,西醫專科診所,新竹市東區,03-5261335,新竹市東區東門街１６、１８號,"骨科,",24.804424,120.974428
3512011267,邱國華耳鼻喉科診所,私立西醫診所,西醫專科診所,新竹市東區,03- 5358758,新竹市東區北大路66號,"耳鼻喉科,",24.8124107,120.9720373
3512011285,恩慈診所,私立西醫診所,西醫醫務室,新竹市東區,(03) 5726519,新竹市東區建功一路二號102室,,24.7966923,120.9984677
3512011301,何元志耳鼻喉科診所,私立西醫診所,西醫專科診所,新竹市東區,03 5644506,新竹市東區光復路一段431號,"耳鼻喉科,",24.783773,121.015676
3512011329,葉佳全小兒科診所,私立西醫診所,西醫專科診所,新竹市東區,03-5321977,新竹市東區民權路199號,"兒科,",24.810108,120.9733835
3512011392,王皮膚科診所,私立西醫診所,西醫專科診所,新竹市東區,03 5238679,新竹市東區文昌街８９號,"皮膚科,",24.8020849,120.9666279
3512011418,林煜朗耳鼻喉科診所,私立西醫診所,西醫專科診所,新竹市東區,(03)5617266,新竹市東區東南街189號一樓,"耳鼻喉科,",24.796695,120.9750792
3512011427,江秀蓉診所,私立西醫診所,西醫醫務室,新竹市東區,03 5530895,新竹市東區光復路一段４８５巷６弄１８號,,24.7839191,121.014241
3512011445,興世紀婦產科診所,私立西醫診所,西醫專科診所,新竹市東區,5635757,新竹市東區光復路一段320號,"婦產科,",24.7829031,121.01907
3512011454,謝祖柏婦產科診所,私立西醫診所,西醫專科診所,新竹市東區,03-5626111,新竹市東區新興里食品路282號,"婦產科,",24.7942366,120.9713914
3512012479,蘇育賢小兒科診所,私立西醫診所,西醫專科診所,新竹市東區,03-5212911,新竹市東區文昌街109號,"兒科,",24.8018712,120.9661086
3512012595,送子鳥診所,私立西醫診所,西醫專科診所,新竹市東區,03-5733355,新竹市東區光復里忠孝路80號1、2、3樓,"婦產科,麻醉科,",24.8028121,120.9915071
3512012684,真善美眼科診所,私立西醫診所,西醫醫務室,新竹市東區,03-5627789,新竹市東區食品路三二一號,"眼科,",24.794387,120.9721573
3512012700,江美麗婦產科診所,私立西醫診所,西醫專科診所,新竹市東區,03-5750520,新竹市東區新竹市建新路六十六號七樓之一,"婦產科,",24.7985828,120.9980737
3512012728,啟恩小兒科診所,私立西醫診所,西醫醫務室,新竹市東區,03-5317177,新竹市東區中央路269號一樓,,24.8102316,120.977747
3512012764,蘇婦產科診所,私立西醫診所,西醫醫務室,新竹市東區,03-5254458、(0910293329),新竹市東區府後街一號,"婦產科,",24.804875,120.97031
3512012817,陳志鴻泌尿科診所,私立西醫診所,西醫專科診所,新竹市東區,03-5237771,新竹市東區中正路八十七號,"泌尿科,",24.805401,120.969222
3512012862,建功骨科外科診所,私立西醫診所,西醫專科診所,新竹市東區,(03) 5749886,新竹市東區建功一路五十九巷十號一樓,"內科,外科,骨科,",24.8006397,120.9964126
3512012880,大學眼科診所,私立西醫診所,西醫專科診所,新竹市東區,(03)5246488,新竹市東區文化街２號,"眼科,",24.804758,120.97103
3512012899,慈佑小兒科診所,私立西醫診所,西醫專科診所,新竹市東區,03-5613809,新竹市東區光鎮里南大路549號1F,"兒科,",24.7909411,120.9646193
3512012906,趙永康小兒科診所,私立西醫診所,西醫專科診所,新竹市東區,(03)5313931,新竹市東區文華里北大路72號1～2樓　,"兒科,",24.8136434,120.9743462
3512012915,郭內科診所,私立西醫診所,西醫專科診所,新竹市東區,(03)5233168,新竹市東區大同路７－１號,"內科,兒科,",24.8025458,120.9709685
3512012924,優生婦產科診所,私立西醫診所,西醫專科診所,新竹市東區,03-5337255,新竹市東區經國路一段680號,"婦產科,",24.8145185,120.9737242
3512012942,曾鼎昌整形外科診所,私立西醫診所,西醫專科診所,新竹市東區,(03)5312588,新竹市東區民族路228號,"外科,整形外科,",24.8100444,120.9808483
3512012951,成美整形外科診所,私立西醫診所,西醫專科診所,新竹市東區,(03) 5220668,新竹市東區中正路57號3樓,"整形外科,",24.8046592,120.9698579
3512012960,莊宗勳診所,私立西醫診所,西醫醫務室,新竹市東區,03-5324538,新竹市東區民族路20鄰166號,"內科,",24.8035774,120.9720081
3512013001,闕弘昌復健科診所,私立西醫診所,西醫專科診所,新竹市東區,(03) 5340860,新竹市東區北大路32號,"復健科,",24.8130677,120.9731204
3512013010,城佑耳鼻喉科診所,私立西醫診所,西醫專科診所,新竹市東區,(03) 5748329,新竹市東區建中路59號一樓,"耳鼻喉科,",24.8013015,120.9948372
3512010064,吳振福眼科診所,私立西醫診所,西醫專科診所,新竹市東區,03 5246718,新竹市東區中華路二段５１１號,"眼科,",24.8004467,120.969054
3512010091,慈幼小兒科,私立西醫診所,西醫專科診所,新竹市東區,03 5226633,新竹市東區中華路二段６６７號,"兒科,",24.7983785,120.9660734
3512010108,傅小兒科診所,私立西醫診所,西醫專科診所,新竹市東區,03 5231876,新竹市東區南門街８６號,"兒科,",24.8020114,120.9670978
3512010135,林啟銘內科小兒科診所,私立西醫診所,西醫專科診所,新竹市東區,03-5430822,新竹市東區三民里民權路71號1F,"內科,兒科,",24.8067119,120.975815
3512010144,楊進樑婦產科診所,私立西醫診所,西醫專科診所,新竹市東區,03 5238226,新竹市東區東門街６５號,"婦產科,",24.803865,120.971731
3512051181,健安診所,私立西醫診所,西醫醫務室,新竹市香山區,03-5388776,新竹市香山區大庄路七十二號,,24.7902671,120.927022
2312041028,新竹市北區衛生所,衛生所,衛生所,新竹市北區,03-5353969,新竹市北區國華街六十九號一樓,,24.8163689,120.9703093
2312050018,新竹市香山衛生所,衛生所,衛生所,新竹市香山區,(03) 5302603、5388109,新竹市香山區牛埔路428號,,24.7976451,120.942603
1112010519,財團法人馬偕紀念醫院新竹分院,醫療財團法人醫院,綜合醫院,新竹市東區,03-6119595,新竹市東區光復里光復路二段690號,"家庭醫學科,內科,外科,兒科,婦產科,骨科,神經科,神經外科,泌尿科,耳鼻喉科,眼科,皮膚科,精神科,復健科,麻醉科,放射診斷科,放射腫瘤科,解剖病理科,核子醫學科,急診醫學科,整形外科,口腔顎面外科,",24.800045,120.9906631
1112010528,國泰醫療財團法人新竹國泰綜合醫院,醫療財團法人醫院,綜合醫院,新竹市東區,03-5278999,新竹市東區福德里中華路二段六七八號及六七八號之一,"家庭醫學科,內科,外科,兒科,婦產科,骨科,神經科,神經外科,泌尿科,耳鼻喉科,眼科,皮膚科,復健科,麻醉科,放射診斷科,急診醫學科,整形外科,口腔顎面外科,",24.7920604,120.9933678
512040014,國軍新竹地區醫院附設民眾診療服務處,軍方醫院(民眾診療),綜合醫院,新竹市北區,03-5348181,新竹市北區武陵路3號,"家庭醫學科,內科,外科,兒科,婦產科,骨科,神經科,神經外科,泌尿科,耳鼻喉科,眼科,皮膚科,精神科,復健科,麻醉科,放射診斷科,解剖病理科,急診醫學科,",24.8154063,120.9623434
912040012,平和醫療社團法人和平醫院,醫療社團法人醫院,慢性醫院,新竹市北區,03-5260151,新竹市北區和平路86-1號,"內科,外科,泌尿科,復健科,",24.8088916,120.9556374
1512011185,南門綜合醫院,私立西醫醫院,綜合醫院,新竹市東區,03-5261122,新竹市東區成功里林森路20號,"家庭醫學科,內科,外科,兒科,婦產科,骨科,神經科,神經外科,泌尿科,耳鼻喉科,復健科,麻醉科,放射診斷科,急診醫學科,整形外科,",24.8021381,120.969653
1512040051,新中興醫院,私立西醫醫院,醫院,新竹市北區,03-5213163,新竹市北區興南街43號,"家庭醫學科,內科,外科,婦產科,",24.8018917,120.9628227
3512013384,謝承霖兒童診所,私立西醫診所,西醫專科診所,新竹市東區,03-5320520,新竹市東區三民里民族路60號,"家庭醫學科,兒科,耳鼻喉科,",24.806524,120.975722
3512013396,余鄭錦峰復健診所,私立西醫診所,西醫專科診所,新竹市東區,03-5223339,新竹市東區南門里南門街22號,"復健科,",24.8005266,120.9677249
3712012338,尊爵時尚牙醫診所,私立牙醫診所,牙醫一般診所,新竹市東區,03-5733699,新竹市東區豐功里建中路128號1樓及130號1樓,,24.802637,120.9959392
3712012348,清新牙醫診所,私立牙醫診所,牙醫診所,新竹市東區,03-5312252,新竹市東區南門里中華路二段501號1樓,,24.8008488,120.9697837
3812041494,恆康中醫診所,私立中醫診所,中醫診所,新竹市北區,03-5227771,新竹市北區客雅里延平路一段159巷34號1樓、2樓,,24.8034509,120.9563444
3812010014,聯樺中醫診所,私立中醫診所,中醫一般診所,新竹市東區,03-5748949,新竹市東區武功里建中一路10號,,24.800677,120.994093
3712041849,憲成牙醫診所,私立牙醫診所,牙醫一般診所,新竹市北區,03-5329480,新竹市北區光華里光華北街85之5號1樓,,24.8169786,120.9715266
3712012329,安徒生牙醫診所,私立牙醫診所,牙醫一般診所,新竹市東區,03-5749385,新竹市東區武功里建功一路87號,,24.7992247,120.997581
3812012117,仁濟中醫診所,私立中醫診所,中醫診所,新竹市東區,03-5726050,新竹市東區武功里建功一路91號1樓,,24.801639,120.995862
3812041510,嘉心堂中醫診所,私立中醫診所,中醫診所,新竹市北區,03-5353680,新竹市北區舊社里湳雅街176號,,24.8209927,120.9746672
3812041529,同安堂中醫診所,私立中醫診所,中醫診所,新竹市北區,03-5408683,新竹市北區武陵里武陵路92號,,24.8180022,120.9661841
3812012108,益元堂中醫診所,私立中醫診所,中醫診所,新竹市東區,03-5321890,新竹市東區親仁里文化街78號1樓,,24.8079272,120.9702136
3512013449,禾康耳鼻喉科診所,私立西醫診所,西醫診所,新竹市東區,03-5263358,新竹市東區南大里西大路142號1F,"耳鼻喉科,",24.7969272,120.9700917
3512042502,長福診所,私立西醫診所,西醫診所,新竹市北區,03-5268518,新竹市北區民富里經國路二段485號,,24.805818,120.9561861
3512013485,康德診所,私立西醫診所,西醫診所,新竹市東區,03-5788282、5788383,新竹市東區新莊里光復路一段362-2號,"家庭醫學科,精神科,",24.7841239,121.016608
3512013467,欣欣診所,私立西醫診所,西醫診所,新竹市東區,03-6663721,新竹市東區金山里光復路一段147號,,24.781282,121.0227
1412040022,財團法人台灣省私立桃園仁愛之家附設新竹新生醫院,公益法人附設醫院,醫院,新竹市北區,03-5223637,新竹市北區興南里西門街120號,"家庭醫學科,內科,外科,神經外科,精神科,麻醉科,",24.8015537,120.9634032
3712041876,馨典牙醫診所,私立牙醫診所,牙醫診所,新竹市北區,03-5251977,新竹市北區北門里民富街39號、41號,,24.8097908,120.9643251
3512051332,新美診所,私立西醫診所,西醫診所,新竹市香山區,03-5301548,新竹市香山區香山里大庄路106號,,24.7913798,120.9261103
3812041556,張菊元中醫診所,私立中醫診所,中醫診所,新竹市北區,03-5310022,新竹市北區光華里湳雅街136號,,24.8200041,120.973519
3512013510,宜暘診所,私立西醫診所,西醫診所,新竹市東區,03-5352850,新竹市東區復興里經國路一段343-1號1~2樓,"內科,",24.814439,120.981008
3712012400,禾一牙醫診所,私立牙醫診所,牙醫診所,新竹市東區,03-5611691,新竹市東區南大里西大路17號、19號1、2樓,,24.794413,120.972522
3512042520,陳志成耳鼻喉科診所,私立西醫診所,西醫診所,新竹市北區,03-5258626,新竹市北區民富里西大路619號,"兒科,耳鼻喉科,",24.8098486,120.9587551
3712012393,明威牙醫診所,私立牙醫診所,牙醫診所,新竹市東區,03-6667907,新竹市東區新莊里關新路19巷31號,,24.7845641,121.0177017
3512013494,松青診所,私立西醫診所,西醫診所,新竹市東區,03-5772636,新竹市東區新莊里長春街58號,"骨科,",24.7859551,121.014745
3812041565,樺葳中醫診所,私立中醫診所,中醫診所,新竹市北區,03-5356331,新竹市北區光田里水田街174號,,24.8157924,120.9685763
3712012384,安心牙醫診所,私立牙醫診所,牙醫診所,新竹市東區,03-5312378,新竹市東區復中里民生路246號1樓,,24.8124205,120.9754359
2312010014,新竹市東區衛生所,衛生所,衛生所,新竹市東區,03-5236174、5236158,新竹市東區民族路四○之二號,,24.7920604,120.9933678
3512010635,黃共榮小兒科診所,私立西醫診所,西醫專科診所,新竹市東區,03 5243128,新竹市東區武昌街１８號,"兒科,",24.8008318,120.9685315
3512010671,莊乾信內科小兒科診所,私立西醫診所,西醫專科診所,新竹市東區,03 5220525,新竹市東區大同路１４號１樓,"內科,兒科,",24.803067,120.970596
3512010948,洪振德內科診所,私立西醫診所,西醫專科診所,新竹市東區,03-5235597、5235522,新竹市東區南大路２８１號,"內科,",24.798406,120.9711442
3512010993,永美陳志閔診所,私立西醫診所,西醫專科診所,新竹市東區,03-5345677,新竹市東區三民里民族路134號,"泌尿科,",24.808147,120.9778017
3512011089,江皮膚科診所,私立西醫診所,西醫專科診所,新竹市東區,03-5250236,新竹市東區中正里東門街112號,"皮膚科,",24.8044177,120.9700186
3512040151,徐家庭醫學科診所,私立西醫診所,西醫專科診所,新竹市東區,03 5326369,新竹市東區北大路２８號,"家庭醫學科,",24.8130903,120.9731682
3512040375,信安內科小兒科診所,私立西醫診所,西醫專科診所,新竹市東區,03 5222588,新竹市東區西大路４３７號,"內科,兒科,",24.804101,120.963719
3512011132,彭耳鼻喉科診所,私立西醫診所,西醫專科診所,新竹市東區,03-5428888,新竹市東區中央路１９５號,"耳鼻喉科,",24.8086019,120.9736342
3512011178,美麗診所,私立西醫診所,西醫醫務室,新竹市東區,(03) 5358448,新竹市東區民權路36號1樓,,24.8064124,120.9765085
3512040973,保元診所,私立西醫診所,西醫醫務室,新竹市北區,03 5368297,新竹市北區延平路３段６８５號,,24.8406845,120.9365062
3512042137,望安診所,私立西醫診所,西醫醫務室,新竹市北區,03-5246779,新竹市北區延平路一段382號,,24.805224,120.9493969
3512042208,陳君毅小兒科診所,私立西醫診所,西醫專科診所,新竹市北區,03-5345705,新竹市北區磐石里西大路738號,"家庭醫學科,兒科,",24.8100751,120.959111
3512042244,祐庭耳鼻喉科診所,私立西醫診所,西醫專科診所,新竹市北區,(03)5351166,新竹市北區光華街99-1號1樓,"耳鼻喉科,",24.8180187,120.9719041
3512042342,常春復健科診所,私立西醫診所,西醫專科診所,新竹市北區,(03) 5255799,新竹市北區西門街146號1樓,"復健科,",24.8014469,120.9632008
3512050111,恩輝診所,私立西醫診所,西醫醫務室,新竹市香山區,03-5375573,新竹市香山區內湖路62號,,24.7439711,120.905677
3512013047,陳兆英內科心臟科診所,私立西醫診所,西醫專科診所,新竹市東區,(03) 5251066,新竹市東區中華路二段707號,"內科,",24.797806,120.9650082
3512013092,康復診所,私立西醫診所,西醫專科診所,新竹市東區,03-5727656,新竹市東區綠水里東光路17號,"神經科,",24.8017632,120.9868355
3512013145,成民內科診所,私立西醫診所,西醫診所,新竹市東區,03-5787556,新竹市東區科學園路5號2、3樓,"內科,",24.7837891,121.0104906
3512011276,安慎診所,私立西醫診所,西醫專科診所,新竹市東區,03-5359779,新竹市東區中央路128號,"內科,",24.8069698,120.9709025
3512011356,英慈耳鼻喉科診所,私立西醫診所,西醫專科診所,新竹市東區,03 5722846,新竹市東區立功里光復路二段308號,"耳鼻喉科,",24.7955864,120.9986416
3512011436,蘇釗人診所,私立西醫診所,西醫醫務室,新竹市東區,(03)5223375,新竹市東區東門街86號,,24.8043262,120.9718248
3512012513,呂外科診所,私立西醫診所,西醫專科診所,新竹市東區,5229941,新竹市東區中華路二段304號,"外科,",24.8036877,120.9739942
3512012737,陳志宏眼科診所,私立西醫診所,西醫專科診所,新竹市東區,03-5251469,新竹市東區東門街94號,"眼科,",24.804335,120.9716356
3512012773,林正弘小兒科診所,私立西醫診所,西醫專科診所,新竹市東區,03-5311905,新竹市東區光華東街十六號,"兒科,",24.8149863,120.974349
3512012933,羅啟華整形外科診所,私立西醫診所,西醫專科診所,新竹市東區,03-5351525,新竹市東區中央路356號,"整形外科,",24.8107939,120.9790972
3512010073,深潭耳鼻喉科診所,私立西醫診所,西醫專科診所,新竹市東區,03 5255233,新竹市東區中正路５７號地下一樓,"耳鼻喉科,",24.8039895,120.9708727
3512010126,林安復耳鼻喉科診所,私立西醫診所,西醫專科診所,新竹市東區,03-5355890,新竹市東區中華路二段一五九號,"耳鼻喉科,",24.8068364,120.9796617
3512051243,全興診所,私立西醫診所,西醫醫務室,新竹市香山區,0925-500156,新竹市香山區牛埔東路300號一樓,,24.795598,120.9424861
3812041387,一品堂中醫診所,私立中醫診所,中醫一般診所,新竹市北區,03-5262668,新竹市北區中華路三段十六號,,24.7970684,120.9630489
3812041421,醫心堂中醫診所,私立中醫診所,中醫一般診所,新竹市北區,03-5359565,新竹市北區水田街一四五號,,24.8164595,120.9687328
3812041476,林淑玲中醫診所,私立中醫診所,中醫診所,新竹市北區,03-5238648,新竹市北區竹光路149號,,24.812283,120.958611
3812051052,柏華中醫診所,私立中醫診所,中醫一般診所,新竹市香山區,03-5398968,新竹市香山區宮口街33巷13號1樓,,24.79221,120.922402
3812010220,羅清明中醫診所,私立中醫診所,中醫專科診所,新竹市東區,03-5240335,新竹市東區南門街８４號,,24.8019732,120.9671104
3812011450,常春中醫診所,私立中醫診所,中醫一般診所,新竹市東區,(03) 5627181,新竹市東區南大路362號,,24.798223,120.970198
3812011503,晉業中醫診所,私立中醫診所,中醫一般診所,新竹市東區,03-5633907,新竹市東區新莊街十三號一樓,,24.784689,121.015324
3512042539,新朝診所,私立西醫診所,西醫診所,新竹市北區,03-5261718,新竹市北區台溪里林森路299號,"內科,復健科,",24.7972015,120.9614481
3812011781,元安中醫診所,私立中醫診所,中醫一般診所,新竹市東區,03-5628567,新竹市東區食品路４４８號,,24.7938241,120.9671919
3812011923,上明中醫聯合診所,私立中醫診所,中醫一般診所,新竹市東區,03-5679099,新竹市東區關東里光復路一段266號,,24.782287,121.020532
3812011950,慶暉中醫診所,私立中醫診所,中醫一般診所,新竹市東區,03-5725007,新竹市東區頂竹里食品路181號,,24.7966337,120.9757614
3812012000,朱明添中醫診所,私立中醫診所,中醫一般診所,新竹市東區,03-5353853 (0939-339439),新竹市東區中央路264、266號,,24.809294,120.976569
3712040191,銘燦牙醫診所,私立牙醫診所,牙醫專科診所,新竹市北區,03-5322345,新竹市北區北大路１６0號一樓,,24.809942,120.967821
3712040235,琉璃光牙醫診所,私立牙醫診所,牙醫專科診所,新竹市北區,03-5222131,新竹市北區新民里北大路256號1樓,,24.807702,120.964164
3712040271,安定牙醫診所,私立牙醫診所,牙醫專科診所,新竹市北區,03-5314307,新竹市北區水田街１５號,,24.813047,120.965664
3712040315,光華牙醫診所,私立牙醫診所,牙醫一般診所,新竹市北區,03-5312420,新竹市北區光華一街60號,,24.817621,120.9732778
3712040511,康橋牙醫診所,私立牙醫診所,牙醫一般診所,新竹市北區,35339722,新竹市北區光華一街10號,,24.8159549,120.973861
3712040593,博暘牙醫診所,私立牙醫診所,牙醫一般診所,新竹市北區,03-5356805,新竹市北區中正路３８６號,,24.814655,120.962653
3712010228,大新牙醫診所,私立牙醫診所,牙醫一般診所,新竹市東區,03-5714371,新竹市東區光復路二段３８３號,,24.801191,120.985788
3712010264,銘仁牙醫診所,私立牙醫診所,牙醫專科診所,新竹市東區,03-5255238,新竹市東區林森路6號1樓及2樓,,24.8020921,120.970737
3712010424,惠群牙醫診所,私立牙醫診所,牙醫專科診所,新竹市東區,03-5250037,新竹市東區公園里南大路109號,,24.8012545,120.975616
3712010479,尖端牙醫診所,私立牙醫診所,牙醫專科診所,新竹市東區,03-5714800,新竹市東區光復路二段２７２號二樓,,24.7950755,120.9992187
3712010657,崇善牙醫診所,私立牙醫診所,牙醫專科診所,新竹市東區,03-5349447,新竹市東區復中里３鄰錦華街１４號２Ｆ,,24.8101472,120.9754429
3712010817,榮信牙醫診所,私立牙醫診所,牙醫一般診所,新竹市東區,03-5781122,新竹市東區光復路一段４７２號三樓之八,,24.7853052,121.0127673
3712012419,新美學牙醫診所,私立牙醫診所,牙醫診所,新竹市東區,03-6668610,新竹市東區新莊里關新路19巷5號,,24.7843945,121.0181282
3712041689,永川牙醫診所,私立牙醫診所,牙醫一般診所,新竹市北區,03-5326326,新竹市北區光華南街54之2號1樓,,24.8167604,120.9737437
3712041732,謝牙醫診所,私立牙醫診所,牙醫一般診所,新竹市北區,03-5439395,新竹市北區城北街一三九號,,24.812709,120.963026
3712041778,全家牙醫診所,私立牙醫診所,牙醫一般診所,新竹市北區,03-5409188,新竹市北區武陵里武陵路73巷6號,,24.8192642,120.9653542
3712041821,雅緻生活牙醫診所,私立牙醫診所,牙醫診所,新竹市北區,03-5356505,新竹市北區光田里水田街51號1樓、2樓,,24.8152381,120.966801
3712050053,朝春牙醫診所,私立牙醫診所,牙醫一般診所,新竹市香山區,03 5377103,新竹市香山區內湖路49號,,24.7438397,120.9061003
3712010979,佳新牙醫診所,私立牙醫診所,牙醫一般診所,新竹市東區,03-5633346,新竹市東區新莊街八十一號,,24.78604,121.015657
3712012044,美日牙醫診所,私立牙醫診所,牙醫一般診所,新竹市東區,03-5232502,新竹市東區東門街二十三、二十五號一、二、三樓,,24.8041744,120.9710059
3712012106,德陞牙醫診所,私立牙醫診所,牙醫一般診所,新竹市東區,03-5636611,新竹市東區光復路一段五○七號一樓,,24.7920604,120.9933678
3712012231,達觀牙醫診所,私立牙醫診所,牙醫一般診所,新竹市東區,(03) 5265589,新竹市東區大同路７－１號二樓,,24.8025458,120.9709685
3712012428,朱育正牙醫診所,私立牙醫診所,牙醫診所,新竹市東區,03-5436999,新竹市東區復中里中央路219號1~2樓,,24.8088616,120.974099
3812012135,康德中醫診所,私立中醫診所,中醫診所,新竹市東區,03-5788282、5788383,新竹市東區新莊里光復路一段362-2號,,24.7841239,121.016608
3712012357,意康牙醫診所,私立牙醫診所,牙醫診所,新竹市東區,03-6663232,新竹市東區仙水里光復路一段331-2號,,24.7828546,121.0183089
3712041867,九歌牙醫診所,私立牙醫診所,牙醫診所,新竹市北區,03-5341616,新竹市北區武陵里東大路2段188號,,24.816761,120.965258
3812012153,和杏中醫診所,私立中醫診所,中醫診所,新竹市東區,03-5679102,新竹市東區科園里光復路一段561號,,24.7853679,121.0120935
3512013547,力晶診所,私立西醫診所,西醫診所,新竹市東區,03-5795000#2386,新竹市東區科園里科學園區力行一路18號,"內科,",24.7807887,121.0077058
3712012437,京典牙醫診所,私立牙醫診所,牙醫診所,新竹市東區,03-6663888,新竹市東區金山里金山11街21號1樓,,24.7782106,121.0202126
3512013565,億安診所,私立西醫診所,西醫診所,新竹市東區,03-5353256,新竹市東區三民里民族路112號,"家庭醫學科,神經科,",24.8077194,120.977124
3512013556,愛生美皮膚科診所,私立西醫診所,西醫診所,新竹市東區,03-5335035,新竹市東區復中里民權路177號,"皮膚科,",24.809507,120.9739524
3512013574,晶亮眼科診所,私立西醫診所,西醫診所,新竹市東區,03-5730688,新竹市東區豐功里建功一路166號1～3樓,"眼科,",24.8014636,120.9967231
3712041885,創美牙醫診所,私立牙醫診所,牙醫診所,新竹市北區,03-5285335,新竹市北區客雅里經國路二段543號,,24.8038108,120.9553444
412040012,國立臺灣大學醫學院附設醫院新竹分院,公立醫學院校附設醫院,綜合醫院,新竹市北區,03-5326151,新竹市北區金華里經國路一段442巷25號,"家庭醫學科,內科,外科,兒科,婦產科,骨科,神經科,神經外科,泌尿科,耳鼻喉科,眼科,皮膚科,精神科,復健科,麻醉科,放射診斷科,放射腫瘤科,解剖病理科,臨床病理科,核子醫學科,急診醫學科,整形外科,職業醫學科,齒顎矯正科,口腔顎面外科,",24.8164788,120.9795126
3712041894,經典牙醫診所,私立牙醫診所,牙醫診所,新竹市北區,03-5366111,新竹市北區海濱里西濱路一段345號,,24.8384256,120.9301699
3512051350,德康診所,私立西醫診所,西醫診所,新竹市香山區,03-5181020,新竹市香山區內湖里內湖路47號,,24.7438982,120.9060976
3512013592,員康診所,私立西醫診所,西醫診所,新竹市東區,03-6667577,新竹市東區科園里科學工業園區力行六路8號,"神經科,",24.7730433,121.0128003
3812012171,大同中醫診所,私立中醫診所,中醫診所,新竹市東區,03-5335185,新竹市東區三民里民族路255號,,24.8109268,120.9816735
3712012464,關新牙醫診所,私立牙醫診所,牙醫診所,新竹市東區,03-5770607,新竹市東區新莊里關新東路356號,,24.7863345,121.0204662
3712012455,育賢牙醫診所,私立牙醫診所,牙醫診所,新竹市東區,03-5621717,新竹市東區光鎮里南大路830號,,24.7882814,120.9669988
3712012482,金牛頓牙醫診所,私立牙醫診所,牙醫診所,新竹市東區,03-5733896,新竹市東區豐功里建功一路176號、178號,,24.801786,120.9963767
3512013654,佳醫診所,私立西醫診所,西醫診所,新竹市東區,03-5239866,新竹市東區福德里中華路2段704號,"家庭醫學科,",24.7978429,120.9646307
3512013645,謝德貴兒童診所,私立西醫診所,西醫診所,新竹市東區,03-6686666,新竹市東區新莊里光復路一段360之2號,"兒科,",24.783554,121.0171048
3512013636,宏偉婦產科診所,私立西醫診所,西醫診所,新竹市東區,03-5330733,新竹市東區錦華里民生路287號,"婦產科,",24.8133978,120.9743792
3712012491,森源牙醫診所,私立牙醫診所,牙醫診所,新竹市東區,03-5728088,新竹市東區綠水里光復路二段261號1、2樓,,24.799853,120.9904527
3512042557,廖文瑜皮膚科診所,私立西醫診所,西醫診所,新竹市北區,03-5223855,新竹市北區客雅里延平路一段165號,"皮膚科,",24.8044721,120.956257
3812012199,恩慈經典中醫診所,私立中醫診所,中醫診所,新竹市東區,03-6661236,新竹市東區新莊里光復路一段360之15號1、2樓,,24.7809747,121.0260076
3812041583,惠生中醫診所,私立中醫診所,中醫診所,新竹市北區,03-5250905,新竹市北區客雅里北新街125號1樓,,24.8032558,120.9558227
3512013663,雅得麗生活診所,私立西醫診所,西醫診所,新竹市東區,03-5251159,新竹市東區榮光里民族路31號3樓,"家庭醫學科,",24.803922,120.97196
3512013672,飛揚診所,私立西醫診所,西醫診所,新竹市東區,03-5790522,新竹市東區新莊里關新路207號,,24.787615,121.0198236
3512013681,新竹科學工業園區員工診所,私立西醫診所,西醫診所,新竹市東區,03-6669996#28,新竹市東區科園里工業東二路2號,"家庭醫學科,",24.7805801,121.00482
3512042584,林正凱好孕診所,私立西醫診所,西醫診所,新竹市北區,35235000,新竹市北區中正路169號3-5樓,"婦產科,",24.8095221,120.966075
3812041592,萬安內科痔科中醫診所,私立中醫診所,中醫診所,新竹市北區,35235190,新竹市北區城北街8號,,24.8090066,120.9648897
3512042575,舜天診所,私立西醫診所,西醫診所,新竹市北區,,新竹市北區竹光路163號,"家庭醫學科,外科,",24.812092,120.958372
3512042600,林敬堯親子診所,私立西醫診所,西醫診所,新竹市北區,03-5350123,新竹市北區光華里湳雅街120號,"兒科,",24.819658,120.973126
3512042593,杏慈婦產科診所,私立西醫診所,西醫診所,新竹市北區,03-5232458,新竹市北區客雅里經國路二段541號1樓,"婦產科,",24.8045979,120.955557
3512042619,維君診所,私立西醫診所,西醫診所,新竹市北區,03-5325706,新竹市北區水田里東大路二段1號5樓之3,,24.8234261,120.957738
3512013716,健新耳鼻喉科診所,私立西醫診所,西醫診所,新竹市東區,03-5720995,新竹市東區軍功里建新路20號1樓,"耳鼻喉科,",24.797975,120.996647
3712012508,全球牙醫診所,私立牙醫診所,牙醫診所,新竹市東區,03-5620119,新竹市東區南大路586號,,24.7939942,120.9636746
3512042628,泰安診所,私立西醫診所,西醫診所,新竹市北區,03-6106789,新竹市北區北大路282號8樓,,24.8072222,120.9637724
3512042646,麗明眼科診所,私立西醫診所,西醫診所,新竹市北區,03-5255185,新竹市北區客雅里經國路二段539號,"眼科,",24.8045963,120.9555564
3712012517,詠美牙醫診所,私立牙醫診所,牙醫診所,新竹市東區,03-5351153,新竹市東區東園里鐵道路一段20號,,24.8117185,120.9843429
3812012215,蔡宗璟中醫診所,私立中醫診所,中醫診所,新竹市東區,03-5233618,新竹市東區中正里中正路72號1樓,,24.805213,120.970007
3512013734,綺色佳診所,私立西醫診所,西醫診所,新竹市東區,03-5351315,新竹市東區中央路128號2樓,"皮膚科,",24.8069698,120.9709025
3812012224,李思慧中醫診所,私立中醫診所,中醫診所,新竹市東區,03-5786169,新竹市東區關東里光復路一段256號,,24.782229,121.020767
3512042655,祥安診所,私立西醫診所,西醫診所,新竹市北區,03-5409178,新竹市北區武陵路73巷22號1樓,,24.8191456,120.9652058
3512013743,韓風診所,私立西醫診所,西醫診所,新竹市東區,03-5286666,新竹市東區林森路2號3樓,,24.802075,120.970845
3712012526,峰皇牙醫診所,私立牙醫診所,牙醫診所,新竹市東區,03-5243666,新竹市東區榮光里東門街29、31號,,24.8041254,120.9735323
3512013761,上水透析診所,私立西醫診所,西醫診所,新竹市東區,03-5251855,新竹市東區關帝里武昌街51號4樓、5樓,"內科,",24.801768,120.9679606
3812041609,德和堂陳刁隆中醫診所,私立中醫診所,中醫診所,新竹市北區,03-5224855,新竹市北區中山里北門街12號,,24.8053859,120.9661615
3712012544,品御牙醫診所,私立牙醫診所,牙醫診所,新竹市東區,03-5725557,新竹市東區東園里八德路162號1樓,,24.8033381,120.984225
3512042664,宏仁診所,私立西醫診所,西醫診所,新竹市北區,03-5229797,新竹市北區台溪里林森路297號2～3樓　,"內科,",24.7972014,120.9614479
3812012242,新竹悠美中醫診所,私立中醫診所,中醫診所,新竹市東區,03-5331068,新竹市東區親仁里東大路一段123之1號,,24.8078411,120.9721239
3512013770,靚世紀診所,私立西醫診所,西醫診所,新竹市東區,03-5342266,新竹市東區復興里自由路73號,,24.8133984,120.9805503
3512013789,新竹悠美診所,私立西醫診所,西醫診所,新竹市東區,03-5331068,新竹市東區親仁里東大路一段123之1號,,24.8078411,120.9721239
3512013798,林亮辰皮膚專科診所,私立西醫診所,西醫診所,新竹市東區,-3,新竹市東區三民里民族路89號1樓,"皮膚科,",24.8074046,120.9762165
3512013805,陽光診所,私立西醫診所,西醫診所,新竹市東區,03-6662028,新竹市東區新莊里光復路一段360之5號1及2樓,"耳鼻喉科,",24.7808773,121.0263253
3812012260,新桐中醫診所,私立中醫診所,中醫診所,新竹市東區,03-5355152,新竹市東區三民里民族路37號1樓,,24.8062469,120.973987
3812041618,厚生中醫診所,私立中醫診所,中醫診所,新竹市北區,-3,新竹市北區西門里中山路140號,,24.8042075,120.9645746
3812012279,騏佑中醫診所,私立中醫診所,中醫診所,新竹市東區,5612333,新竹市東區南大里西大路69號,,24.795785,120.971141
3512013814,威爾診所,私立西醫診所,西醫診所,新竹市東區,03-5799577,新竹市東區新莊里關新路27號2樓之6,,24.7847633,121.0182392
3512013823,艾美時尚診所,私立西醫診所,西醫診所,新竹市東區,,新竹市東區新莊里光復路一段360之12號1～2樓,,24.7837142,121.0171933
3512013850,安禾診所,私立西醫診所,西醫診所,新竹市東區,03-5353336,新竹市東區復興里經國路一段379巷8號1、3樓,"復健科,",24.8149891,120.979354
3812012288,長青中醫診所,私立中醫診所,中醫診所,新竹市東區,03-5281618,新竹市東區中正里中正路95號1樓,,24.805553,120.969103
3712012553,紐約牙醫診所,私立牙醫診所,牙醫診所,新竹市東區,03-5152206,新竹市東區文華里民生路309號2F,,24.8138382,120.9742312
3712041929,里昂哈佛國際牙醫診所,私立牙醫診所,牙醫診所,新竹市北區,03-5256030,新竹市北區北門里北大路192號,,24.808816,120.966105
3512013832,愛爾麗診所,私立西醫診所,西醫診所,新竹市東區,03-5229777,新竹市東區榮光里東門街33號1～2樓,,24.8041257,120.973391
3512042717,媚登峰新竹診所,私立西醫診所,西醫診所,新竹市北區,953957786,新竹市北區水田里水田街12號1樓,,24.8113599,120.965347
3712041938,彼德潘牙醫診所,私立牙醫診所,牙醫診所,新竹市北區,03-5408285,新竹市北區武陵里武陵路82號1樓,,24.8178626,120.9660147
3512051369,元培健康診所,私立西醫診所,西醫診所,新竹市香山區,03-6102249,新竹市香山區香村里元培街 306號,,24.7777953,120.9404076
3512042735,水天使診所,私立西醫診所,西醫診所,新竹市北區,03-5255588,新竹市北區育英里四維路62巷1號2樓之1 ,"內科,",24.8008003,120.9605457
3812041636,常榮中醫診所,私立中醫診所,中醫診所,新竹市北區,03-5262080,新竹市北區育英里中山路273號1樓,,24.801331,120.960846
3712012571,晶華牙醫診所,私立牙醫診所,牙醫診所,新竹市東區,03-5779577,新竹市東區科園里科學園區力行六路8號3樓317C室,,24.7730433,121.0128003
3512013869,安新診所,私立西醫診所,西醫診所,新竹市東區,03-5353656,新竹市東區復興里經國路一段379巷8號1、2、4樓,"內科,",24.8143182,120.9790309
3712012580,宏揚牙醫診所,私立牙醫診所,牙醫診所,新竹市東區,03-5710189,新竹市東區豐功里建中一路25-1號1樓,"口腔顎面外科,",24.8008585,120.993384
3512042744,世奕診所,私立西醫診所,西醫診所,新竹市北區,03-5261234,新竹市北區南勢里延平路一段473號,"家庭醫學科,",24.8049872,120.9460939
3512042753,民安診所,私立西醫診所,西醫診所,新竹市北區,03-5268555,新竹市北區新民里北大路282號7樓,,24.8072222,120.9637724
3712012599,君悅牙醫診所,私立牙醫診所,牙醫診所,新竹市東區,03-5787088,新竹市東區科園里光復路一段563號1、2樓,,24.7808773,121.0263253
3512042762,和泰耳鼻喉科診所,私立西醫診所,西醫診所,新竹市北區,03-5245820,新竹市北區崇禮里中山路296巷1號1樓,"耳鼻喉科,",24.8063792,120.9685416
3512013896,聖宜診所,私立西醫診所,西醫診所,新竹市東區,03-5280858,新竹市東區榮光里中華路二段456號1-4樓,,24.8015199,120.9708153
3512013887,上允耳鼻喉科診所,私立西醫診所,西醫診所,新竹市東區,03-5777749,新竹市東區新莊里光復路一段360之13號1-2F,"耳鼻喉科,",24.780942,121.026361
3812012297,京都堂中醫診所,私立中醫診所,中醫診所,新竹市東區,03-5256000,新竹市東區榮光里林森路2號2樓,,24.802075,120.970845
3512042771,亞洲極緻美學診所,私立西醫診所,西醫診所,新竹市北區,03-5310306,新竹市北區光華里光華街57號1樓,,24.815915,120.97217
3712012606,寶傑美學牙醫診所,私立牙醫診所,牙醫診所,新竹市東區,03-5280377,新竹市東區福德里中華路二段702號1～2樓,,24.7978683,120.9646711
