機構代碼,機構名稱,權屬別,型態別,縣市鄉鎮,電話,地址,診療科別,經度,緯度
3711071209,一品牙醫診所,私立牙醫診所,牙醫一般診所,基隆市信義區,(02)24237060,基隆市信義區義九路一號,,25.128526,121.756127
3711071218,仁心牙醫診所,私立牙醫診所,牙醫一般診所,基隆市信義區,(02)24235814,基隆市信義區信二路九十九之一號一樓,,25.1295058,121.7523696
3711071236,德安牙醫診所,私立牙醫診所,牙醫一般診所,基隆市信義區,(02)24275975,基隆市信義區義七路26巷1-4號,,25.1290417,121.7528901
3711071245,兆康牙醫診所,私立牙醫診所,牙醫診所,基隆市信義區,(02)24658798,基隆市信義區東信路78號,,25.1276627,121.7673562
3711040044,連牙醫診所,私立牙醫診所,牙醫一般診所,基隆市仁愛區,(02)24226000,基隆市仁愛區孝一路二十六號五樓,,25.128838,121.740455
3711040099,安生牙醫診所,私立牙醫診所,牙醫一般診所,基隆市仁愛區,02 4235130,基隆市仁愛區仁五路六號二樓,,25.1272009,121.741507
3711040151,良仁牙醫診所,私立牙醫診所,牙醫一般診所,基隆市仁愛區,02 4245588,基隆市仁愛區愛四路６８號２Ｆ,,25.129362,121.74457
3711040231,柏齡牙醫診所,私立牙醫診所,牙醫一般診所,基隆市仁愛區,(02)24240899,基隆市仁愛區孝一路５５號２Ｆ,,25.130086,121.741129
3711040259,安泰牙醫診所,私立牙醫診所,牙醫一般診所,基隆市仁愛區,02 4291828,基隆市仁愛區愛三路１４號,,25.1272943,121.742138
3711040295,許勝棋牙醫診所,私立牙醫診所,牙醫一般診所,基隆市仁愛區,(02)24227148,基隆市仁愛區孝三路８２號２Ｆ,,25.130778,121.74001
3711040357,超群牙醫診所,私立牙醫診所,牙醫一般診所,基隆市仁愛區,02 4263863,基隆市仁愛區南榮路三號二樓,,25.1270869,121.7421652
3711041416,滕起民牙醫診所,私立牙醫診所,牙醫一般診所,基隆市仁愛區,(02)24291123,基隆市仁愛區仁三路13號2樓 (診所使用範圍2F~3F),,25.12795,121.743871
3711041425,駱明德牙醫診所,私立牙醫診所,牙醫診所,基隆市仁愛區,(02)24245190,基隆市仁愛區仁二路208號之1(2F),,25.1289624,121.7445305
3711041434,國泰牙醫診所,私立牙醫診所,牙醫一般診所,基隆市仁愛區,(02)24282866,基隆市仁愛區仁二路91號,,25.127476,121.748787
3711041443,承成牙醫診所,私立牙醫診所,牙醫一般診所,基隆市仁愛區,(02)24291493,基隆市仁愛區仁一路277號4樓,,25.1283599,121.747361
3711041452,光華牙醫診所,私立牙醫診所,牙醫一般診所,基隆市仁愛區,(02)24339461,基隆市仁愛區成功一路119號及121號1樓,,25.1187161,121.7451927
3711041489,成美牙醫診所,私立牙醫診所,牙醫一般診所,基隆市仁愛區,2422-1123,基隆市仁愛區仁四路14號,,25.1276573,121.7426912
3711041498,其筠牙醫診所,私立牙醫診所,牙醫診所,基隆市仁愛區,24237890,基隆市仁愛區南新街57號,,25.1237663,121.7438201
3711050013,日榮牙科診所,私立牙醫診所,牙醫一般診所,基隆市中山區,(02)24287294,基隆市中山區安一路６號,,25.131632,121.737469
3711050040,北大牙醫診所,私立牙醫診所,牙醫一般診所,基隆市中山區,(02)24267824,基隆市中山區復旦路１７-４號,,25.145757,121.739054
3711050059,協和牙醫診所,私立牙醫診所,牙醫一般診所,基隆市中山區,(02)24257113,基隆市中山區中華路５９號,,25.1463869,121.73838
3711050095,許牙科診所,私立牙醫診所,牙醫一般診所,基隆市中山區,(02)24224872,基隆市中山區西定路３６號,,25.1323241,121.735532
3711050102,隆源牙科診所,私立牙醫診所,牙醫一般診所,基隆市中山區,(02)24283858,基隆市中山區西定路７號,,25.1319729,121.7352467
3711050111,德和牙醫診所,私立牙醫診所,牙醫一般診所,基隆市中山區,(02)24220496,基隆市中山區西定路４４３號,,25.1402259,121.728079
3711050120,中山牙醫診所,私立牙醫診所,牙醫一般診所,基隆市中山區,(02)24250430,基隆市中山區中山一路19號,,25.130326,121.736783
3711050148,展望牙醫診所,私立牙醫診所,牙醫一般診所,基隆市中山區,(02)24234106,基隆市中山區安一路二號二樓,,25.1315238,121.7375283
3711050166,金華牙醫診所,私立牙醫診所,牙醫一般診所,基隆市中山區,(02)24223647,基隆市中山區中山二路６５巷７號,,25.138131,121.740192
3711050175,永吉牙醫診所,私立牙醫診所,牙醫一般診所,基隆市中山區,(02)24367767,基隆市中山區復興路一百八十五號,,25.146184,121.72621
3711051261,禾安牙醫診所,私立牙醫診所,牙醫診所,基隆市中山區,(02)24225327,基隆市中山區西定路153號2樓,,25.1347889,121.734108
3711060108,宏福牙醫診所,私立牙醫診所,牙醫一般診所,基隆市安樂區,(02)24325085,基隆市安樂區安樂路二段１４５號,,25.1213139,121.724197
3711060162,欣隆牙醫診所,私立牙醫診所,牙醫一般診所,基隆市安樂區,(02)24335151,基隆市安樂區麥金路197號2樓,,25.121285,121.7214144
3711060171,亞德牙醫診所,私立牙醫診所,牙醫一般診所,基隆市安樂區,(02)24311000,基隆市安樂區樂利三街二巷九號,,25.1291756,121.7196298
3711061187,健翔牙醫診所,私立牙醫診所,牙醫一般診所,基隆市安樂區,(02)24301867,基隆市安樂區武嶺街八十九號,,25.1399493,121.7109738
3711070122,新大牙醫診所,私立牙醫診所,牙醫一般診所,基隆市信義區,(02)24653846,基隆市信義區東明路１５９－１號一樓,,25.127724,121.760148
3711070159,優美牙醫診所,私立牙醫診所,牙醫一般診所,基隆市信義區,(02)24656636,基隆市信義區東信路１８８號,,25.1283564,121.7637027
3711070168,金石牙醫診所,私立牙醫診所,牙醫一般診所,基隆市信義區,(02)24225020,基隆市信義區信二路二十四之三號,,25.1295058,121.7523696
3711010037,謝牙醫診所,私立牙醫診所,牙醫一般診所,基隆市中正區,(02)24239289,基隆市中正區義二路６６號二樓,,25.1318141,121.7460267
3711010055,蘇牙科診所,私立牙醫診所,牙醫一般診所,基隆市中正區,(02)24626886,基隆市中正區中正路２１５號,,25.1433423,121.7611463
3711010064,資生堂牙醫診所,私立牙醫診所,牙醫一般診所,基隆市中正區,(02)24260800,基隆市中正區義二路84號1樓,,25.1321666,121.7462582
3711010091,勝斌牙醫診所,私立牙醫診所,牙醫一般診所,基隆市中正區,(02)24691338,基隆市中正區八斗街１號,,25.1401202,121.7961794
3711010108,新雅牙醫診所,私立牙醫診所,牙醫一般診所,基隆市中正區,(02)24620128,基隆市中正區祥豐街１１號,,25.1417352,121.7609355
3711010144,達美牙醫診所,私立牙醫診所,牙醫一般診所,基隆市中正區,(02)24236316,基隆市中正區義二路８３號２Ｆ,,25.1324236,121.7461911
3711010171,佳暉牙醫診所,私立牙醫診所,牙醫一般診所,基隆市中正區,(02)24622891,基隆市中正區祥豐街１００號,,25.142416,121.7647149
3711010199,新光牙醫診所,私立牙醫診所,牙醫一般診所,基隆市中正區,(02)24292205,基隆市中正區義二路164號之1、正義路29巷11號之4,,25.1340133,121.747467
3711011267,鼎泰牙醫診所,私立牙醫診所,牙醫一般診所,基隆市安樂區,(02)34012999,基隆市安樂區基金一路202號1樓,,25.1417193,121.7102307
3711011285,新豐牙醫診所,私立牙醫診所,牙醫診所,基隆市中正區,(02)24690701,基隆市中正區新豐街323巷19號,,25.1352279,121.7863792
3711020024,楊牙醫診所,私立牙醫診所,牙醫一般診所,基隆市七堵區,02 4567638,基隆市七堵區明德一路186-1號1樓,,25.0975169,121.7131496
3711020033,永生牙醫診所,私立牙醫診所,牙醫一般診所,基隆市七堵區,(02)24562425,基隆市七堵區南興路６６?５號２Ｆ,,25.0969568,121.7133258
3711020060,永全牙醫診所,私立牙醫診所,牙醫一般診所,基隆市七堵區,(02)24563889,基隆市七堵區明德一路１３４號,,25.098511,121.715647
3711020131,百福牙醫診所,私立牙醫診所,牙醫一般診所,基隆市七堵區,(02)24514436,基隆市七堵區福二街２４２巷２號,,25.0844603,121.6962663
3711020168,益生牙醫診所,私立牙醫診所,牙醫一般診所,基隆市七堵區,(02)24561227,基隆市七堵區自治北街十五號,,25.097563,121.712098
3711021174,立仁牙醫診所,私立牙醫診所,牙醫一般診所,基隆市七堵區,(02)24569558,基隆市七堵區開元路七十一號,,25.0959616,121.7134226
3711030011,長春牙醫診所,私立牙醫診所,牙醫一般診所,基隆市暖暖區,(02)24576083,基隆市暖暖區源遠路２２７號,,25.0986797,121.7537821
3711031063,正榮牙醫診所,私立牙醫診所,牙醫一般診所,基隆市暖暖區,(02)24572026,基隆市暖暖區暖暖街215號,,25.0985652,121.7352005
3711040017,慶壽牙科診所,私立牙醫診所,牙醫一般診所,基隆市仁愛區,02 4236435,基隆市仁愛區劉銘傳路４１號,,25.1269541,121.7510218
3711040026,永年牙科診所,私立牙醫診所,牙醫一般診所,基隆市仁愛區,(02)4261706,基隆市仁愛區孝三路３１號,,25.129298,121.738531
3811011349,邵秉家中醫診所,私立中醫診所,中醫一般診所,基隆市中正區,(02)24277296,基隆市中正區義一路十五號一樓,,25.132564,121.7452569
3811011394,天仁中醫診所,私立中醫診所,中醫診所,基隆市中正區,(02)24232055,基隆市中正區信一路159巷6號(1F),,25.130226,121.746124
3811020035,阿蔓中醫診所,私立中醫診所,中醫一般診所,基隆市七堵區,(02)24566859,基隆市七堵區崇智街１０號,,25.0983712,121.7143422
3811020044,佳緣中醫診所,私立中醫診所,中醫一般診所,基隆市七堵區,(02)24568827,基隆市七堵區明德一路６１號,,25.0985636,121.7165451
3811021176,蓁禾中醫診所,私立中醫診所,中醫一般診所,基隆市七堵區,(02)24523998,基隆市七堵區福一街127號,,25.0839284,121.6946752
3811021185,鈺峰中醫診所,私立中醫診所,中醫診所,基隆市七堵區,(02)24529191,基隆市七堵區百三街106號 (1F),,25.0817861,121.6973995
3811030013,華碇中醫診所,私立中醫診所,中醫一般診所,基隆市暖暖區,(02)24591541,基隆市暖暖區源遠路二二三號,,25.0987465,121.753907
3811030022,佛生中醫診所,私立中醫診所,中醫一般診所,基隆市暖暖區,2458-6006,基隆市暖暖區暖暖街八十九號一樓,,25.1019146,121.7383352
3811040019,一元堂中醫診所,私立中醫診所,中醫一般診所,基隆市仁愛區,(02)24338790,基隆市仁愛區成功一路一百二十五號,,25.1277946,121.7366431
3811040073,聯合中醫診所,私立中醫診所,中醫一般診所,基隆市仁愛區,(02)24282669,基隆市仁愛區孝二路１０號,,25.1280679,121.739233
3811040144,良德堂中醫診所,私立中醫診所,中醫一般診所,基隆市仁愛區,02 4274987,基隆市仁愛區南榮路２９號１Ｆ，２Ｆ,,25.1268044,121.7426173
3811041356,李金澤中醫診所,私立中醫診所,中醫診所,基隆市仁愛區,(02)24220707,基隆市仁愛區愛一路26號2樓,,25.1290719,121.7413643
3811041365,逍遙中醫診所,私立中醫診所,中醫一般診所,基隆市仁愛區,(02)24221200,基隆市仁愛區忠二路55-2號,,25.130548,121.739007
3811051101,明觀現代科學中醫診所,私立中醫診所,中醫一般診所,基隆市中山區,(02)24216166,基隆市中山區西定路一五八號,,25.135061,121.734264
3811060039,同德中醫診所,私立中醫診所,中醫診所,基隆市安樂區,(02)24337719,基隆市安樂區基金一路131之23號 (1F),,25.1399289,121.7124826
3811071158,廣安中醫診所,私立中醫診所,中醫診所,基隆市信義區,(02)24256098,基隆市信義區義七路26巷4號,,25.1288943,121.7530914
3811010084,慈恩中醫診所,私立中醫診所,中醫一般診所,基隆市中正區,(02)24601880,基隆市中正區新豐街五○六號,,25.1354743,121.7849779
3811010100,陳字斌中醫診所,私立中醫診所,中醫一般診所,基隆市中正區,(02)24283080,基隆市中正區義二路１３３號,,25.1336426,121.7470205
3511050215,蔡敬山診所,私立西醫診所,西醫專科診所,基隆市中山區,(02)24246155,基隆市中山區西定路４１號１樓,"內科,",25.1327212,121.7352081
3511050224,李筱隆耳鼻喉科診所,私立西醫診所,西醫專科診所,基隆市中山區,902)24254198,基隆市中山區安一路六十三號,"耳鼻喉科,",25.1314575,121.7361644
3511050297,何朝榮診所,私立西醫診所,西醫醫務室,基隆市中山區,(02)24374420,基隆市中山區復興路一百七十六號,"兒科,",25.145328,121.726895
3511050313,親親診所,私立西醫診所,西醫醫務室,基隆市中山區,(02)24374880,基隆市中山區復興路一百七十九號,,25.14573,121.726426
3511050359,春安診所,私立西醫診所,西醫醫務室,基隆市中山區,(02)24371950,基隆市中山區中和路一六八巷五弄十四號,"家庭醫學科,",25.1495892,121.7169899
3511050368,林文毅婦產科診所,私立西醫診所,西醫專科診所,基隆市中山區,(02)24288818,基隆市中山區安一路27號 (1F、2F),"婦產科,",25.1314353,121.7369533
3511051427,復興診所,私立西醫診所,西醫醫務室,基隆市中山區,(02)24378911,基隆市中山區復興路一二五號,,25.145365,121.72631
3511051454,仁傑小兒專科診所,私立西醫診所,西醫專科診所,基隆市中山區,(02)24254123,基隆市中山區安一路49號,"兒科,",25.131255,121.736479
3511051481,聖德診所,私立西醫診所,西醫醫務室,基隆市中山區,(02)24293939,基隆市中山區西定路411號,"家庭醫學科,",25.139235,121.729151
3511051490,張春雄診所,私立西醫診所,西醫醫務室,基隆市中山區,(02)24263358,基隆市中山區中山二路59號,,25.1381358,121.7404224
3511051507,安定診所,私立西醫診所,西醫診所,基隆市中山區,(02)24213279,基隆市中山區安一路90號,"家庭醫學科,兒科,",25.131685,121.735749
3511060159,李卓為診所,私立西醫診所,西醫專科診所,基隆市安樂區,(02)24332900,基隆市安樂區基金一路一三三之五號一樓,"內科,",25.1402859,121.7114471
3511060202,濟仁診所,私立西醫診所,西醫醫務室,基隆市安樂區,(02)24333416,基隆市安樂區基金一路１３１之１９號,,25.1400746,121.7122285
3511061307,永安診所,私立西醫診所,西醫醫務室,基隆市安樂區,(02)24259947,基隆市安樂區安一路101號,,25.131792,121.734894
3511061343,泓翔耳鼻喉科診所,私立西醫診所,西醫醫務室,基隆市安樂區,(02)24301268,基隆市安樂區基金一路206之2號(1F),"耳鼻喉科,",25.1417724,121.7076996
3511070048,仁恩診所,私立西醫診所,西醫醫務室,基隆市信義區,(02)24656136,基隆市信義區東信路６９號,,25.1276744,121.7653853
3511070066,洪瑞麟診所,私立西醫診所,西醫醫務室,基隆市信義區,(02)24651581,基隆市信義區東明路９８號,,25.1278543,121.7603095
3511070182,王式鴻診所,私立西醫診所,西醫醫務室,基隆市信義區,(02)24665050,基隆市信義區東信路304號,,25.1286791,121.760836
3511070191,黃振國診所,私立西醫診所,西醫醫務室,基隆市信義區,(02)24669255,基隆市信義區東信路二百一十八號,,25.1281679,121.762853
3511070217,譚景文婦產科診所,私立西醫診所,西醫專科診所,基隆市信義區,(02)24242688,基隆市信義區信二路267號1、2樓,"婦產科,",25.1302619,121.7475398
3511071232,康美耳鼻喉科診所,私立西醫診所,西醫專科診所,基隆市信義區,(02)24666572,基隆市信義區深溪路139號1樓. 2樓後半段. 3樓,"耳鼻喉科,",25.1345569,121.7825216
3511040308,何宗斌診所,私立西醫診所,西醫醫務室,基隆市仁愛區,02 4266296,基隆市仁愛區南榮路一百八十五號一樓,,25.1237354,121.7430387
3511040326,游興讓婦產科診所,私立西醫診所,西醫醫務室,基隆市仁愛區,(02)24229407,基隆市仁愛區忠二路６７號,"婦產科,",25.1307438,121.7385919
3511040335,林內兒科診所,私立西醫診所,西醫醫務室,基隆市仁愛區,02 4277326,基隆市仁愛區仁五路11號,"內科,兒科,",25.12691,121.741311
3511040380,健安婦產科診所,私立西醫診所,西醫醫務室,基隆市仁愛區,(02)24244543,基隆市仁愛區仁二路７８號,"婦產科,",25.1276439,121.7485217
3511040399,東大診所,私立西醫診所,西醫醫務室,基隆市仁愛區,(02)24232992,基隆市仁愛區忠二路４７號,"內科,兒科,",25.130356,121.739253
3511040406,陳正時婦產科診所,私立西醫診所,西醫專科診所,基隆市仁愛區,02 4223388,基隆市仁愛區愛四路２巷１號,"婦產科,",25.1275379,121.7432231
3511040479,李任堅小兒科診所,私立西醫診所,西醫專科診所,基隆市仁愛區,(02)24269096,基隆市仁愛區孝一路８６號,"兒科,",25.129288,121.740961
3511040488,黃勝雄診所,私立西醫診所,西醫專科診所,基隆市仁愛區,(02)24220470,基隆市仁愛區南榮路一一五號,,25.1253368,121.7430476
3511040497,楊外骨科診所,私立西醫診所,西醫診所,基隆市仁愛區,(02)24257163,基隆市仁愛區仁二路二十一號 一、二樓,"家庭醫學科,內科,外科,骨科,",25.1274699,121.7503205
3511040513,林耳鼻咽喉科診所,私立西醫診所,西醫專科診所,基隆市仁愛區,(02)24229646,基隆市仁愛區忠二路３之１４號,"耳鼻喉科,",25.129697,121.740567
3511040531,資耳鼻喉科診所,私立西醫診所,西醫專科診所,基隆市仁愛區,02 4228966,基隆市仁愛區仁一路261之2號,"耳鼻喉科,",25.1282495,121.748373
3511040568,光明眼科診所,私立西醫診所,西醫專科診所,基隆市仁愛區,02 4291860,基隆市仁愛區愛三路５７號５Ｆ,"眼科,",25.128599,121.7425835
3511040577,汪國燦內科診所,私立西醫診所,西醫專科診所,基隆市仁愛區,(02)24271848,基隆市仁愛區孝二路６５號一Ｆ,"內科,",25.1296728,121.7398895
3511040620,洪診所,私立西醫診所,西醫醫務室,基隆市仁愛區,(02)24223229,基隆市仁愛區孝三路１０５號,,25.1310849,121.739737
3511040639,王孟俊診所,私立西醫診所,西醫醫務室,基隆市仁愛區,(02)24293128,基隆市仁愛區南榮路一四三號,"家庭醫學科,",25.1246414,121.7430503
3511040648,平民泌尿皮膚科診所,私立西醫診所,西醫專科診所,基隆市仁愛區,(02)24225859,基隆市仁愛區愛一路４８－１號,"泌尿科,皮膚科,",25.1302667,121.7417217
3511040666,魏心臟科診所,私立西醫診所,西醫專科診所,基隆市仁愛區,02 4283579,基隆市仁愛區仁二路八十八號,"內科,",25.1277398,121.748284
3511040684,王大夫診所,私立西醫診所,西醫醫務室,基隆市仁愛區,02 4231731,基隆市仁愛區南榮路43號,"內科,",25.1265539,121.742773
3511040700,盧耳鼻喉科診所,私立西醫診所,西醫專科診所,基隆市仁愛區,(02)24224052,基隆市仁愛區仁二路１５４號１．２樓,"耳鼻喉科,",25.1282754,121.7457875
3511040764,羅杰診所,私立西醫診所,西醫醫務室,基隆市仁愛區,02 4292288,基隆市仁愛區基隆市愛三路１２０號,,25.1297063,121.7436897
3511040782,恆生診所,私立西醫診所,西醫專科診所,基隆市仁愛區,(02)24292288,基隆市仁愛區愛三路１２０號三樓,"內科,",25.1297063,121.7436897
3511040791,孫皮膚科診所,私立西醫診所,西醫專科診所,基隆市仁愛區,02 4292288,基隆市仁愛區基隆市愛三路１２０號三樓,"皮膚科,",25.1297063,121.7436897
3511040826,兆光診所,私立西醫診所,西醫專科診所,基隆市仁愛區,(02)24279540,基隆市仁愛區忠四路31號,"外科,",25.128354,121.7389963
3511040844,張茂雄診所,私立西醫診所,西醫醫務室,基隆市仁愛區,(02)24248136,基隆市仁愛區忠一路1號(1F),,25.1304239,121.741396
3511040862,廖曉俊診所,私立西醫診所,西醫醫務室,基隆市仁愛區,224251525,基隆市仁愛區延平街二號,,25.127308,121.748465
3511040871,王順水小兒科診所,私立西醫診所,西醫醫務室,基隆市仁愛區,02 24201733,基隆市仁愛區仁二路五十六號,"兒科,",25.1278363,121.7495563
3511040942,王俊傑耳鼻喉科診所,私立西醫診所,西醫專科診所,基隆市仁愛區,2425-3660,基隆市仁愛區仁二路117號,"耳鼻喉科,",25.1274013,121.7480457
3511040988,安基診所,私立西醫診所,西醫專科診所,基隆市仁愛區,(02)24272345,基隆市仁愛區愛五路三十四號五樓,"內科,",25.1288877,121.7460553
3511041001,安東耳鼻喉科診所,私立西醫診所,西醫醫務室,基隆市仁愛區,24266766,基隆市仁愛區仁二路二五一號一樓,"耳鼻喉科,",25.129585,121.742715
3511041047,懷仁診所,私立西醫診所,西醫診所,基隆市仁愛區,(02)24223597,基隆市仁愛區仁五路10號 (1F),,25.1265307,121.7422013
3511041083,元翔診所,私立西醫診所,西醫專科診所,基隆市仁愛區,(02)24216696,基隆市仁愛區忠二路55號3樓,"內科,",25.1304444,121.738992
3511041109,仁祥診所,私立西醫診所,西醫診所,基隆市仁愛區,(02)24232111,基隆市仁愛區忠一路20號1.2樓,"家庭醫學科,內科,骨科,眼科,",25.131363,121.7397258
3511050028,安一外科診所,私立西醫診所,西醫專科診所,基隆市中山區,(02)24236262,基隆市中山區安一路７９號,"外科,",25.131312,121.735784
3511050108,至誠診所,私立西醫診所,西醫醫務室,基隆市中山區,(02)24246151,基隆市中山區安一路３號,,25.13143,121.7373607
3511050162,蔡內兒科診所,私立西醫診所,西醫專科診所,基隆市中山區,(02)24277489,基隆市中山區安一路８６之１號,"內科,兒科,",25.131698,121.735842
3511020057,正光內兒科診所,私立西醫診所,西醫專科診所,基隆市七堵區,(02)24569275,基隆市七堵區南興路12號1樓,"內科,兒科,",25.0976597,121.7148076
3511020066,廖內兒科診所,私立西醫診所,西醫醫務室,基隆市七堵區,(02)24564621,基隆市七堵區南興路１０１號,"內科,兒科,",25.0963192,121.7124951
3511020128,新保民診所,私立西醫診所,西醫醫務室,基隆市七堵區,(02)24562450,基隆市七堵區南興路７5號,"家庭醫學科,",25.0966728,121.713164
3511020155,陳章文耳鼻喉科診所,私立西醫診所,西醫專科診所,基隆市七堵區,(02)24569772,基隆市七堵區明德一路１９０號,"耳鼻喉科,",25.097554,121.712938
3511020226,紀醫師診所,私立西醫診所,西醫專科診所,基隆市七堵區,(02)24554195,基隆市七堵區開元路八十三號,"家庭醫學科,",25.0957249,121.7128222
3511020235,佑仁聯合診所,私立西醫診所,西醫專科診所,基隆市七堵區,(02)24562212,基隆市七堵區開元路５９之１號地下室1樓、地面1樓,"家庭醫學科,外科,",25.0962048,121.7138366
3511020253,康寧眼科診所,私立西醫診所,西醫專科診所,基隆市七堵區,(02)24568418,基隆市七堵區明德一路一七九號二樓,"眼科,",25.096861,121.712292
3511020333,西華診所,私立西醫診所,西醫醫務室,基隆市七堵區,(02)24512942,基隆市七堵區百三街二十九號,,25.0820231,121.6955584
3511021429,健福診所,私立西醫診所,西醫專科診所,基隆市七堵區,(02)24515863,基隆市七堵區百五街2號,"家庭醫學科,",25.0834849,121.695438
3511030053,婁診所,私立西醫診所,西醫醫務室,基隆市暖暖區,(02)24584498,基隆市暖暖區暖暖街１７１號,"家庭醫學科,內科,",25.0994807,121.7361095
3511031247,碇內診所,私立西醫診所,西醫專科診所,基隆市暖暖區,(02)24595878,基隆市暖暖區源遠路323號,"家庭醫學科,",25.0994359,121.7575739
3511031256,康合診所,私立西醫診所,西醫醫務室,基隆市暖暖區,(02)24592200,基隆市暖暖區源遠路281之1號,,25.0992003,121.7564379
3511040022,全成內兒科診所,私立西醫診所,西醫專科診所,基隆市仁愛區,(02)24280977,基隆市仁愛區仁五路８號２Ｆ之３,"內科,兒科,",25.126841,121.741455
3511040166,大德診所,私立西醫診所,西醫醫務室,基隆市仁愛區,(02)24221081,基隆市仁愛區孝四路７號,,25.1303822,121.7384258
3511010079,東海診所,私立西醫診所,西醫醫務室,基隆市中正區,(02)24226290,基隆市中正區中船路５巷２號,"內科,兒科,",25.1373302,121.7497525
3511010131,孫邦松內兒科診所,私立西醫診所,西醫專科診所,基隆市中正區,(02)24223557,基隆市中正區信二路317號1樓,"內科,兒科,",25.131231,121.745381
3511010140,陳耳鼻喉科診所,私立西醫診所,西醫專科診所,基隆市中正區,(02)24248881,基隆市中正區信一路１６４號,"耳鼻喉科,",25.1302315,121.7457195
3511010293,煥榮診所,私立西醫診所,西醫醫務室,基隆市中正區,(02)24626198,基隆市中正區祥豐街１３１－１號１樓,,25.1430023,121.7649528
3511010355,孫眼科診所,私立西醫診所,西醫專科診所,基隆市中正區,02 4236019,基隆市中正區義二路５７號,"眼科,",25.1318222,121.7457986
3511010426,袁至仁內科診所,私立西醫診所,西醫專科診所,基隆市中正區,(02)24248688,基隆市中正區義二路８３號,"內科,",25.1324236,121.7461911
3511010480,醫療財團法人臺灣區煤礦業基金會基隆門診部,私立西醫診所,西醫醫務室,基隆市中正區,(02)24220506,基隆市中正區義一路七十六號三樓、四樓,"內科,婦產科,骨科,",25.1333907,121.7461812
3511010515,開山診所,私立西醫診所,西醫醫務室,基隆市中正區,(02)24236565,基隆市中正區義一路２９號２Ｆ,"外科,",25.1329754,121.7455322
3511010551,王孫斌婦產科診所,私立西醫診所,西醫專科診所,基隆市中正區,(02)24248125,基隆市中正區義一路69號1-5樓,"婦產科,",25.1341489,121.7463483
3511010588,合成診所,私立西醫診所,西醫專科診所,基隆市中正區,(02)24632532,基隆市中正區祥豐街２０５號,"家庭醫學科,",25.1437467,121.7659346
3511010597,瑞光眼科診所,私立西醫診所,西醫專科診所,基隆市中正區,(02)24245909,基隆市中正區基隆市義一路64號(1-2F),"眼科,",25.1330998,121.745957
3511010631,黃勉倉醫師骨科診所,私立西醫診所,西醫專科診所,基隆市中正區,(02)24277729,基隆市中正區義一路60號(1-2F),"外科,骨科,",25.1330285,121.7458376
3511010668,陳益村婦產科診所,私立西醫診所,西醫醫務室,基隆市中正區,(02)24246181,基隆市中正區義二路51號1.2樓,"婦產科,",25.1317019,121.7457003
3511010702,博群診所,私立西醫診所,西醫醫務室,基隆市中正區,(02)24601356,基隆市中正區新豐街四四六號,,25.1355917,121.7857478
3511011727,河南眼科診所,私立西醫診所,西醫專科診所,基隆市中正區,(02)24274300,基隆市中正區義一路十三號,"眼科,",25.1325341,121.7452298
3511011790,心心診所,私立西醫診所,西醫醫務室,基隆市中正區,(02)24632834,基隆市中正區中正路一九七號,,25.1428367,121.7608676
3511011825,信光眼科診所,私立西醫診所,西醫專科診所,基隆市中正區,(02)24263616,基隆市中正區信一路162號(1-2F),"眼科,",25.1301946,121.7458299
3511011898,喬復健科診所,私立西醫診所,西醫專科診所,基隆市中正區,(02)24275228,基隆市中正區信三路8號 (地下層1樓、地面層1~3樓),"復健科,",25.1325696,121.7458681
3511011905,吳婦產科診所,私立西醫診所,西醫專科診所,基隆市中正區,(02)24269000,基隆市中正區義一路23號1、2樓,"婦產科,",25.1328704,121.7454455
3511011932,陳怡穎皮膚科診所,私立西醫診所,西醫專科診所,基隆市中正區,(02)24276789,基隆市中正區義二路65-1號1樓,"皮膚科,",25.1319211,121.7458397
3511011950,兒童中心診所,私立西醫診所,西醫專科診所,基隆市中正區,(02)24212577,基隆市中正區義一路46號,"兒科,",25.1327692,121.745693
2211070014,基隆市立慢性病防治所,縣市立診所,西醫醫務室,基隆市信義區,(02)24283844,基隆市信義區信二路２６６號(1F),,25.1298697,121.7492197
2311020016,基隆市七堵區衛生所,衛生所,衛生所,基隆市七堵區,(02)24562008,基隆市七堵區光明路21之1號(1-2F),"家庭醫學科,",25.0976273,121.7165311
2311030012,基隆市暖暖區衛生所,衛生所,衛生所,基隆市暖暖區,(02)24572630,基隆市暖暖區暖暖街２８１巷９８號,,25.0985803,121.7363209
2311040018,基隆市仁愛區衛生所,衛生所,衛生所,基隆市仁愛區,(02)24311592,基隆市仁愛區光一路26號,,25.1259187,121.7374749
2311050014,基隆市中山區衛生所,衛生所,衛生所,基隆市中山區,(02)24229860,基隆市中山區中山二路１５號,,25.1371702,121.7408333
2311060010,基隆市安樂區衛生所,衛生所,衛生所,基隆市安樂區,(02)24318061,基隆市安樂區安樂路二段１６４號１樓前棟,,25.1210471,121.7233271
2311070016,信義區衛生所,衛生所,衛生所,基隆市信義區,(02)24221633,基隆市信義區信一路６９號,,25.1285766,121.7519195
1411030013,醫療財團法人臺灣區煤礦業基金會臺灣礦工醫院,公益法人附設醫院,醫院,基隆市暖暖區,02 24579101,基隆市暖暖區源遠路２９號,"家庭醫學科,內科,外科,骨科,神經科,泌尿科,皮膚科,復健科,麻醉科,放射診斷科,急診醫學科,",25.1079619,121.7330663
1111060015,長庚醫療財團法人基隆長庚紀念醫院,醫療財團法人醫院,綜合醫院,基隆市安樂區,02-24313131,基隆市安樂區麥金路２２２號,"家庭醫學科,內科,外科,兒科,婦產科,骨科,神經科,神經外科,泌尿科,耳鼻喉科,眼科,皮膚科,精神科,復健科,麻醉科,放射診斷科,放射腫瘤科,解剖病理科,臨床病理科,核子醫學科,急診醫學科,整形外科,職業醫學科,齒顎矯正科,口腔顎面外科,",25.120702,121.72236
111070010,衛生福利部基隆醫院,部立及直轄市立醫院,綜合醫院,基隆市信義區,02-24292525,基隆市信義區信二路２６８號,"家庭醫學科,內科,外科,兒科,婦產科,骨科,神經科,神經外科,泌尿科,耳鼻喉科,眼科,皮膚科,精神科,復健科,麻醉科,放射診斷科,解剖病理科,急診醫學科,",25.1302624,121.7481291
211070012,基隆市立醫院,縣市立醫院,醫院,基隆市信義區,02 24652141,基隆市信義區東信路２８２號,"家庭醫學科,內科,外科,骨科,眼科,整形外科,",25.1296063,121.7619835
1511010068,新昆明醫院,私立西醫醫院,醫院,基隆市中正區,,基隆市中正區中正路三十號,"內科,外科,婦產科,骨科,泌尿科,",25.1331296,121.7448737
1511011092,維德醫院,私立西醫醫院,精神科醫院,基隆市中正區,02-24696688,基隆市中正區調和街210號,"精神科,",25.1275585,121.799261
3711041508,台北大鎮健康牙醫診所,私立牙醫診所,牙醫一般診所,基隆市仁愛區,(02)24201997,基隆市仁愛區孝三路87號,,25.130705,121.739468
3711031081,盧牙醫診所,私立牙醫診所,牙醫診所,基隆市暖暖區,(02)24570765,基隆市暖暖區源遠路239號,,25.0987484,121.7544213
3511051525,安安診所,私立西醫診所,西醫診所,基隆市中山區,(02)24377799,基隆市中山區復興路328之4號,"內科,",25.149491,121.727058
3811041409,京基堂中醫診所,私立中醫診所,中醫診所,基隆市仁愛區,(02)24213777,"基隆市仁愛區愛三路64號1, 2樓",,25.1282722,121.742765
3511041172,正祥復健科診所,私立西醫診所,西醫診所,基隆市仁愛區,(02024281850,基隆市仁愛區忠一路20號(3F),"復健科,",25.131363,121.7397258
2311010010,中正區衛生所,衛生所,衛生所,基隆市中正區,(02)24621632,基隆市中正區中正路七八六之一號,"家庭醫學科,",25.1513909,121.77099
1511060022,南光神經精神科醫院,私立西醫醫院,精神科醫院,基隆市安樂區,,基隆市安樂區基金一路九十一號,"精神科,",25.1383191,121.7185206
511040010,三軍總醫院附設基隆民眾診療服務處,軍方醫院(民眾診療),綜合醫院,基隆市仁愛區,02 4631979,基隆市仁愛區孝二路39號中正區正榮街100號,"內科,外科,兒科,婦產科,骨科,神經科,泌尿科,耳鼻喉科,眼科,精神科,復健科,麻醉科,放射診斷科,",25.1288518,121.7394966
3511050260,林義宏診所,私立西醫診所,西醫專科診所,基隆市中山區,(02)24366481,基隆市中山區復興路263號,"家庭醫學科,",25.14901,121.726011
3511060211,小普派小兒科診所,私立西醫診所,西醫專科診所,基隆市安樂區,(02)24336300,基隆市安樂區樂利三街２３９號,"兒科,",25.126689,121.7150426
3511061325,李偉華耳鼻喉科診所,私立西醫診所,西醫專科診所,基隆市安樂區,(02)24348535,基隆市安樂區安樂路二段179號(1F),"耳鼻喉科,",25.121044,121.724031
3511070084,邱診所,私立西醫診所,西醫專科診所,基隆市信義區,(02)24250126,基隆市信義區義七路２０號,"外科,",25.1288509,121.7528644
3511070128,信義診所,私立西醫診所,西醫診所,基隆市信義區,(02)24653680,基隆市信義區東信路１５號,"家庭醫學科,",25.1276266,121.7676436
3511040291,陳吉宗診所,私立西醫診所,西醫專科診所,基隆市仁愛區,02 4234884,基隆市仁愛區仁二路８５號,,25.127486,121.748954
3511040693,楊耳鼻喉科診所,私立西醫診所,西醫專科診所,基隆市仁愛區,02 4245212,基隆市仁愛區仁二路１１５號,"耳鼻喉科,",25.127278,121.748112
3511040728,陳興達診所,私立西醫診所,西醫醫務室,基隆市仁愛區,02 4224053,基隆市仁愛區仁四路１９巷七號一樓,,25.1272572,121.742389
3511040773,楊光復健診所,私立西醫診所,西醫專科診所,基隆市仁愛區,(02)24292288,基隆市仁愛區愛三路120號 4、5樓,"復健科,",25.1296833,121.7435417
3511040817,柯小兒科診所,私立西醫診所,西醫專科診所,基隆市仁愛區,(02)24241767,基隆市仁愛區孝二路９６號,"兒科,",25.1302389,121.740841
3511041074,高士振診所,私立西醫診所,西醫診所,基隆市仁愛區,(02)24212288,基隆市仁愛區南榮路16-1號1樓、2樓、9樓,"內科,",25.1258919,121.7425367
3511021456,協順診所,私立西醫診所,西醫診所,基隆市七堵區,(02)24525688,基隆市七堵區實踐路294巷26之1號,,25.0877551,121.6964868
3511040175,林小兒科診所,私立西醫診所,西醫專科診所,基隆市仁愛區,(02)24229337,基隆市仁愛區孝二路７０號,"兒科,",25.129587,121.740297
3511010202,王立文婦產科診所,私立西醫診所,西醫專科診所,基隆市中正區,(02)24278888,基隆市中正區義一路41號1.2.3.5.6.7樓,"婦產科,",25.1331992,121.7456909
3511010408,仁人診所,私立西醫診所,西醫專科診所,基隆市中正區,(02)24622294,基隆市中正區中正路７４８號之１,,25.1519108,121.7696093
3511010524,林承興診所,私立西醫診所,西醫醫務室,基隆市中正區,(02)24694199,基隆市中正區北寧路３１９號,"家庭醫學科,",25.1397329,121.7951375
3511011807,聖母聯合診所,私立西醫診所,西醫醫務室,基隆市中正區,(02)24695121,基隆市中正區新豐街251巷3號(1F),"外科,泌尿科,",25.1362339,121.7881375
3511011870,朱僑光婦幼專科診所,私立西醫診所,西醫專科診所,基隆市中正區,(02)24234203,基隆市中正區義一路54號1.2.3.5.6.7樓,"婦產科,",25.1328867,121.745748
3711040071,長壽牙醫診所,私立牙醫診所,牙醫一般診所,基隆市仁愛區,(02)24291608,基隆市仁愛區孝一路４０號２Ｆ,,25.129336,121.740755
3711040142,英哲牙醫診所,私立牙醫診所,牙醫一般診所,基隆市仁愛區,02 4245375,基隆市仁愛區愛四路７２號２Ｆ,,25.129425,121.744643
3711040204,陽明牙醫診所,私立牙醫診所,牙醫一般診所,基隆市仁愛區,02 4245237,基隆市仁愛區南榮路六十九號二樓,,25.126113,121.742896
3711040268,趙牙醫診所,私立牙醫診所,牙醫一般診所,基隆市仁愛區,02 4278794,基隆市仁愛區愛二路６４號２Ｆ,,25.1293205,121.7424416
3711040311,蔡志明牙醫診所,私立牙醫診所,牙醫一般診所,基隆市仁愛區,02 4239238,基隆市仁愛區仁二路一○○號一樓,,25.1187161,121.7451927
3711040366,曜聖牙醫診所,私立牙醫診所,牙醫一般診所,基隆市仁愛區,(02)24249391,基隆市仁愛區仁一路277號二樓,,25.1283599,121.747361
3811021167,南興中醫診所,私立中醫診所,中醫一般診所,基隆市七堵區,(02)24551021,基隆市七堵區明德一路一三○號,,25.1143924,121.685341
3811040251,姜晴中醫診所,私立中醫診所,中醫一般診所,基隆市仁愛區,(02)24292168,基隆市仁愛區劉銘傳路３號,,25.12776,121.751134
3811041383,德勳中醫診所,私立中醫診所,中醫診所,基隆市仁愛區,2426-1268,基隆市仁愛區愛六路18號,,25.1279589,121.7475512
3811050051,仁愛中醫診所,私立中醫診所,中醫一般診所,基隆市中山區,(02)24246119,基隆市中山區西定路十五號,,25.1321321,121.7352428
3811051085,允安中醫診所,私立中醫診所,中醫一般診所,基隆市中山區,(02)24377030,基隆市中山區中和路一六八巷六弄十七號,,25.1499805,121.7165289
3811061063,聖康中醫診所,私立中醫診所,中醫一般診所,基隆市安樂區,(02)24302899,基隆市安樂區安樂路二段九十六號,,25.122899,121.725437
3811070035,世杰中醫診所,私立中醫診所,中醫一般診所,基隆市信義區,(02)24260588,基隆市信義區信一路１１４號,,25.1288303,121.7491635
3811071112,瑞明中醫診所,私立中醫診所,中醫一般診所,基隆市信義區,(02)24661119,基隆市信義區東信路一五六之一號,,25.1280196,121.7650912
3711071227,中華牙醫診所,私立牙醫診所,牙醫一般診所,基隆市信義區,(02)24275678,基隆市信義區信二路一五○號,,25.1284336,121.7822278
3711051190,李台光牙醫診所,私立牙醫診所,牙醫一般診所,基隆市中山區,(02)24377334,基隆市中山區中和路一六八巷二弄十八號一樓,,25.1496237,121.7177286
3711060037,光民牙醫診所,私立牙醫診所,牙醫一般診所,基隆市安樂區,(02)24316506,基隆市安樂區樂利三街２３５號,,25.1266888,121.7149074
3711060082,立安牙醫診所,私立牙醫診所,牙醫一般診所,基隆市安樂區,(02)24250388,基隆市安樂區安一路１０５號,,25.131401,121.735034
3711060153,武嶺牙醫診所,私立牙醫診所,牙醫一般診所,基隆市安樂區,(02)24343186,基隆市安樂區武嶺街九十五號,,25.1396967,121.7111592
3711070177,楊宗源牙醫診所,私立牙醫診所,牙醫一般診所,基隆市信義區,(02)24668824,基隆市信義區東明路二十二號,,25.1277352,121.7623015
3711010180,北寧牙醫診所,私立牙醫診所,牙醫一般診所,基隆市中正區,(02)24622782,基隆市中正區北寧路１１號,,25.1511208,121.7726239
3711020015,維康牙醫診所,私立牙醫診所,牙醫一般診所,基隆市七堵區,(02)24553523,基隆市七堵區明德一路７５號,,25.098273,121.716285
3711020104,華仁牙科診所,私立牙醫診所,牙醫一般診所,基隆市七堵區,(02)24515918,基隆市七堵區百三街５２號,,25.0817716,121.6959298
3711031072,永安牙醫診所,私立牙醫診所,牙醫診所,基隆市暖暖區,(02)24577694,基隆市暖暖區源遠路201號,,25.0983993,121.7517998
3511031265,鴻海診所,私立西醫診所,西醫診所,基隆市暖暖區,(02)24587766,基隆市暖暖區源遠路170號,"家庭醫學科,",25.0982098,121.749474
3511021518,康博診所,私立西醫診所,西醫診所,基隆市七堵區,(02)24568800,基隆市七堵區南興路99號(1-2F),,25.0974556,121.715221
3511041190,佳安診所,私立西醫診所,西醫診所,基隆市仁愛區,24212878,基隆市仁愛區劉銘傳路11巷10號,"內科,",25.1274446,121.751335
3711011301,天工牙醫診所,私立牙醫診所,牙醫診所,基隆市中正區,(02)24692801,基隆市中正區新豐街251巷6弄14號,,25.1355651,121.7889178
3811011410,協和中醫診所,私立中醫診所,中醫診所,基隆市中正區,(02)24251810,基隆市中正區義二路179巷24號,,25.134583,121.7477427
3511041181,仁愛診所,私立西醫診所,西醫診所,基隆市仁愛區,(02)24223255,基隆市仁愛區孝三路80號,"內科,兒科,",25.1307921,121.7399043
3511041216,佳基內科診所,私立西醫診所,西醫診所,基隆市仁愛區,,基隆市仁愛區劉銘傳路1-7號8樓,"內科,",25.127829,121.751017
3511071312,瀚翔骨科診所,私立西醫診所,西醫診所,基隆市信義區,(02)24666063,基隆市信義區深溪路156號1-2樓. 158號1樓,"外科,骨科,",25.1341721,121.7828277
3511012028,禾豐101診所,私立西醫診所,西醫診所,基隆市中正區,02-24697101,基隆市中正區新豐街257號,"家庭醫學科,",25.1362543,121.7879278
3711031090,源遠牙醫診所,私立牙醫診所,牙醫診所,基隆市暖暖區,(02)24595777,基隆市暖暖區源遠路315號,,25.0993777,121.7573567
3511012046,葛萊美診所,私立西醫診所,西醫診所,基隆市中正區,(02)24272777,基隆市中正區義一路23號3樓,,25.1328704,121.7454455
3511041225,長泰診所,私立西醫診所,西醫診所,基隆市仁愛區,(02)24281171,基隆市仁愛區仁五路37號1樓,,25.1272549,121.74089
3711031107,金時代牙醫診所,私立牙醫診所,牙醫診所,基隆市暖暖區,(02)24575738,基隆市暖暖區暖暖街157號1樓,,25.099971,121.7366146
3711021192,宏大牙醫診所,私立牙醫診所,牙醫診所,基隆市七堵區,(02)24527345,基隆市七堵區福二街91號1樓,,25.0820185,121.6962493
3511041243,鄭曦診所,私立西醫診所,西醫診所,基隆市仁愛區,(02)24260711,基隆市仁愛區忠二路7號1-2樓,,25.129628,121.740609
3511031274,百會診所,私立西醫診所,西醫診所,基隆市暖暖區,(02)24596677,基隆市暖暖區暖暖街246巷165號1樓,,25.1004183,121.7357319
3511051534,民安診所,私立西醫診所,西醫診所,基隆市中山區,(02)24223461,基隆市中山區中華路11號1樓,"內科,",25.145285,121.738566
3511061414,百會長庚診所,私立西醫診所,西醫診所,基隆市安樂區,(02)24326660,基隆市安樂區安和一街2巷20號1樓,"內科,",25.12229,121.724646
3711061203,安信牙醫診所,私立牙醫診所,牙醫診所,基隆市安樂區,(02)24300948,基隆市安樂區樂利三街124之1號2樓,,25.126415,121.7156464
3711011310,祥豐牙醫診所,私立牙醫診所,牙醫診所,基隆市中正區,(02)24620599,基隆市中正區祥豐街121號2樓,,25.1422845,121.7641465
3511041252,妮可美麗整形外科診所,私立西醫診所,西醫診所,基隆市仁愛區,(02)24274688,基隆市仁愛區仁一路257號 2樓,"整形外科,",25.1280323,121.748985
3711041523,經典牙醫診所,私立牙醫診所,牙醫診所,基隆市仁愛區,(02)24276080,基隆市仁愛區忠二路19號 (1-2F),,25.129628,121.740609
3511012082,馬德里診所,私立西醫診所,西醫診所,基隆市中正區,(02)24603368,基隆市中正區新豐街450號1~2樓,"外科,",25.1355692,121.7856282
3511012073,陳如儀兒科診所,私立西醫診所,西醫診所,基隆市中正區,(02)24259958,基隆市中正區義一路62號1樓,"兒科,",25.1330701,121.7459761
3811071167,世家中醫診所,私立中醫診所,中醫診所,基隆市信義區,(02)24250925,基隆市信義區義六路3號1樓,,25.1288262,121.7509308
3511021536,全安診所,私立西醫診所,西醫診所,基隆市七堵區,(02)24554997,基隆市七堵區明德一路150號1樓,,25.098282,121.714926
3511061423,百勝診所,私立西醫診所,西醫診所,基隆市安樂區,(02)24271008,基隆市安樂區安一路216號1樓,,25.132741,121.731615
3811021201,廣濟堂中醫診所,私立中醫診所,中醫診所,基隆市七堵區,(02)24551615,基隆市七堵區南興路93號1樓,,25.096389,121.712671
3811021210,鈺筌中醫診所,私立中醫診所,中醫診所,基隆市七堵區,(02)24529595,基隆市七堵區福二街27號 (1F),,25.0802566,121.6960984
3511071358,陳醫師診所,私立西醫診所,西醫診所,基隆市信義區,(02)24252019,基隆市信義區信一路141巷20號(1F),"內科,",25.1298712,121.7475985
3511071367,國泰家醫診所,私立西醫診所,西醫診所,基隆市信義區,(02)24254195,基隆市信義區信一路115號,"內科,",25.1288285,121.7490743
3711041532,金聲牙醫診所,私立牙醫診所,牙醫診所,基隆市仁愛區,(02)24220358,基隆市仁愛區仁二路11號 (1F),,25.1273916,121.7506033
3811061090,逢安中醫診所,私立中醫診所,中醫診所,基隆市安樂區,(02)24332331,基隆市安樂區麥金路451號(1F),,25.127126,121.719029
3511041261,胡耳鼻喉科診所,私立西醫診所,西醫診所,基隆市仁愛區,(02)24248736,基隆市仁愛區仁五路57號 (1F),"耳鼻喉科,",25.127469,121.740441
3511012117,八斗子診所,私立西醫診所,西醫診所,基隆市中正區,(02)24698789,基隆市中正區北寧路378之1號 (2F),"家庭醫學科,",25.1395141,121.7958273
3511012126,立康復健科診所,私立西醫診所,西醫診所,基隆市中正區,02-24276112,基隆市中正區義二路62號1-3樓,"復健科,",25.1318412,121.7459428
3511021545,群健診所,私立西醫診所,西醫診所,基隆市七堵區,(02)24568190,基隆市七堵區開元路59之1號地面1、3樓,"外科,骨科,",25.0962048,121.7138366
3511071376,東信診所,私立西醫診所,西醫診所,基隆市信義區,(02)24669455,基隆市信義區東信路156號(1樓),,25.1279995,121.7651209
3511012135,傅耳鼻喉科診所,私立西醫診所,西醫診所,基隆市中正區,(02)24284955,基隆市中正區義一路33號 (1F),"耳鼻喉科,",25.1330669,121.7455929
3511012144,廖國棟皮膚科診所,私立西醫診所,西醫診所,基隆市中正區,(02)24291166,基隆市中正區義一路66號(1F),"皮膚科,",25.1332176,121.7458737
3811041436,百草堂中醫診所,私立中醫診所,中醫診所,基隆市仁愛區,(02)24277381,基隆市仁愛區孝三路81號(2F),,25.1303205,121.7393141
3511041305,基隆美詩爾診所,私立西醫診所,西醫診所,基隆市仁愛區,(02)24286287,基隆市仁愛區愛三路87號(2F),"家庭醫學科,",25.129363,121.7430812
3511021554,惠安復健科診所,私立西醫診所,西醫診所,基隆市七堵區,(02)24569908,基隆市七堵區南興路10號及12號(均含地下層1樓.地上層2樓),"復健科,",25.0976804,121.7148579
3811051129,同仁堂中醫診所,私立中醫診所,中醫診所,基隆市中山區,(02)24227077,基隆市中山區西定路117號(1F),,25.1341681,121.7346367
3511041314,晴安診所,私立西醫診所,西醫診所,基隆市仁愛區,(02)24338168,基隆市仁愛區成功一路127號 (1F),,25.1278364,121.7366212
3511012162,全恩親子眼科診所,私立西醫診所,西醫診所,基隆市中正區,(02)24696808,基隆市中正區新豐街251巷4弄1號、3號、5號,"眼科,",25.1349795,121.788937
3511012171,漁工診所,私立西醫診所,西醫診所,基隆市中正區,(02)24624802,基隆市中正區中正路612號 (1-2F),"耳鼻喉科,",25.1507597,121.7664173
3511021563,和睦家診所,私立西醫診所,西醫診所,基隆市七堵區,(02)24523721,基隆市七堵區福二街198號(1F),,25.0834744,121.69625
3711061221,悅來牙醫診所,私立牙醫診所,牙醫診所,基隆市安樂區,(02)24345000,基隆市安樂區基金三路52-1號、52-2號 (均含1-2F),,25.1541822,121.6969451
3811011465,忠生中醫診所,私立中醫診所,中醫診所,基隆市中正區,(02)24259972,基隆市中正區義二路142號 (1F),,25.1334075,121.7470385
3511041323,重生診所,私立西醫診所,西醫診所,基隆市仁愛區,,基隆市仁愛區成功一路122號(1F),,25.1275916,121.7371204
3711031116,微風牙醫診所,私立牙醫診所,牙醫診所,基隆市暖暖區,(02)24593383,基隆市暖暖區暖暖街572號(1F)、576號(1F),,25.0927316,121.7367424
3511012180,活立診所,私立西醫診所,西醫診所,基隆市中正區,(02)24620868,基隆市中正區中正路812號 (1F),,25.151085,121.77177
3811011474,明和中醫診所,私立中醫診所,中醫診所,基隆市中正區,(02)24270836,基隆市中正區義二路97號 (1F),,25.1327686,121.7465113
3511071385,世界診所,私立西醫診所,西醫診所,基隆市信義區,(02)24662266,基隆市信義區深澳坑路1之54號 (1F),"家庭醫學科,",25.1366243,121.7738256
1511060040,暘基醫院,私立西醫醫院,精神科醫院,基隆市安樂區,24322522,基隆市安樂區基金一路129巷8號B1、B2及1-5樓,"精神科,",25.1394984,121.7118083
3711021209,晶采美學牙醫診所,私立牙醫診所,牙醫診所,基隆市七堵區,(02)24562456,基隆市七堵區光明路5號(1F)、7號(1F),,25.0985374,121.7169939
3711021218,凱悅牙醫診所,私立牙醫診所,牙醫診所,基隆市七堵區,(02)24562456,基隆市七堵區光明路5號(2F)、7號(2F),,25.0985374,121.7169939
3511051543,王孫毅耳鼻喉科診所,私立西醫診所,西醫診所,基隆市中山區,(02)24244062,基隆市中山區西定路106之5號,"耳鼻喉科,",25.1339843,121.7350326
3511041332,基隆心身心精神科診所,私立西醫診所,西醫診所,基隆市仁愛區,(02)24283399,基隆市仁愛區仁一路181號 (1F),"精神科,",25.1280327,121.7510414
3511021572,泰安內科診所,私立西醫診所,西醫診所,基隆市七堵區,(02)24552305,基隆市七堵區明德一路93號 (1-2F),"內科,",25.0981688,121.7157316
3511071394,詠欣精神科診所,私立西醫診所,西醫診所,基隆市信義區,(02)24272247,基隆市信義區信二路281號 (1F),"精神科,",25.1304531,121.7471561
3811011483,張浩緯中醫診所,私立中醫診所,中醫診所,基隆市中正區,(02)24265333,基隆市中正區義二路89號 (1F),,25.1326375,121.7463197
3511051552,大慶診所,私立西醫診所,西醫診所,基隆市中山區,(02)24366999,基隆市中山區復興路142號 (1F),,25.144843,121.726424
3511012206,亮崴美顏診所,私立西醫診所,西醫診所,基隆市中正區,(02)24278759,基隆市中正區信一路164號二樓,"皮膚科,",25.1302315,121.7457195
3811051138,同心堂中醫診所,私立中醫診所,中醫診所,基隆市中山區,(02)24287767,基隆市中山區西定路32號(1F),,25.1322434,121.7355528
3811041445,悅心中醫診所,私立中醫診所,中醫診所,基隆市仁愛區,(02)24275722,基隆市仁愛區仁一路173號(1F),,25.1278149,121.7515652
3511012215,漾診所,私立西醫診所,西醫診所,基隆市中正區,(02)24268898,基隆市中正區義一路51號(1-3F)、53號(1-3F),"外科,",25.1335556,121.7460514
3711041541,麗星牙醫診所,私立牙醫診所,牙醫診所,基隆市仁愛區,(02)24252246,基隆市仁愛區仁五路12號二樓,,25.12735,121.741236
