機構代碼,機構名稱,權屬別,型態別,縣市鄉鎮,電話,地址,診療科別,經度,緯度
3838020075,冠雲中醫診所,私立中醫診所,中醫一般診所,南投縣埔里鎮,049-2987150,南投縣埔里鎮中山路二段３５１號,,23.9642752,120.9665978
3838020093,武進中醫診所,私立中醫診所,中醫專科診所,南投縣埔里鎮,049-2984973,南投縣埔里鎮中山路二段２１１號,,23.967487,120.970216
3838020119,十方中醫診所,私立中醫診所,中醫一般診所,南投縣埔里鎮,049-2996279,南投縣埔里鎮西安路一段３３５號,,23.9731237,120.9695033
3838020128,濟生中醫診所,私立中醫診所,中醫一般診所,南投縣埔里鎮,049-2900719,南投縣埔里鎮中正路４３５號,,23.965756,120.966503
3838021161,大眾中醫診所,私立中醫診所,中醫一般診所,南投縣埔里鎮,049-2995333,南投縣埔里鎮南昌街202號,,23.9658342,120.9652385
3838021198,隆昇中醫診所,私立中醫診所,中醫一般診所,南投縣埔里鎮,049-2998003,南投縣埔里鎮隆生路81號,,23.9592045,120.9675454
3838021223,元濟中醫診所,私立中醫診所,中醫一般診所,南投縣埔里鎮,049-2906386,南投縣埔里鎮中正路531號二樓,,23.9700343,120.9638698
3838021241,普仁中醫診所,私立中醫診所,中醫診所,南投縣埔里鎮,049-2930373,南投縣埔里鎮東峰路19號,,24.0028121,120.9456044
3838030026,明山中醫診所,私立中醫診所,中醫專科診所,南投縣草屯鎮,049-2334377,南投縣草屯鎮炎峰街１７號,,23.9801276,120.6863963
3838030071,蒼生中醫診所,私立中醫診所,中醫一般診所,南投縣草屯鎮,049-2334747,南投縣草屯鎮草溪路９５９號,,23.9759202,120.680966
3838030213,北大中醫診所,私立中醫診所,中醫一般診所,南投縣草屯鎮,049-2356279,南投縣草屯鎮中山街466號,,23.9838595,120.6837211
3838030277,佳仁堂中醫診所,私立中醫診所,中醫一般診所,南投縣草屯鎮,049-2320938,南投縣草屯鎮中正路６８５號,,23.979737,120.684225
3838030295,長庚中醫聯合診所,私立中醫診所,中醫一般診所,南投縣草屯鎮,049-2380666,南投縣草屯鎮芬草路一段３２號,,23.9825999,120.6839054
3838031354,聖明中醫診所,私立中醫診所,中醫一般診所,南投縣草屯鎮,049-2302979,南投縣草屯鎮碧山南路30號,,23.9781826,120.6808858
3838031372,洪日宏中醫診所,私立中醫診所,中醫一般診所,南投縣草屯鎮,049-2339387,南投縣草屯鎮太平路一段503號,,23.9676676,120.6824329
3838031381,啟福中醫診所,私立中醫診所,中醫一般診所,南投縣草屯鎮,2319955,南投縣草屯鎮碧山南路17號,,23.9779423,120.6811648
3838031416,王崇儒中醫診所,私立中醫診所,中醫一般診所,南投縣草屯鎮,049-2328937,南投縣草屯鎮中興路379號,,23.9758162,120.6888217
3838031434,鴻濟中醫診所,私立中醫診所,中醫一般診所,南投縣草屯鎮,,南投縣草屯鎮碧山南路112-1號,,23.97826,120.6783405
3838031443,永盛中醫診所,私立中醫診所,中醫診所,南投縣草屯鎮,049-2356233,南投縣草屯鎮中山街120號1樓,,23.9761739,120.68275
3838031452,宏昌中醫診所,私立中醫診所,中醫一般診所,南投縣草屯鎮,049-2380168,南投縣草屯鎮虎山路827號,,23.9762049,120.685572
3838031461,永安中醫診所,私立中醫診所,中醫診所,南投縣草屯鎮,,南投縣草屯鎮明賢街一段28號,,23.9755116,120.6869413
3838031498,豐本中醫診所,私立中醫診所,中醫診所,南投縣草屯鎮,049-2338895,南投縣草屯鎮碧山路18號1樓,,23.9779739,120.6873581
3838040022,東龍中醫診所,私立中醫診所,中醫專科診所,南投縣竹山鎮,049-2655551,南投縣竹山鎮竹山路１５８號,,23.7535501,120.681513
3838040059,萬安中醫診所,私立中醫診所,中醫一般診所,南投縣竹山鎮,049-2649649,南投縣竹山鎮集山路三段785號,,23.7584213,120.6857433
3838040095,大明中醫診所,私立中醫診所,中醫一般診所,南投縣竹山鎮,049-2654936,南投縣竹山鎮大明路183號,,23.7600611,120.684821
3838040102,慶興堂中醫診所,私立中醫診所,中醫專科診所,南投縣竹山鎮,049-2659766,南投縣竹山鎮頂橫街６０號,,23.756702,120.6805486
3838041127,惠群中醫診所,私立中醫診所,中醫一般診所,南投縣竹山鎮,049-2630702,南投縣竹山鎮橫街79號,,23.756209,120.6828
3838050519,集祥中醫診所,私立中醫診所,中醫一般診所,南投縣集集鎮,049-2762789,南投縣集集鎮和平街6號,,23.8271292,120.7791523
3838061085,康壽中醫診所,私立中醫診所,中醫診所,南投縣名間鄉,049-2220918,南投縣名間鄉彰南路373之4號,,23.8754389,120.6931316
3838061094,佑生中醫診所,私立中醫診所,中醫診所,南投縣名間鄉,049-2737111,南投縣名間鄉彰南路96之15號,,23.8412451,120.700743
3838070011,鳳凰中醫診所,私立中醫診所,中醫一般診所,南投縣鹿谷鄉,049-2752032,南投縣鹿谷鄉中正路一段353號,,23.744054,120.7547967
3838090013,新惠安中醫診所,私立中醫診所,中醫一般診所,南投縣魚池鄉,049-2896805,南投縣魚池鄉魚池街366號,,23.8969697,120.936597
3838010033,惠生中醫診所,私立中醫診所,中醫一般診所,南投縣南投市,049-2223179,南投縣南投市漳和里彰南路二段４７９號,,23.917012,120.678257
3838010042,生元中醫診所,私立中醫診所,中醫一般診所,南投縣南投市,049-2222865,南投縣南投市集賢路３１號,,23.9046669,120.684616
3838010051,建安中醫聯合診所,私立中醫診所,中醫一般診所,南投縣南投市,49222874,南投縣南投市中山街16號,,23.9057729,120.686674
3838010088,寶生中醫診所,私立中醫診所,中醫一般診所,南投縣南投市,049-2209122,南投縣南投市彰南路一段940號,,23.903133,120.6862582
3838010131,德安中醫診所,私立中醫診所,中醫一般診所,南投縣南投市,049-2252775,南投縣南投市彰南路二段510號,,23.9184044,120.6782074
3838010239,合德中醫診所,私立中醫診所,中醫一般診所,南投縣南投市,049-2243197,南投縣南投市中興路608號,,23.9047909,120.6904493
3838010248,一品堂中醫診所,私立中醫診所,中醫一般診所,南投縣南投市,049-2228696,南投縣南投市復興路78號1樓,,23.9036745,120.6881717
3838010266,同慶中醫診所,私立中醫診所,中醫一般診所,南投縣南投市,049-2227623,南投縣南投市文昌街５７號1樓、地下1樓,,23.9072302,120.6873653
3838010293,陳清隆中醫診所,私立中醫診所,中醫一般診所,南投縣南投市,,南投縣南投市中山街１４巷２１號,,23.905761,120.687146
3838010328,隆安中醫診所,私立中醫診所,中醫一般診所,南投縣南投市,049-2222317,南投縣南投市彰南路二段8號1F,,23.9083549,120.685032
3838011343,保元堂中醫診所,私立中醫診所,中醫一般診所,南投縣南投市,049-2222167,南投縣南投市中山街195號,,23.9095473,120.6853968
3838011361,仁愛中醫診所,私立中醫診所,中醫一般診所,南投縣南投市,049-2226706,南投縣南投市彰南路一段943號,,23.902751,120.68576
3838110065,華佗中醫診所,私立中醫診所,中醫一般診所,南投縣水里鄉,,南投縣水里鄉中央村民族路492號,,23.8163265,120.8534011
3838110074,興安中醫診所,私立中醫診所,中醫一般診所,南投縣水里鄉,049-2770757,南投縣水里鄉城中村太平街87號,,23.8167814,120.8519461
3838110083,春福中醫診所,私立中醫診所,中醫一般診所,南投縣水里鄉,049-2771143,南投縣水里鄉北埔村民族路283號,,23.8139558,120.8546231
3738031450,仁德牙醫診所,私立牙醫診所,牙醫診所,南投縣草屯鎮,049-2381000,南投縣草屯鎮碧山路634號,,23.977971,120.6748121
3738040020,曾雅展牙醫診所,私立牙醫診所,牙醫一般診所,南投縣竹山鎮,049-2643391,南投縣竹山鎮林圯街14 之2號,,23.755574,120.6805693
3738040048,江牙醫診所,私立牙醫診所,牙醫一般診所,南投縣竹山鎮,049-2643850,南投縣竹山鎮下橫街50號,,23.7573516,120.683971
3738040093,黃牙醫診所,私立牙醫診所,牙醫一般診所,南投縣竹山鎮,049-2653418,南投縣竹山鎮菜園路３－１號,,23.7548351,120.685381
3738040100,正新牙醫診所,私立牙醫診所,牙醫一般診所,南投縣竹山鎮,049-2656466,南投縣竹山鎮中正橫街７２號,,23.7558,120.683633
3738040119,冠美牙醫診所,私立牙醫診所,牙醫一般診所,南投縣竹山鎮,049-2653163,南投縣竹山鎮橫街１３號,,23.753935,120.684247
3738040128,晶華牙醫診所,私立牙醫診所,牙醫一般診所,南投縣竹山鎮,049-2640622,南投縣竹山鎮昭德街１９號,,23.75817,120.686257
3738040146,眾安牙醫診所,私立牙醫診所,牙醫一般診所,南投縣竹山鎮,049-2660175,南投縣竹山鎮前山路一段５４號,,23.757406,120.679884
3738040155,生活牙醫診所,私立牙醫診所,牙醫一般診所,南投縣竹山鎮,049-2660260,南投縣竹山鎮前山路一段９９號,,23.7572835,120.6795035
3738041189,德山牙醫診所,私立牙醫診所,牙醫一般診所,南投縣竹山鎮,049-2655989,南投縣竹山鎮集山路三段425號,,23.7616665,120.6955127
3738041198,石田牙醫診所,私立牙醫診所,牙醫一般診所,南投縣竹山鎮,049-2635058,南投縣竹山鎮集山路三段207-4號,,23.7635526,120.7017495
3738060022,明仁牙醫診所,私立牙醫診所,牙醫一般診所,南投縣名間鄉,049-2530030,南投縣名間鄉松山村豐柏路２７－１號,,23.8341918,120.634009
3738060059,松茂牙醫診所,私立牙醫診所,牙醫一般診所,南投縣名間鄉,049-2730781,南投縣名間鄉員集路１４７－３號,,23.835329,120.701773
3738071025,以美牙醫診所,私立牙醫診所,牙醫一般診所,南投縣鹿谷鄉,2750919,南投縣鹿谷鄉中正路二段142號,,23.7479126,120.7528075
3738090020,邱仁宏牙醫診所,私立牙醫診所,牙醫一般診所,南投縣魚池鄉,049-2898918,南投縣魚池鄉魚池街４６1號,,23.8968687,120.9358418
3738110018,張牙醫診所,私立牙醫診所,牙醫一般診所,南投縣水里鄉,49770143,南投縣水里鄉城中村太平街53號,,23.8169028,120.8526182
3738110027,國隆牙醫診所,私立牙醫診所,牙醫一般診所,南投縣水里鄉,49771563,南投縣水里鄉鉅工村民生路219號,,23.8120239,120.8555828
3738110045,懷安牙醫診所,私立牙醫診所,牙醫一般診所,南投縣水里鄉,049-2778345,南投縣水里鄉水里村民權路182號,,23.8174943,120.8527482
3738110107,水里牙醫診所,私立牙醫診所,牙醫一般診所,南投縣水里鄉,49773382,南投縣水里鄉北埔村博愛路126號,,23.8120805,120.8521624
3738111113,佳美牙醫診所,私立牙醫診所,牙醫一般診所,南投縣水里鄉,049_2778563,南投縣水里鄉中央村中正路112號,,23.8153554,120.8536071
3738120023,同富牙醫診所,私立牙醫診所,牙醫一般診所,南投縣信義鄉,049-2702055,南投縣信義鄉同富村同和巷９８－４號,,23.5944248,120.8884157
3738010200,佑昇牙醫診所,私立牙醫診所,牙醫一般診所,南投縣南投市,049-2244011,南投縣南投市復興路８０號,,23.9037143,120.6881629
3738010273,安泰牙醫診所,私立牙醫診所,牙醫一般診所,南投縣南投市,2201703,南投縣南投市中山街14巷17號,,23.9057391,120.687064
3738010308,華信牙醫診所,私立牙醫診所,牙醫一般診所,南投縣南投市,049-2200368,南投縣南投市三和二路８６號,,23.9039462,120.6862368
3738011332,日新牙醫診所,私立牙醫診所,牙醫一般診所,南投縣南投市,049-2222093,南投縣南投市集賢路18號,,23.9051227,120.6846274
3738011350,全美牙醫診所,私立牙醫診所,牙醫一般診所,南投縣南投市,2244185,南投縣南投市南陽路486號,,23.9119505,120.6811971
3738011369,仁和牙醫診所,私立牙醫診所,牙醫一般診所,南投縣南投市,049-2239922,南投縣南投市彰南路二段364號,,23.915352,120.679813
3738011387,康雅牙醫診所,私立牙醫診所,牙醫一般診所,南投縣南投市,049-22293733,南投縣南投市大同街3號,,23.906181,120.6882253
3738011403,健華牙醫診所,私立牙醫診所,牙醫一般診所,南投縣南投市,049-2208888,南投縣南投市民族路5號,,23.910712,120.693479
3738020019,東峰牙醫診所,私立牙醫診所,牙醫一般診所,南投縣埔里鎮,049-2982150,南投縣埔里鎮東榮路１０３號,,23.9709018,120.978156
3738020055,劉牙醫診所,私立牙醫診所,牙醫一般診所,南投縣埔里鎮,049-2981300,南投縣埔里鎮中山路三段１７號,,23.9649534,120.9645028
3738020064,永昇牙醫診所,私立牙醫診所,牙醫一般診所,南投縣埔里鎮,049-2955111,南投縣埔里鎮中山路二段３３６號,,23.9648572,120.9668188
3738020091,仁仁牙醫診所,私立牙醫診所,牙醫一般診所,南投縣埔里鎮,049-2991686,南投縣埔里鎮西康路７８號,,23.9663399,120.9649631
3738020180,東海牙醫診所,私立牙醫診所,牙醫一般診所,南投縣埔里鎮,049-2906196,南投縣埔里鎮信義路３５６號,,23.9733304,120.9673032
3738020206,聖惠牙醫診所,私立牙醫診所,牙醫一般診所,南投縣埔里鎮,049-2997376,南投縣埔里鎮南興街243號,,23.9631853,120.9648253
3738020224,懷恩牙醫診所,私立牙醫診所,牙醫一般診所,南投縣埔里鎮,049-2983347,南投縣埔里鎮東門里東榮路202號,,23.9656198,120.9698043
3738020233,許明成牙醫診所,私立牙醫診所,牙醫一般診所,南投縣埔里鎮,049-2999802,南投縣埔里鎮忠孝路３5 3號,,23.9605836,120.9681064
3738020251,章振忠牙醫診所,私立牙醫診所,牙醫一般診所,南投縣埔里鎮,049-2996876,南投縣埔里鎮南昌街2-1號,,23.9620662,120.9693175
3738020260,東華牙醫診所,私立牙醫診所,牙醫一般診所,南投縣埔里鎮,049-2980994,南投縣埔里鎮東華路７７號,,23.962971,120.968584
3738020279,中心牙醫診所,私立牙醫診所,牙醫一般診所,南投縣埔里鎮,049-2420555,南投縣埔里鎮中山路二段１３３之１號１Ｆ,,23.9692353,120.9730774
3738021338,全民牙醫診所,私立牙醫診所,牙醫一般診所,南投縣埔里鎮,049-2994577,南投縣埔里鎮中山路三段９２號,,23.966231,120.9633352
3738021365,雅美牙醫診所,私立牙醫診所,牙醫一般診所,南投縣埔里鎮,2424250,南投縣埔里鎮南昌街241號,,23.966679,120.9641634
3738021383,普仁牙醫診所,私立牙醫診所,牙醫診所,南投縣埔里鎮,049-2930373,南投縣埔里鎮東峰路19號,,24.0028121,120.9456044
3738030033,泰安牙醫診所,私立牙醫診所,牙醫一般診所,南投縣草屯鎮,049-2321427,南投縣草屯鎮碧山路１３７號,,23.977892,120.683491
3738030051,勝美牙醫診所,私立牙醫診所,牙醫一般診所,南投縣草屯鎮,049-2330231,南投縣草屯鎮青雲街３２號,,23.9797891,120.6858792
3738030088,育全牙醫診所,私立牙醫診所,牙醫一般診所,南投縣草屯鎮,049-2314369,南投縣草屯鎮中山街１７７號,,23.9776876,120.6827222
3738030097,森洲牙醫診所,私立牙醫診所,牙醫一般診所,南投縣草屯鎮,049-2313090,南投縣草屯鎮建國街２９號,,23.979824,120.68531
3738030122,林政德牙醫診所,私立牙醫診所,牙醫一般診所,南投縣草屯鎮,049-2355178,南投縣草屯鎮虎山路７９０號,,23.9762282,120.6859829
3738030131,保和牙醫診所,私立牙醫診所,牙醫一般診所,南投縣草屯鎮,049-2365841,南投縣草屯鎮虎山路122號,,23.9606006,120.6854802
3738030159,白牙醫診所,私立牙醫診所,牙醫一般診所,南投縣草屯鎮,049-2336730,南投縣草屯鎮太平路二段２００號,,23.9740398,120.6835958
3738030168,泰誠牙醫診所,私立牙醫診所,牙醫一般診所,南投縣草屯鎮,049-2356921,南投縣草屯鎮中正路６27號,,23.97891,120.685299
3738030195,弘泰安牙醫診所,私立牙醫診所,牙醫一般診所,南投縣草屯鎮,049-2560570,南投縣草屯鎮中正路１５１６號,,23.998926,120.690234
3738030202,安麗牙醫診所,私立牙醫診所,牙醫一般診所,南投縣草屯鎮,049-2319519,南投縣草屯鎮山腳里新富路159號,,23.9692193,120.6835357
3738030266,上揚牙醫診所,私立牙醫診所,牙醫一般診所,南投縣草屯鎮,049-2355697,南投縣草屯鎮碧山南路42號,,23.9782104,120.6800286
3738030275,林牙醫診所,私立牙醫診所,牙醫一般診所,南投縣草屯鎮,049-2317523,南投縣草屯鎮虎山路１３４號,,23.9608485,120.6854204
3738030293,信基牙醫診所,私立牙醫診所,牙醫一般診所,南投縣草屯鎮,049-2307141,南投縣草屯鎮虎山路６91號,,23.9731675,120.6859498
3738030346,江舜生牙醫診所,私立牙醫診所,牙醫一般診所,南投縣草屯鎮,049-2380380,南投縣草屯鎮炎峰街112號,,23.9815558,120.6855172
3738031361,聖恩牙醫診所,私立牙醫診所,牙醫一般診所,南投縣草屯鎮,049-2333131,南投縣草屯鎮中正路638號,,23.9790989,120.684835
3738031389,巧傑牙醫診所,私立牙醫診所,牙醫一般診所,南投縣草屯鎮,049-2354066,南投縣草屯鎮虎山路825號,,23.97616,120.685569
3738031398,展維牙醫診所,私立牙醫診所,牙醫一般診所,南投縣草屯鎮,049-2302233,南投縣草屯鎮中正路747號,,23.9811293,120.6845528
3738031405,宏駿牙醫診所,私立牙醫診所,牙醫一般診所,南投縣草屯鎮,049-2318666,南投縣草屯鎮芬草路一段129號,,23.983843,120.68245
3738031432,匡美牙醫診所,私立牙醫診所,牙醫一般診所,南投縣草屯鎮,049-2569847,南投縣草屯鎮中正路567之3號,,23.9789514,120.69869
3738010068,祐川牙醫診所,私立牙醫診所,牙醫一般診所,南投縣南投市,049-2222238,南投縣南投市民權街５６號,,23.909849,120.6872644
3738010077,盧牙醫診所,私立牙醫診所,牙醫一般診所,南投縣南投市,049-2231589,南投縣南投市中山街２４８號,,23.9106118,120.684595
3738010095,立大牙醫診所,私立牙醫診所,牙醫一般診所,南投縣南投市,049-2236720,南投縣南投市彰南路二段５２號,,23.9094152,120.6846524
3738010111,傳明牙醫診所,私立牙醫診所,牙醫一般診所,南投縣南投市,049-2237438,南投縣南投市大同街６７號,,23.90747,120.687932
3738010157,杏蓉牙醫診所,私立牙醫診所,牙醫一般診所,南投縣南投市,049-2250456,南投縣南投市南崗三路60號,,23.9320853,120.6670144
3738010175,統一牙醫診所,私立牙醫診所,牙醫一般診所,南投縣南投市,49223408,南投縣南投市龍井街２７號,,23.9081361,120.68822
3538041505,惠元診所,私立西醫診所,西醫診所,南投縣竹山鎮,2651932,南投縣竹山鎮中正巷27-99號,,23.756748,120.691622
3538051154,第一診所,私立西醫診所,西醫診所,南投縣集集鎮,049-2761888,南投縣集集鎮民生路234號,,23.8270614,120.7825261
3538051172,陳威申診所,私立西醫診所,西醫診所,南投縣集集鎮,049-2762888,南投縣集集鎮民生路242號,,23.827054,120.7824033
3538060117,民生診所,私立西醫診所,西醫診所,南投縣名間鄉,049-2735353,南投縣名間鄉彰南路６５－１號,,23.839596,120.701402
3538060126,劉福興診所,私立西醫診所,西醫診所,南投縣名間鄉,049-2239936,南投縣名間鄉新街村彰南路４７０號,,23.8795948,120.6932093
3538061276,松柏診所,私立西醫診所,西醫專科診所,南投縣名間鄉,049-2583777,南投縣名間鄉名松路二段279號,"內科,",23.83585,120.634091
3538061285,博仁診所,私立西醫診所,西醫專科診所,南投縣名間鄉,919031116,南投縣名間鄉員集路93號,"內科,",23.83535,120.70355
3538061294,大庄羅診所,私立西醫診所,西醫診所,南投縣名間鄉,2273525,南投縣名間鄉南田路86-16號,,23.8764015,120.6565642
3538070033,陳首志診所,私立西醫診所,西醫診所,南投縣鹿谷鄉,49751753,南投縣鹿谷鄉彰雅村中正路一段324號,,23.7436947,120.755168
3538070060,鹿谷鄉農民診所,私立西醫診所,西醫診所,南投縣鹿谷鄉,-49,南投縣鹿谷鄉廣興村光復路188號一樓,,23.7371084,120.7610396
3538071101,常安診所,私立西醫診所,西醫診所,南投縣鹿谷鄉,049-2755102,南投縣鹿谷鄉中正路一段55號,,23.7383455,120.7607538
3538080155,良平診所,私立西醫診所,西醫診所,南投縣中寮鄉,049-2691996,南投縣中寮鄉永平村永安街188號,"家庭醫學科,",23.8806036,120.7644769
3538081205,詹子政診所,私立西醫診所,西醫診所,南投縣中寮鄉,049-2694988,南投縣中寮鄉初中巷2-1號,,23.87948,120.7648221
3538030771,簡國仁診所,私立西醫診所,西醫診所,南投縣草屯鎮,049-2333464,南投縣草屯鎮中山街184號,"家庭醫學科,",23.9777439,120.682948
3538030815,現代眼科診所,私立西醫診所,西醫專科診所,南投縣草屯鎮,049-2327707,南投縣草屯鎮中正路602之1號,"眼科,",23.979113,120.686661
3538030851,錦林診所,私立西醫診所,西醫診所,南投縣草屯鎮,049-2357509,南投縣草屯鎮虎山路７３６號,"家庭醫學科,兒科,",23.974988,120.6859583
3538030860,仁民診所,私立西醫診所,西醫診所,南投縣草屯鎮,049-2370526,南投縣草屯鎮虎山路１２６號,,23.9606913,120.6854523
3538030904,寶仁復健科診所,私立西醫診所,西醫專科診所,南投縣草屯鎮,049-2304666,南投縣草屯鎮草溪路993號1至2樓,"復健科,",23.9765734,120.6813215
3538030922,林俊杰小兒科診所,私立西醫診所,西醫診所,南投縣草屯鎮,049-2306678,南投縣草屯鎮中山街195號,"兒科,",23.978271,120.682796
3538030968,蔡文雄診所,私立西醫診所,西醫診所,南投縣草屯鎮,049-2569085,南投縣草屯鎮富昌路２－１號,"家庭醫學科,",23.9787334,120.6975366
3538031081,謝立中聯合診所,私立西醫診所,西醫診所,南投縣草屯鎮,049-2301010,南投縣草屯鎮碧山南路13號,"家庭醫學科,內科,",23.9779399,120.6812522
3538032159,英全診所,私立西醫診所,西醫診所,南投縣草屯鎮,,南投縣草屯鎮炎峰街14-2號,,23.9798903,120.6864938
3538032739,陳俊義耳鼻喉科診所,私立西醫診所,西醫診所,南投縣草屯鎮,049-2354243,南投縣草屯鎮明賢街10號,"耳鼻喉科,",23.9756659,120.6850828
3538032748,草鞋墩神經外科診所,私立西醫診所,西醫專科診所,南投縣草屯鎮,049-2306989,南投縣草屯鎮太平路二段28號1.2樓,"神經外科,",23.9701425,120.6830531
3538032793,聖方小兒科診所,私立西醫診所,西醫專科診所,南投縣草屯鎮,049-2307728,南投縣草屯鎮碧山南路21號1樓,"兒科,",23.9779443,120.6810838
3538032800,姚美輝骨科外科診所,私立西醫診所,西醫專科診所,南投縣草屯鎮,049-2307369,南投縣草屯鎮太平路二段207號,"外科,骨科,",23.9736655,120.6832895
3538032837,小太陽小兒科診所,私立西醫診所,西醫專科診所,南投縣草屯鎮,,南投縣草屯鎮虎山路786號,"兒科,",23.9761437,120.6859888
3538032855,陳宏源診所,私立西醫診所,西醫專科診所,南投縣草屯鎮,049-2331718,南投縣草屯鎮太平路一段445號,"外科,骨科,",23.9664657,120.6821467
3538032882,吉安診所,私立西醫診所,西醫診所,南投縣草屯鎮,049-2304117,南投縣草屯鎮史館路370號,,23.990691,120.667919
3538032926,尚德診所,私立西醫診所,西醫診所,南投縣草屯鎮,,南投縣草屯鎮自由街134巷23號,,23.9846565,120.6847695
3538032935,吳英滄診所,私立西醫診所,西醫診所,南投縣草屯鎮,049-2326989,南投縣草屯鎮太平路二段93、95號1樓,"內科,",23.9715015,120.6829526
3538032962,祐幼小兒科診所,私立西醫診所,西醫診所,南投縣草屯鎮,2320606,南投縣草屯鎮虎山路746號,"兒科,",23.9751953,120.6859731
3538032971,群和診所,私立西醫診所,西醫診所,南投縣草屯鎮,2353197,南投縣草屯鎮新豐路728巷18號,"復健科,",23.9885611,120.6793626
3538033012,洪瑞成小兒科診所,私立西醫診所,西醫診所,南投縣草屯鎮,049-2323151,南投縣草屯鎮中山街36號及38號1F,"兒科,",23.9750671,120.6826093
3538040017,詹外婦產科診所,私立西醫診所,西醫專科診所,南投縣竹山鎮,049-2643559,南投縣竹山鎮集山路三段６２３巷一號,"外科,婦產科,",23.7669484,120.7066804
3538040080,得安診所,私立西醫診所,西醫專科診所,南投縣竹山鎮,049-2642930,南投縣竹山鎮竹山路2號,"內科,兒科,",23.757526,120.686682
3538040106,哲煌內兒科診所,私立西醫診所,西醫專科診所,南投縣竹山鎮,049-2645288,南投縣竹山鎮集山路三段１０39號,"內科,兒科,",23.754582,120.680581
3538040124,沈仁諒診所,私立西醫診所,西醫診所,南投縣竹山鎮,049-2648276,南投縣竹山鎮下橫街58-7號,,23.7581149,120.6834591
3538040160,崇德診所,私立西醫診所,西醫診所,南投縣竹山鎮,049-2622454,南投縣竹山鎮南雲路51號,"家庭醫學科,",23.80485,120.7141558
3538040179,春臨診所,私立西醫診所,西醫診所,南投縣竹山鎮,049-2642446,南投縣竹山鎮集山路三段１８號,,23.7668958,120.7061777
3538040197,葉婦產科診所,私立西醫診所,西醫專科診所,南投縣竹山鎮,049-2643770,南投縣竹山鎮大明路１９４號,"婦產科,",23.760562,120.686773
3538020588,人安內科診所,私立西醫診所,西醫診所,南投縣埔里鎮,049-2992070,南投縣埔里鎮中正路402號,"內科,",23.964918,120.967849
3538020604,聖光小兒科診所,私立西醫診所,西醫專科診所,南投縣埔里鎮,049-2988099,南投縣埔里鎮南昌街160號,"兒科,",23.9650207,120.9661366
3538021674,昱安復健科診所,私立西醫診所,西醫專科診所,南投縣埔里鎮,049-2422477,南投縣埔里鎮中山路三段39號,"復健科,",23.9652396,120.9642086
3538022171,長榮診所,私立西醫診所,西醫診所,南投縣埔里鎮,049-2994830,南投縣埔里鎮忠孝路329號,"兒科,",23.9651074,120.9751962
3538022199,莊眼科診所,私立西醫診所,西醫診所,南投縣埔里鎮,049-2420623,南投縣埔里鎮中山路二段349號,"眼科,",23.9643021,120.9666496
3538022215,芸通耳鼻喉科診所,私立西醫診所,西醫專科診所,南投縣埔里鎮,049-2996790,南投縣埔里鎮薰化里南昌街229號,"耳鼻喉科,",23.966442,120.9643963
3538022233,劉春輝診所,私立西醫診所,西醫診所,南投縣埔里鎮,049-2999197,南投縣埔里鎮南昌街190號,,23.9655206,120.9656116
3538022242,黎俊奇診所,私立西醫診所,西醫診所,南投縣埔里鎮,049-2990941,南投縣埔里鎮中正路464號,,23.9726323,120.9631857
3538022251,新仁愛診所,私立西醫診所,西醫專科診所,南投縣埔里鎮,049-2911960,南投縣埔里鎮中正路427號,"家庭醫學科,",23.9655264,120.9669183
3538022260,安杏診所,私立西醫診所,西醫專科診所,南投縣埔里鎮,049-2980445,南投縣埔里鎮中山路三段100號,"家庭醫學科,",23.9663314,120.9632247
3538121179,慶安診所,私立西醫診所,西醫專科診所,南投縣信義鄉,049-2791850,南投縣信義鄉明德村新開巷100號,"家庭醫學科,",23.695912,120.854956
3538121188,親民內科診所,私立西醫診所,西醫專科診所,南投縣信義鄉,049-2702308,南投縣信義鄉同和巷99號,"內科,",23.5916338,120.8892021
3538121197,吉龍診所,私立西醫診所,西醫診所,南投縣信義鄉,702702,南投縣信義鄉同富村同和巷67-1號,"家庭醫學科,",23.592139,120.888573
3538022322,李眼科診所,私立西醫診所,西醫專科診所,南投縣埔里鎮,492420606,南投縣埔里鎮中正路389號,"眼科,",23.964459,120.9679
3538022331,安麗小兒科內科診所,私立西醫診所,西醫專科診所,南投縣埔里鎮,049-2991030,南投縣埔里鎮中山路二段262號,"內科,兒科,",23.9663527,120.9686598
3538022340,錫安診所,私立西醫診所,西醫專科診所,南投縣埔里鎮,049-2999907,南投縣埔里鎮北辰街119號1樓,"復健科,",23.9678001,120.9674742
3538022359,台大建村皮膚科診所,私立西醫診所,西醫診所,南投縣埔里鎮,049-2906112,南投縣埔里鎮257號,"皮膚科,",23.9932872,120.9646866
3538022386,賴雅雲眼科診所(張大川聯合診所),私立西醫診所,西醫診所,南投縣埔里鎮,049-2998980,南投縣埔里鎮中山路三段87號1樓,"眼科,",23.9660456,120.9633161
3538022395,張大川耳鼻喉科診所(張大川聯合診所),私立西醫診所,西醫診所,南投縣埔里鎮,049-2998980,南投縣埔里鎮中山路三段87號1樓,"耳鼻喉科,",23.9660456,120.9633161
3538022411,幸生診所,私立西醫診所,西醫診所,南投縣埔里鎮,049-2906668,南投縣埔里鎮中山路二段247之1號,"家庭醫學科,",23.967206,120.969798
3538022466,慈惠診所,私立西醫診所,西醫診所,南投縣埔里鎮,049-2996996,南投縣埔里鎮西安路一段126號,,23.9684819,120.965759
3538030048,滄浪診所,私立西醫診所,西醫診所,南投縣草屯鎮,049-2333420,南投縣草屯鎮中山街２４２號,,23.9791299,120.6831873
3538030066,陳國楨內兒科診所,私立西醫診所,西醫專科診所,南投縣草屯鎮,049-2316072,南投縣草屯鎮虎山路509號,"內科,兒科,",23.9690419,120.6869495
3538030075,王外科診所,私立西醫診所,西醫專科診所,南投縣草屯鎮,049-2326706,南投縣草屯鎮太平路二段231號,"外科,",23.9747294,120.683439
3538030137,張耳鼻喉科診所,私立西醫診所,西醫專科診所,南投縣草屯鎮,049-2338060,南投縣草屯鎮中山街179號,"耳鼻喉科,",23.9777276,120.6827252
3538030155,李耳鼻喉科診所,私立西醫診所,西醫專科診所,南投縣草屯鎮,049-2338615,南投縣草屯鎮育英街１８７號,"耳鼻喉科,",23.976675,120.683405
3538030244,洪明本婦產科診所,私立西醫診所,西醫專科診所,南投縣草屯鎮,049-2334277,南投縣草屯鎮虎山路897號,"婦產科,",23.9782711,120.6857232
3538030324,光陽診所,私立西醫診所,西醫專科診所,南投縣草屯鎮,049-2334203,南投縣草屯鎮太平路二段274號,"家庭醫學科,內科,",23.9771779,120.684239
3538030422,張國治耳鼻喉科診所,私立西醫診所,西醫專科診所,南投縣草屯鎮,049-362665,南投縣草屯鎮中山街２７５號,"耳鼻喉科,",23.9798474,120.68308
3538030440,林洸燁小兒科診所,私立西醫診所,西醫專科診所,南投縣草屯鎮,049-2318735,南投縣草屯鎮中正路６２６號,"兒科,",23.9791249,120.685318
3538030468,洪啟芬診所,私立西醫診所,西醫診所,南投縣草屯鎮,049-2333359,南投縣草屯鎮中正路1214號,,23.992535,120.688363
3538030477,培恭診所,私立西醫診所,西醫診所,南投縣草屯鎮,049-2365652,南投縣草屯鎮虎山路788號,,23.9761865,120.6859859
3538030520,育英診所,私立西醫診所,西醫診所,南投縣草屯鎮,049-2367696,南投縣草屯鎮和興三街２４號,,23.9762885,120.6846736
3538030600,杏哲診所,私立西醫診所,西醫診所,南投縣草屯鎮,049-2566636,南投縣草屯鎮玉屏路43-13號,,23.987808,120.7409119
3538030691,洪德診所,私立西醫診所,西醫診所,南投縣草屯鎮,049-2306313,南投縣草屯鎮虎山路748號,"家庭醫學科,",23.9752354,120.6859721
3538010448,得生診所,私立西醫診所,西醫診所,南投縣南投市,049-2238175,南投縣南投市民族路325號,,23.9077481,120.684815
3538010466,大千診所,私立西醫診所,西醫診所,南投縣南投市,049-2241856,南投縣南投市復興路99-4號,,23.9040012,120.6877575
3538010475,怡和內科診所,私立西醫診所,西醫專科診所,南投縣南投市,049-2231401,南投縣南投市復興路99-3號,"內科,",23.903963,120.6877705
3538010528,亞中診所,私立西醫診所,西醫診所,南投縣南投市,049-2227374,南投縣南投市復興路307號,"家庭醫學科,",23.9100219,120.6859527
3538010546,簡美華眼科診所,私立西醫診所,西醫專科診所,南投縣南投市,049-2222319,南投縣南投市三和二路39號,"眼科,",23.9042604,120.6891938
3538010555,詹建盛診所,私立西醫診所,西醫診所,南投縣南投市,049-2243055,南投縣南投市南陽路475號,,23.9115659,120.6810453
3538010582,馬冠中內科診所,私立西醫診所,西醫專科診所,南投縣南投市,049-2202833,南投縣南投市復興路84號,"內科,",23.9037942,120.688146
3538010644,黃皮膚科診所,私立西醫診所,西醫診所,南投縣南投市,049-2204786,南投縣南投市復興路９１號,"皮膚科,",23.9039581,120.6877546
3538010653,李志培診所,私立西醫診所,西醫診所,南投縣南投市,049-2225579,南投縣南投市民權街192號,"骨科,",23.9087477,120.6840484
3538011678,義德診所,私立西醫診所,西醫診所,南投縣南投市,049-2222088,南投縣南投市彰南路二段１５號,,23.9083011,120.684471
3538121259,懷恩診所,私立西醫診所,西醫診所,南投縣信義鄉,049-2792257,南投縣信義鄉玉山路２９－１號,"家庭醫學科,",23.696129,120.854771
3538131031,田診所,私立西醫診所,西醫專科診所,南投縣仁愛鄉,049--2801900,南投縣仁愛鄉大同村仁和路38號,"家庭醫學科,",24.0727229,121.1687375
3538131059,健安診所,私立西醫診所,西醫診所,南投縣仁愛鄉,049-2802250,南投縣仁愛鄉大同村仁和路１08號,,24.0727229,121.1687375
3538131077,聖本篤診所,私立西醫診所,西醫診所,南投縣仁愛鄉,049-2802922,南投縣仁愛鄉大同村仁和路153號,,24.0587366,121.1638699
3538091096,楊順喜小兒科診所,私立西醫診所,西醫專科診所,南投縣魚池鄉,049-2898591,南投縣魚池鄉魚池街125之2號1樓,"兒科,",23.8942225,120.9413245
3538011712,馨生婦產科診所,私立西醫診所,西醫診所,南投縣南投市,049-2206626,南投縣南投市復興路176號,"婦產科,",23.9068093,120.6873794
3538011758,淵源診所,私立西醫診所,西醫診所,南投縣南投市,049-2222171,南投縣南投市民族路300號,,23.908709,120.686295
3538011767,德林婦產科診所(德林聯合門診),私立西醫診所,西醫專科診所,南投縣南投市,049-2233088,南投縣南投市民族路165-1號,"婦產科,",23.9095877,120.689801
3538011776,德林內科診所(德林聯合門診),私立西醫診所,西醫專科診所,南投縣南投市,049-2233088,南投縣南投市民族路165-1號,"內科,",23.9095877,120.689801
3538011785,王正吉診所,私立西醫診所,西醫診所,南投縣南投市,049-2248198,南投縣南投市大同街5號,,23.906242,120.6882019
3538011801,徐紹倍皮膚科診所,私立西醫診所,西醫專科診所,南投縣南投市,049-2208475,南投縣南投市中興路616號一樓,"皮膚科,",23.9045121,120.690569
3538011847,陳祖永眼科診所,私立西醫診所,西醫專科診所,南投縣南投市,049-2240131,南投縣南投市復興路96-2號1F,"眼科,",23.904093,120.6880926
3538011883,佳成小兒科診所,私立西醫診所,西醫診所,南投縣南投市,2231115,南投縣南投市集賢路34號1樓,"兒科,",23.905002,120.6843162
3538020042,一弘診所,私立西醫診所,西醫專科診所,南投縣埔里鎮,049-2983192,南投縣埔里鎮中正一路22號,"家庭醫學科,",23.9686514,120.9639803
3538020168,童小兒家醫科聯合診所,私立西醫診所,西醫專科診所,南投縣埔里鎮,049-2983212,南投縣埔里鎮中正路408號,"家庭醫學科,兒科,",23.9649089,120.967818
3538020177,江診所,私立西醫診所,西醫診所,南投縣埔里鎮,049-2983713,南投縣埔里鎮中山路二段３８６號,,23.9638181,120.9657958
3538020211,呂外科診所,私立西醫診所,西醫專科診所,南投縣埔里鎮,049-2982030,南投縣埔里鎮中山路二段３３１號,"家庭醫學科,外科,",23.964526,120.966974
3538020266,盧內科診所,私立西醫診所,西醫專科診所,南投縣埔里鎮,049-2983669,南投縣埔里鎮南盛街２８號,"內科,",23.961421,120.968479
3538020275,梁外婦產科診所,私立西醫診所,西醫專科診所,南投縣埔里鎮,049-2984146,南投縣埔里鎮薰化一巷２７號,"外科,婦產科,",23.9669855,120.9641677
3538020284,中欣聯合診所,私立西醫診所,西醫專科診所,南投縣埔里鎮,049-2983895,南投縣埔里鎮中正路４５３號,"家庭醫學科,外科,",23.9660969,120.96616
3538020319,黃正誠診所,私立西醫診所,西醫專科診所,南投縣埔里鎮,049-2982577,南投縣埔里鎮西安路一段76號,"家庭醫學科,外科,",23.9654294,120.9658517
3538020382,泰源診所,私立西醫診所,西醫專科診所,南投縣埔里鎮,049-2983878,南投縣埔里鎮中山路三段１２８號,"內科,兒科,",23.9668899,120.9626394
3538020435,慶生婦產科診所,私立西醫診所,西醫專科診所,南投縣埔里鎮,049-2985855,南投縣埔里鎮中正路452號,"婦產科,",23.9664079,120.966157
3538020499,詹診所,私立西醫診所,西醫診所,南投縣埔里鎮,049-2980289,南投縣埔里鎮北辰街1號,,23.963562,120.971973
3538020506,安泰診所,私立西醫診所,西醫診所,南投縣埔里鎮,049-2987289,南投縣埔里鎮中正路460號,,23.96662,120.965973
3538020524,陳立強診所,私立西醫診所,西醫專科診所,南投縣埔里鎮,049-2903127,南投縣埔里鎮中正路431號,"家庭醫學科,",23.9654789,120.966798
3538020551,吳錦翼耳鼻喉科診所,私立西醫診所,西醫診所,南投縣埔里鎮,049-2989448,南投縣埔里鎮中正路563號1樓,"耳鼻喉科,",23.9726324,120.9631857
3538101373,宏福診所,私立西醫診所,西醫診所,南投縣國姓鄉,930106655,南投縣國姓鄉中興路178號,"內科,",24.0404803,120.8559498
3538110087,許英皓小兒科診所,私立西醫診所,西醫專科診所,南投縣水里鄉,049-2777308,南投縣水里鄉民權路150號,"兒科,",23.8182765,120.8542305
3538110103,湘昌診所,私立西醫診所,西醫專科診所,南投縣水里鄉,049-2770035,南投縣水里鄉民生路370號,"家庭醫學科,",23.8178437,120.853663
3538110121,劉眼科診所,私立西醫診所,西醫專科診所,南投縣水里鄉,049-2777799,南投縣水里鄉民權路189號,"眼科,",23.8170662,120.8520387
3538111262,協和診所,私立西醫診所,西醫診所,南投縣水里鄉,,南投縣水里鄉民生路242號,,23.8178115,120.8536782
3538111422,博愛診所,私立西醫診所,西醫診所,南投縣水里鄉,910546828,南投縣水里鄉民生路126號,"家庭醫學科,外科,",23.8117373,120.8558213
3538040277,益川診所,私立西醫診所,西醫專科診所,南投縣竹山鎮,049-2643301,南投縣竹山鎮雲林路５９號,,23.7553495,120.6823866
3538040302,仁濟診所,私立西醫診所,西醫診所,南投縣竹山鎮,049-2651188,南投縣竹山鎮雲林路１０８號,"家庭醫學科,",23.7541071,120.680661
3538040311,陳義本診所,私立西醫診所,西醫診所,南投縣竹山鎮,049-2655907,南投縣竹山鎮集山路三段833號,"家庭醫學科,",23.7577967,120.6846531
3538040357,陳耀宗診所,私立西醫診所,西醫專科診所,南投縣竹山鎮,049-2653722,南投縣竹山鎮集山路三段816號,"家庭醫學科,",23.7593281,120.686517
3538040366,陳重光耳鼻喉科診所,私立西醫診所,西醫診所,南投縣竹山鎮,049-2662352,南投縣竹山鎮集山路三段1062號,"耳鼻喉科,",23.755355,120.68076
3538041381,益民診所,私立西醫診所,西醫專科診所,南投縣竹山鎮,049-2660639,南投縣竹山鎮集山路三段816-3及816-4號,"內科,",23.759593,120.686385
3538041416,潔明眼科診所,私立西醫診所,西醫專科診所,南投縣竹山鎮,049-2652991,南投縣竹山鎮前山路1段23號,"眼科,",23.7566997,120.6815069
3538041425,安馨竹山內科診所,私立西醫診所,西醫專科診所,南投縣竹山鎮,049-2630208,南投縣竹山鎮集山路三段483號,"內科,",23.7609536,120.6928984
3538041434,謝明哲診所,私立西醫診所,西醫診所,南投縣竹山鎮,049-2660583,南投縣竹山鎮集山路三段816之2號,,23.759519,120.686415
3538010019,蔡長志診所,私立西醫診所,西醫診所,南投縣南投市,049-2233449,南投縣南投市三和二路63號,,23.9041413,120.6884901
3538010055,光振診所,私立西醫診所,西醫診所,南投縣南投市,049-2222757,南投縣南投市大同街１７４號,,23.909742,120.687585
3538010091,永吉診所,私立西醫診所,西醫專科診所,南投縣南投市,049-2226606,南投縣南投市民生街35號,"內科,兒科,",23.9098178,120.6850935
3538010108,天樞外科診所,私立西醫診所,西醫診所,南投縣南投市,049-2222658,南投縣南投市文昌街92號,"外科,",23.907478,120.685807
3538010144,中心診所,私立西醫診所,西醫專科診所,南投縣南投市,049-2222470,南投縣南投市彰南路二段50號,"內科,外科,",23.90942,120.684743
3538010171,陳文裕內兒科診所,私立西醫診所,西醫專科診所,南投縣南投市,049-2225123,南投縣南投市復興路159號,"內科,兒科,",23.906281,120.686972
3538010180,聰安耳鼻喉科診所,私立西醫診所,西醫專科診所,南投縣南投市,049-2235876,南投縣南投市復興路191號,"兒科,耳鼻喉科,",23.9070436,120.6870222
3538010215,李澤霖耳鼻喉科診所,私立西醫診所,西醫專科診所,南投縣南投市,049-2221727,南投縣南投市文昌街98號,"耳鼻喉科,",23.9074363,120.6856197
3538010233,楊鎮安診所,私立西醫診所,西醫診所,南投縣南投市,049-2221135,南投縣南投市民生街47號,"內科,兒科,",23.9098243,120.6847687
3538010288,劉外科診所,私立西醫診所,西醫診所,南投縣南投市,049-2225147,南投縣南投市三和二路85號,"外科,",23.903813,120.687541
3538010304,許內兒科診所,私立西醫診所,西醫專科診所,南投縣南投市,049-2221892,南投縣南投市民族路280號,"內科,兒科,",23.908831,120.686738
3538010322,陳外科診所,私立西醫診所,西醫專科診所,南投縣南投市,049-2222206,南投縣南投市中山街238號,"外科,",23.9104804,120.6848298
3538010340,明光眼科診所,私立西醫診所,西醫專科診所,南投縣南投市,049-2233979,南投縣南投市中山街14巷23號,"眼科,",23.9057289,120.6872417
3538010420,眾安診所,私立西醫診所,西醫專科診所,南投縣南投市,049-2235829,南投縣南投市文昌街75號,,23.9072668,120.6867441
3538010439,李月瑛小兒科診所,私立西醫診所,西醫專科診所,南投縣南投市,049-2230981,南投縣南投市復興路88號,"兒科,",23.9038736,120.6881273
2338010014,南投縣南投市衛生所,衛生所,衛生所,南投縣南投市,49223264,南投縣南投市三和一路13號,,23.902552,120.688699
2338030016,南投縣草屯鎮衛生所,衛生所,衛生所,南投縣草屯鎮,492362023,南投縣草屯鎮草溪路882巷7號,,23.9533034,120.6603254
2338040012,竹山鎮衛生所,衛生所,衛生所,南投縣竹山鎮,49642026,南投縣竹山鎮公所路126號,,23.759486,120.672477
2338050018,南投縣集集鎮衛生所,衛生所,衛生所,南投縣集集鎮,049-2762015,南投縣集集鎮民生路106號,"內科,",23.8287691,120.7867845
2338060014,南投縣名間鄉衛生所,衛生所,衛生所,南投縣名間鄉,049-2732135,南投縣名間鄉中正村彰南路42號,,23.838452,120.702839
2338080016,南投縣中寮鄉衛生所,衛生所,衛生所,南投縣中寮鄉,049-2691404,南投縣中寮鄉永平村永昌街102號,"家庭醫學科,",23.8808619,120.7655861
2338090012,南投縣魚池鄉衛生所,衛生所,衛生所,南投縣魚池鄉,049-2895513,南投縣魚池鄉魚池街194號,,23.895732,120.94132
2338100013,南投縣國姓鄉衛生所,衛生所,衛生所,南投縣國姓鄉,049-2721009,南投縣國姓鄉民族街４２號,,24.037857,120.854783
2338120015,南投縣信義鄉衛生所,衛生所,衛生所,南投縣信義鄉,049-2791148,南投縣信義鄉玉山路45號,,23.696291,120.854671
2338130011,南投縣仁愛鄉衛生所,衛生所,衛生所,南投縣仁愛鄉,049-2802341,南投縣仁愛鄉大同村五福巷17號,,24.024286,121.134383
2238010012,南投縣慢性病防治所,縣市立診所,西醫醫務室,南投縣南投市,49228471,南投縣南投市三和一路15號,"家庭醫學科,",23.902537,120.688557
1138020015,埔基醫療財團法人埔里基督教醫院,醫療財團法人醫院,綜合醫院,南投縣埔里鎮,049-2912151,南投縣埔里鎮鐵山路一號,"家庭醫學科,內科,外科,兒科,婦產科,骨科,神經科,神經外科,泌尿科,耳鼻喉科,眼科,精神科,復健科,麻醉科,放射診斷科,放射腫瘤科,解剖病理科,急診醫學科,",23.9704493,120.9465243
638020014,臺中榮民總醫院埔里分院,榮民醫院,綜合醫院,南投縣埔里鎮,049-2998911,南投縣埔里鎮蜈蚣里榮光路1號,"家庭醫學科,內科,外科,兒科,婦產科,骨科,神經科,神經外科,泌尿科,耳鼻喉科,眼科,精神科,復健科,麻醉科,放射診斷科,急診醫學科,",23.9758344,120.995785
938030016,佑民醫療社團法人佑民醫院,醫療社團法人醫院,綜合醫院,南投縣草屯鎮,049-2358151,南投縣草屯鎮太平路一段200號,"家庭醫學科,內科,外科,兒科,婦產科,骨科,神經科,神經外科,泌尿科,復健科,麻醉科,放射診斷科,急診醫學科,",23.9594949,120.6772128
138010027,衛生福利部南投醫院,部立及直轄市立醫院,綜合醫院,南投縣南投市,49231150,南投縣南投市復興路478號 ,"家庭醫學科,內科,外科,兒科,婦產科,骨科,神經科,神經外科,泌尿科,眼科,皮膚科,精神科,復健科,麻醉科,放射診斷科,放射腫瘤科,解剖病理科,急診醫學科,",23.9140079,120.6849431
1538041101,竹山秀傳醫院,私立西醫醫院,綜合醫院,南投縣竹山鎮,049-2624266,南投縣竹山鎮集山路二段７５號,"家庭醫學科,內科,外科,兒科,婦產科,骨科,神經科,神經外科,泌尿科,耳鼻喉科,皮膚科,精神科,復健科,麻醉科,放射診斷科,急診醫學科,",23.8002226,120.7139639
1538061023,新泰宜婦幼醫院,私立西醫醫院,醫院,南投縣名間鄉,049-2227787,南投縣名間鄉新街村彰南路５７１之１號,"家庭醫學科,兒科,婦產科,放射診斷科,",23.882171,120.691106
1538030037,曾漢棋綜合醫院,私立西醫醫院,綜合醫院,南投縣草屯鎮,049-2314149,南投縣草屯鎮虎山路９１５號,"家庭醫學科,內科,外科,骨科,復健科,麻醉科,放射診斷科,急診醫學科,",23.9785896,120.6857436
3538041514,美之約復健科診所,私立西醫診所,西醫診所,南投縣竹山鎮,049-2660608,南投縣竹山鎮集山路三段824及826號,"復健科,",23.7592289,120.6865776
3538061329,玄祐診所,私立西醫診所,西醫診所,南投縣名間鄉,492730988,南投縣名間鄉南雅村南雅街113號,,23.8377531,120.70175
3538022485,金生診所,私立西醫診所,西醫專科診所,南投縣埔里鎮,049-2423799,南投縣埔里鎮西安路一段88號,"內科,",23.9660063,120.9664685
3538033021,大雄泌尿科診所,私立西醫診所,西醫專科診所,南投縣草屯鎮,049-2326299,南投縣草屯鎮中山街53號,"泌尿科,",23.9751739,120.682366
3738021394,埔渼牙醫診所,私立牙醫診所,牙醫診所,南投縣埔里鎮,049-2998600,南投縣埔里鎮北環路190號,,23.9700045,120.9685101
3538033030,宏安耳鼻喉科診所,私立西醫診所,西醫專科診所,南投縣草屯鎮,049-2338109,南投縣草屯鎮中正路670號,"耳鼻喉科,",23.979404,120.684456
1338030015,中國醫藥大學附設醫院草屯分院,私立醫學院、校附設醫院,醫院,南投縣草屯鎮,,南投縣草屯鎮平等街１４０號,"家庭醫學科,內科,骨科,復健科,放射診斷科,",23.9847109,120.6858118
3738011412,新和牙醫診所,私立牙醫診所,牙醫診所,南投縣南投市,049-2208711,南投縣南投市信義街13、15號,,23.910989,120.691831
3738021418,自然牙醫診所,私立牙醫診所,牙醫診所,南投縣埔里鎮,049-2918186,南投縣埔里鎮中山路三段341號1F,,23.9688916,120.9565039
3838011405,建華中醫診所,私立中醫診所,中醫診所,南投縣南投市,049-2227580,南投縣南投市公園南街105號1樓,,23.903505,120.690033
3838021250,天人中醫診所,私立中醫診所,中醫診所,南投縣埔里鎮,049-2987699,南投縣埔里鎮北安里中山路二段158號,,23.968614,120.971233
3838011414,一心堂中醫診所,私立中醫診所,中醫診所,南投縣南投市,049-2221936,南投縣南投市復興路257號,,23.9089292,120.6863609
1538041156,東華醫院,私立西醫醫院,綜合醫院,南投縣竹山鎮,049-2658949,南投縣竹山鎮集山路三段272巷16號,"家庭醫學科,內科,復健科,急診醫學科,",23.7642498,120.7000345
2338020010,南投縣埔里鎮衛生所,衛生所,衛生所,南投縣埔里鎮,492982157,南投縣埔里鎮中山路二段256號,"家庭醫學科,",23.9669471,120.9687282
2338070010,南投縣鹿谷鄉衛生所,衛生所,衛生所,南投縣鹿谷鄉,49752002,南投縣鹿谷鄉中正路二段20號,,23.745099,120.754461
2338110019,南投縣水里鄉衛生所,衛生所,衛生所,南投縣水里鄉,049-2770079,南投縣水里鄉博愛路205號,"家庭醫學科,",23.8104179,120.8489424
1538010026,南基醫院,私立西醫醫院,醫院,南投縣南投市,049-2225595,南投縣南投市中興路870號,"家庭醫學科,內科,外科,骨科,神經科,復健科,麻醉科,放射診斷科,急診醫學科,",23.8989152,120.6839325
138030010,衛生福利部草屯療養院,部立及直轄市立醫院,精神科醫院,南投縣草屯鎮,049-2550800,南投縣草屯鎮玉屏路１６１號,"精神科,",23.9898729,120.7045675
3538010037,泰全診所,私立西醫診所,西醫診所,南投縣南投市,049-2225677,南投縣南投市大同南街30號,,23.903736,120.689199
3538010199,名淵內兒科診所,私立西醫診所,西醫專科診所,南投縣南投市,049-2222818,南投縣南投市民族路244號,"內科,兒科,",23.909061,120.687544
3538010251,英仁外科診所,私立西醫診所,西醫診所,南投縣南投市,049-2234745,南投縣南投市玉井街98號,"外科,",23.9115631,120.6850321
3538010368,大川耳鼻喉科診所,私立西醫診所,西醫專科診所,南投縣南投市,049-2242482,南投縣南投市彰南路一段１０２７號,"耳鼻喉科,",23.9048047,120.685289
3738031478,文華牙醫診所,私立牙醫診所,牙醫診所,南投縣草屯鎮,049-2320999,南投縣草屯鎮中山里草溪路1049號,,23.977609,120.6818462
3538030057,李內兒科診所,私立西醫診所,西醫專科診所,南投縣草屯鎮,049-2362021,南投縣草屯鎮中正路733號,"內科,兒科,",23.9808065,120.6845089
3538030100,莊診所,私立西醫診所,西醫診所,南投縣草屯鎮,049-2333387,南投縣草屯鎮和平里中山街116號,,23.976122,120.68274
3538030164,戴眼科診所,私立西醫診所,西醫專科診所,南投縣草屯鎮,049-2313553,南投縣草屯鎮中正路741號,"眼科,",23.9809866,120.6845351
3538030306,光海診所,私立西醫診所,西醫診所,南投縣草屯鎮,049-2334378,南投縣草屯鎮虎山路841號,"家庭醫學科,",23.9768645,120.6857433
3538030360,賜安診所,私立西醫診所,西醫專科診所,南投縣草屯鎮,049-2354658,南投縣草屯鎮中山街277號,"內科,兒科,",23.9798882,120.6830838
3538030459,邱哲煌皮膚科診所,私立西醫診所,西醫專科診所,南投縣草屯鎮,049-2322897,南投縣草屯鎮中正路771號,"皮膚科,",23.9816694,120.6846156
3538030593,泰安婦產科診所,私立西醫診所,西醫專科診所,南投縣草屯鎮,049-2333168,南投縣草屯鎮中正路608號,"婦產科,",23.979127,120.686107
3538010484,曾俊傑診所,私立西醫診所,西醫診所,南投縣南投市,049-2223875,南投縣南投市大同街１巷２號,"家庭醫學科,",23.906102,120.688208
3538010537,楊聰明診所,私立西醫診所,西醫診所,南投縣南投市,049-2239955,南投縣南投市復興路373號,,23.9091837,120.6827828
3538010573,新協合聯合診所,私立西醫診所,西醫診所,南投縣南投市,049-2222116,南投縣南投市三和二路105號,"內科,",23.9038029,120.6868243
3538010662,梁力仁診所,私立西醫診所,西醫診所,南投縣南投市,049-2202155,南投縣南投市彰南路二段400號1樓,"家庭醫學科,",23.9159171,120.6791015
3538090071,上恩診所,私立西醫診所,西醫診所,南投縣魚池鄉,049-2897448,南投縣魚池鄉魚池村魚池街392號,,23.8972753,120.9356724
3538011810,陳加偉耳鼻喉科診所,私立西醫診所,西醫專科診所,南投縣南投市,492200679,南投縣南投市復興路109號,"耳鼻喉科,",23.9048644,120.6875626
3538011865,景聖耳鼻喉科診所,私立西醫診所,西醫專科診所,南投縣南投市,2244768,南投縣南投市中興路502-1號,"耳鼻喉科,",23.9085585,120.6917497
3538020015,王明經診所,私立西醫診所,西醫專科診所,南投縣埔里鎮,049-2982708,南投縣埔里鎮中山路三段２８５號,"家庭醫學科,",23.9684866,120.9581489
3538020293,王婦產科診所,私立西醫診所,西醫專科診所,南投縣埔里鎮,049-2983033,南投縣埔里鎮西康路64號,"婦產科,",23.9660053,120.9645926
3538020480,得恩診所,私立西醫診所,西醫診所,南投縣埔里鎮,049-2986178,南投縣埔里鎮中正一路１６２號,,23.971286,120.9670308
3538110032,慶聲診所,私立西醫診所,西醫專科診所,南投縣水里鄉,049-2770957,南投縣水里鄉民生路377號,"內科,",23.8166711,120.8541553
3538111468,瑞斌診所,私立西醫診所,西醫診所,南投縣水里鄉,049-2778877,南投縣水里鄉民權路230及232號,"家庭醫學科,",23.8175609,120.852689
3538040339,劉輔仁眼科診所,私立西醫診所,西醫診所,南投縣竹山鎮,049-2642494,南投縣竹山鎮前山路一段95號,"眼科,",23.7572099,120.6796241
3538041407,杏如皮膚科診所,私立西醫診所,西醫專科診所,南投縣竹山鎮,049-2642778,南投縣竹山鎮集山路三段820號,"皮膚科,",23.7592861,120.6866641
3538041443,智瑤小兒科診所,私立西醫診所,西醫專科診所,南投縣竹山鎮,049-2652288,南投縣竹山鎮集山路三段879號,"兒科,",23.757134,120.683586
3738031469,信安牙醫診所,私立牙醫診所,牙醫診所,南投縣草屯鎮,049-2333609,南投縣草屯鎮中山街281號,,23.9799676,120.6830966
3738050535,春亮牙醫診所,私立牙醫診所,牙醫診所,南投縣集集鎮,049-2764289,南投縣集集鎮集集街18號,,23.8282457,120.7841306
3738070019,鹿谷鄉農會附設牙醫診所,私立牙醫診所,牙醫一般診所,南投縣鹿谷鄉,49753995,南投縣鹿谷鄉光復路188號,,23.7371084,120.7610396
3738090011,蕭牙醫診所,私立牙醫診所,牙醫一般診所,南投縣魚池鄉,049-2895654,南投縣魚池鄉魚池街４００號,,23.897477,120.9357855
3738010228,慧和牙醫診所,私立牙醫診所,牙醫一般診所,南投縣南投市,049-2222928,南投縣南投市三和二路三號,,23.904448,120.690452
3738010264,現代牙醫診所,私立牙醫診所,牙醫一般診所,南投縣南投市,049-2209226,南投縣南投市彰南路二段３２８號,,23.9145164,120.6804107
3738011378,陳子柔牙醫診所,私立牙醫診所,牙醫一般診所,南投縣南投市,049-2206525,南投縣南投市彰南路二段366號,,23.915386,120.679788
3738020073,名家牙醫診所,私立牙醫診所,牙醫一般診所,南投縣埔里鎮,049-2901585,南投縣埔里鎮東榮路82號,,23.9631622,120.9670491
3738020171,仁仲牙醫診所,私立牙醫診所,牙醫一般診所,南投縣埔里鎮,049-2988671,南投縣埔里鎮東華路９4號,,23.963155,120.969036
3738030113,大權牙醫診所,私立牙醫診所,牙醫一般診所,南投縣草屯鎮,049-2327989,南投縣草屯鎮明正 里忠孝街408號,,23.9847253,120.6812103
3738030186,許智淵牙科診所,私立牙醫診所,牙醫診所,南投縣草屯鎮,049-2334474,南投縣草屯鎮仁愛街68號,,23.9799132,120.6788968
3738030211,簡仲謀牙醫診所,私立牙醫診所,牙醫一般診所,南投縣草屯鎮,049-2335156,南投縣草屯鎮虎山路５２２號,,23.9694037,120.6871463
3738030284,東陽牙醫診所,私立牙醫診所,牙醫一般診所,南投縣草屯鎮,049-2358671,南投縣草屯鎮虎山路１７９－１號,,23.9616163,120.6851053
3738031370,恩典牙醫診所,私立牙醫診所,牙醫一般診所,南投縣草屯鎮,049-2301287,南投縣草屯鎮太平路二段175號,,23.9731525,120.6832183
3738010120,廖牙醫診所,私立牙醫診所,牙醫一般診所,南投縣南投市,049-2222862,南投縣南投市文昌街８４號,,23.9073653,120.6860259
3538030995,嘉信眼科診所,私立西醫診所,西醫診所,南投縣草屯鎮,049-2323238,南投縣草屯鎮太平路二段178號,"眼科,",23.9734559,120.6835604
3538031107,草屯陳診所,私立西醫診所,西醫診所,南投縣草屯鎮,049-2380295,南投縣草屯鎮太平路二段２２８號1-2樓,"內科,",23.975936,120.68395
3538032953,蔡文龍診所,私立西醫診所,西醫診所,南投縣草屯鎮,049-2328000,南投縣草屯鎮炎峰街94號,"骨科,",23.9810559,120.6857745
3538033003,佳佳診所,私立西醫診所,西醫診所,南投縣草屯鎮,049-2313315,南投縣草屯鎮平和里明賢街66號,,23.9933816,120.7234992
3538040035,呂外科婦產科診所,私立西醫診所,西醫專科診所,南投縣竹山鎮,049-2642801,南投縣竹山鎮集山路三段1001號,"外科,婦產科,",23.755291,120.681122
3538040071,憲珍診所,私立西醫診所,西醫診所,南投縣竹山鎮,049-2643086,南投縣竹山鎮埔頭街一巷一號,"內科,兒科,",23.753325,120.680293
3538020613,祐安小兒科診所,私立西醫診所,西醫診所,南投縣埔里鎮,049-2997752,南投縣埔里鎮中正路387號,"兒科,",23.9644279,120.967932
3538022224,張榮坤診所,私立西醫診所,西醫專科診所,南投縣埔里鎮,049-2982255,南投縣埔里鎮中山路二段363號,"家庭醫學科,",23.9637933,120.9658218
3838031470,虎山大愛中醫診所,私立中醫診所,中醫診所,南投縣草屯鎮,492393299,南投縣草屯鎮虎山路519號,,23.9693319,120.6870448
3838040086,苹慈中醫診所,私立中醫診所,中醫一般診所,南投縣竹山鎮,049-2654246,南投縣竹山鎮下橫街５３－８號,,23.756982,120.68359
3838060024,瑞龍堂中醫診所,私立中醫診所,中醫一般診所,南投縣名間鄉,049-2732055,南投縣名間鄉中山村彰南路１8 6號,,23.836545,120.704499
3838080017,光華中醫診所,私立中醫診所,中醫一般診所,南投縣中寮鄉,049-2694686,南投縣中寮鄉永平村永平路２４９號,,23.8788454,120.7658618
3838010015,立本中醫診所,私立中醫診所,中醫專科診所,南投縣南投市,049-2223751,南投縣南投市復興路３３６號,,23.9109511,120.685741
3838010275,元和堂中醫診所,私立中醫診所,中醫一般診所,南投縣南投市,049-2231150,南投縣南投市仁德路五十七號,,23.943289,120.6939816
3838041136,鼎億堂中醫診所,私立中醫診所,中醫一般診所,南投縣竹山鎮,049-2642557,南投縣竹山鎮集山路三段213號,,23.7634601,120.7014094
3838020066,新扶元中醫診所,私立中醫診所,中醫一般診所,南投縣埔里鎮,049-2985862,南投縣埔里鎮南興街４１９號,,23.966552,120.960555
3838020146,福康中醫診所,私立中醫診所,中醫一般診所,南投縣埔里鎮,049-2997879,南投縣埔里鎮中山路二段79號,,23.9702968,120.9750922
3838021232,智全中醫診所,私立中醫診所,中醫一般診所,南投縣埔里鎮,2424245,南投縣埔里鎮南興街297號,,23.9642469,120.963672
3838030035,恆元中醫診所,私立中醫診所,中醫一般診所,南投縣草屯鎮,049-2336195,南投縣草屯鎮草溪路１０１１號,,23.9768326,120.6814566
3538131095,路加診所,私立西醫診所,西醫診所,南投縣仁愛鄉,049-2802188,南投縣仁愛鄉大同村仁和路55號,"家庭醫學科,",24.0727229,121.1687375
3538011918,蔡良迪診所,私立西醫診所,西醫診所,南投縣南投市,,南投縣南投市中學西路85號,"內科,",23.9459801,120.69115
3538041523,瑞竹診所,私立西醫診所,西醫診所,南投縣竹山鎮,049-2649319,南投縣竹山鎮下坪里枋坪巷2-9號,"內科,",23.763018,120.68093
3738021409,麗緻牙醫診所,私立牙醫診所,牙醫診所,南投縣埔里鎮,049-2900606,南投縣埔里鎮西門里中正路432-2號1、2樓,,23.9726323,120.9631857
3738101046,艾美牙醫診所,私立牙醫診所,牙醫診所,南投縣國姓鄉,049-2720147,南投縣國姓鄉國姓村中興路326號,,24.038138,120.854015
3538022537,陳宏麟診所,私立西醫診所,西醫診所,南投縣埔里鎮,049-2900303,南投縣埔里鎮南門里南昌街198號,"家庭醫學科,",23.9657621,120.9652355
3838021269,松裕堂中醫診所,私立中醫診所,中醫診所,南投縣埔里鎮,049-2997836,南投縣埔里鎮南興街262號,,23.9637078,120.9645542
3538101382,安鴻診所,私立西醫診所,西醫診所,南投縣國姓鄉,049-2722778,南投縣國姓鄉中興路130號1樓,,24.0412366,120.8566543
3538022546,普仁診所,私立西醫診所,西醫診所,南投縣埔里鎮,049-2930373,南投縣埔里鎮一新里東峰路19號,,24.0028121,120.9456044
3838021278,裕生中醫診所,私立中醫診所,中醫診所,南投縣埔里鎮,049-2423232,南投縣埔里鎮東門里東華路120號1樓,,23.9641594,120.9701845
3738011421,希望牙醫診所,私立牙醫診所,牙醫診所,南投縣南投市,049-2228500,南投縣南投市三和里大同南街85號,,23.9051543,120.6884481
3738011430,鑽石牙醫診所,私立牙醫診所,牙醫診所,南投縣南投市,049-2205666,南投縣南投市中興路566號,,23.905998,120.69027
3838011423,坤融中醫診所,私立中醫診所,中醫診所,南投縣南投市,049-2233336,南投縣南投市中山街154號1F,,23.908864,120.68605
3538022564,李振明診所,私立西醫診所,西醫診所,南投縣埔里鎮,049-2991151,南投縣埔里鎮中山路二段355號,"兒科,",23.9641612,120.9663224
3538022573,欣明診所,私立西醫診所,西醫診所,南投縣埔里鎮,049-2983321,南投縣埔里鎮中山路二段213號1樓,"家庭醫學科,內科,",23.9674569,120.9701811
3738031487,益泉牙醫診所,私立牙醫診所,牙醫診所,南投縣草屯鎮,049-2301796,南投縣草屯鎮太平路二段252號1樓,,23.9763869,120.684012
3838031532,彌陀中醫診所,私立中醫診所,中醫診所,南投縣草屯鎮,049-2392501,南投縣草屯鎮虎山路37號,,23.9585232,120.6847451
3538033049,達文西診所,私立西醫診所,西醫診所,南投縣草屯鎮,049-2332788,南投縣草屯鎮太平路一段255號1及2樓,"外科,婦產科,",23.9620668,120.6816994
3538011945,福山診所,私立西醫診所,西醫診所,南投縣南投市,049-2334060,南投縣南投市福山里八卦路507號1樓,,23.9122635,120.6381026
3538111548,澄清診所,私立西醫診所,西醫診所,南投縣水里鄉,049-2776160,南投縣水里鄉民生路201及203號1樓,"家庭醫學科,",23.8115973,120.8556236
3538033058,戴偉竣皮膚科診所,私立西醫診所,西醫診所,南投縣草屯鎮,049-2330332,南投縣草屯鎮和平街31號1樓,"皮膚科,",23.9789216,120.6834808
3838111115,保生堂中醫診所,私立中醫診所,中醫診所,南投縣水里鄉,049-2770115,南投縣水里鄉民權路210號1樓,,23.8177382,120.85303
3538091103,台安診所,私立西醫診所,西醫診所,南投縣魚池鄉,049-285139,南投縣魚池鄉魚池街334巷16號,,23.897394,120.938073
3538111557,幼幼耳鼻喉科診所,私立西醫診所,西醫診所,南投縣水里鄉,049-2776673,南投縣水里鄉民權路190、192號,"耳鼻喉科,",23.8174931,120.8527458
3538011981,嘉欣診所,私立西醫診所,西醫診所,南投縣南投市,049-2236318,南投縣南投市集賢路36號,"家庭醫學科,",23.9049928,120.6842819
3538131102,安康診所,私立西醫診所,西醫診所,南投縣仁愛鄉,049-2462422,南投縣仁愛鄉互助村中華路200號1樓,,24.0622983,120.9641057
3838041163,理和中醫診所,私立中醫診所,中醫診所,南投縣竹山鎮,049-2658926,南投縣竹山鎮延和里集山路三段516號1F,,23.7618255,120.6942694
3738031496,鼎真牙醫診所,私立牙醫診所,牙醫診所,南投縣草屯鎮,049-2353333,南投縣草屯鎮中正路800號1.2F,,23.982262,120.685077
3538111566,信望愛診所,私立西醫診所,西醫診所,南投縣水里鄉,049-2770000,南投縣水里鄉民族路362號1樓,"家庭醫學科,",23.8137373,120.85497
3538121286,人和診所,私立西醫診所,西醫診所,南投縣信義鄉,049-2777369,南投縣信義鄉人和村民生巷68號1樓,"家庭醫學科,",23.8098282,120.8567292
3538012022,子泰診所,私立西醫診所,西醫診所,南投縣南投市,049-2223013,南投縣南投市南崗二路298號1樓,"兒科,",23.9131301,120.678279
3838111124,和平中醫診所,私立中醫診所,中醫診所,南投縣水里鄉,049-2770607,南投縣水里鄉民權路272號1F,,23.8170295,120.8503837
3738061083,福田牙醫診所,私立牙醫診所,牙醫診所,南投縣名間鄉,049-2736531,南投縣名間鄉濁水村彰南路1-5號,,23.836099,120.705147
3838011432,聖恩中醫診所,私立中醫診所,中醫診所,南投縣南投市,049-2220565,南投縣南投市嘉和北路17、19號1樓,,23.9008317,120.6864642
3838011441,中興大愛中醫診所,私立中醫診所,中醫診所,南投縣南投市,049-2331339,南投縣南投市營北里學藝路5號,,23.950378,120.6890813
3538041550,弘仁診所,私立西醫診所,西醫診所,南投縣竹山鎮,,南投縣竹山鎮集山路三段948-1號1樓,"內科,",23.7622565,120.680148
3538012040,何耳鼻喉科診所,私立西醫診所,西醫診所,南投縣南投市,492222689,南投縣南投市民族路258號,"耳鼻喉科,",23.909003,120.687205
3538022591,上和診所,私立西醫診所,西醫診所,南投縣埔里鎮,049-2423732,南投縣埔里鎮蜈蚣里中山路一段182-1號1樓,"神經科,",23.9784619,121.002184
3538022608,福樂診所,私立西醫診所,西醫診所,南投縣埔里鎮,049-2900977,南投縣埔里鎮和平東路413號,"內科,",23.9707856,120.9770222
3538012059,仲治診所,私立西醫診所,西醫診所,南投縣南投市,049-2202600,南投縣南投市民族路395號1樓,,23.907343,120.683457
3738031503,紐約牙醫診所,私立牙醫診所,牙醫診所,南投縣草屯鎮,049-2356600,南投縣草屯鎮中興路152號,,23.9740167,120.6843764
3538033067,為國眼科診所,私立西醫診所,西醫診所,南投縣草屯鎮,049-2320190,南投縣草屯鎮草溪路978號1-2樓,"眼科,",23.976251,120.6814445
3538033076,聖安診所,私立西醫診所,西醫診所,南投縣草屯鎮,049-2311139,南投縣草屯鎮中正路761號1樓,"家庭醫學科,",23.9814623,120.6845941
3838031541,福氣中醫診所,私立中醫診所,中醫診所,南投縣草屯鎮,049-2372567,南投縣草屯鎮虎山路69號,,23.9591551,120.6847962
3538022626,康健診所,私立西醫診所,西醫診所,南投縣埔里鎮,049-2420768,南投縣埔里鎮信義路1019號1樓,,23.971141,120.9575588
3538101408,永隆診所,私立西醫診所,西醫診所,南投縣國姓鄉,049-2452506,南投縣國姓鄉北山村南港路303號1樓 ,,23.9807475,120.8720667
3838031550,貴仁堂中醫診所,私立中醫診所,中醫診所,南投縣草屯鎮,049-2380928,南投縣草屯鎮碧山南路14號1樓,,23.9781614,120.6810779
3838031569,豐田中醫診所,私立中醫診所,中醫診所,南投縣草屯鎮,,南投縣草屯鎮中興路210號2F,,23.9738767,120.686127
3838101066,家家中醫診所,私立中醫診所,中醫診所,南投縣國姓鄉,049-2723391,南投縣國姓鄉中興路170號1樓,,24.0406038,120.8560649
3538022635,惠承診所,私立西醫診所,西醫診所,南投縣埔里鎮,049-2420453,南投縣埔里鎮和平東路417號1樓,,23.9709405,120.9768717
3838021287,首茗中醫診所,私立中醫診所,中醫診所,南投縣埔里鎮,049-2985015,南投縣埔里鎮忠孝路172號1樓,,23.9634494,120.9710065
3838011469,維康中醫診所,私立中醫診所,中醫診所,南投縣南投市,2240557,南投縣南投市三和一路87號1樓,,23.9022416,120.686355
3538033094,品康耳鼻喉科診所,私立西醫診所,西醫診所,南投縣草屯鎮,049-2333100,南投縣草屯鎮和平里育英街200號,"耳鼻喉科,",23.976868,120.683466
3738041205,維美牙醫診所,私立牙醫診所,牙醫診所,南投縣竹山鎮,,南投縣竹山鎮集山路三段797號1樓,,23.7582206,120.6855851
3538061338,正安診所,私立西醫診所,西醫診所,南投縣名間鄉,049-2737666,南投縣名間鄉南雅街124號,"兒科,",23.838039,120.702376
3538121302,楊診所,私立西醫診所,西醫診所,南投縣信義鄉,049-2831943,南投縣信義鄉羅娜村信筆巷182-4號,"家庭醫學科,",23.634622,120.888696
3538033101,用心生活診所,私立西醫診所,西醫診所,南投縣草屯鎮,049-2380866,南投縣草屯鎮炎峰里中正路590，590-1號1F,,23.9793409,120.6873549
3538041569,佑幼耳鼻喉科診所,私立西醫診所,西醫診所,南投縣竹山鎮,049-2637733,南投縣竹山鎮集山路三段893號,"耳鼻喉科,",23.757009,120.6832577
3538022653,惠安診所,私立西醫診所,西醫診所,南投縣埔里鎮,049-2902467,南投縣埔里鎮西安路一段70號1.2F,,23.9652409,120.965679
3538081287,吳鴻儀診所,私立西醫診所,西醫診所,南投縣中寮鄉,049-2601601,南投縣中寮鄉龍岩村龍南路196號1F,,23.9353843,120.7601975
3538012068,平安診所,私立西醫診所,西醫診所,南投縣南投市,049-2291653,南投縣南投市八德路376號1樓,"家庭醫學科,",23.9085104,120.6370207
3538033110,協安診所,私立西醫診所,西醫診所,南投縣草屯鎮,049-2314945,南投縣草屯鎮玉?里炎峰街84號1樓,"精神科,",23.9933816,120.7234992
3738011449,宜民牙醫診所,私立牙醫診所,牙醫診所,南投縣南投市,0921-046269,南投縣南投市漳興里復興路493號,,23.9147541,120.6837869
3538111575,水里社區基督聯合診所,私立西醫診所,西醫診所,南投縣水里鄉,2871999,南投縣水里鄉中正路18號,"內科,外科,骨科,",23.8178534,120.855135
3538081296,永順診所,私立西醫診所,西醫診所,南投縣中寮鄉,049-2692468,南投縣中寮鄉永平村永安街73號1樓,,23.8792589,120.7673835
3538012086,幼安小兒科診所,私立西醫診所,西醫診所,南投縣南投市,049-2206706,南投縣南投市民族路243號,"兒科,",23.9087481,120.687413
3838031578,登科中醫診所,私立中醫診所,中醫診所,南投縣草屯鎮,049-2336559,南投縣草屯鎮中山街269號,,23.9796895,120.6830616
3538012077,惠良精神科診所,私立西醫診所,西醫診所,南投縣南投市,049-2208296,南投縣南投市民族路167號1F,"精神科,",23.9095652,120.68971
3538012095,黃子卿小兒科診所,私立西醫診所,西醫診所,南投縣南投市,0926-925182,南投縣南投市民族路123號1-2樓,"兒科,",23.9047601,120.672786
3538022662,晨洋診所,私立西醫診所,西醫診所,南投縣埔里鎮,049-2424452,南投縣埔里鎮忠孝路300號1樓,"家庭醫學科,",23.9653106,120.973912
3538033129,文山診所,私立西醫診所,西醫診所,南投縣草屯鎮,049-2551410,南投縣草屯鎮南埔里中正路233之12號,,23.9794946,120.7227217
3838021296,仁安堂中醫診所,私立中醫診所,中醫診所,南投縣埔里鎮,049-2985128,南投縣埔里鎮中山路三段132號,,23.9669465,120.9625773
3838031587,承心中醫診所,私立中醫診所,中醫診所,南投縣草屯鎮,492310628,南投縣草屯鎮草鞋墩一街5及7號1樓,,23.973933,120.6807321
3538121311,信安診所,私立西醫診所,西醫診所,南投縣信義鄉,492741255,南投縣信義鄉地利村開信巷7之1號,,23.794113,120.9421994
3738011458,立德牙醫診所,私立牙醫診所,牙醫診所,南投縣南投市,049-2200113,南投縣南投市大同南街2-2號,,23.9031295,120.6891268
