機構代碼,機構名稱,權屬別,型態別,縣市鄉鎮,電話,地址,診療科別,經度,緯度
4131050027,有全醫療社團法人有全牙醫診所,醫療社團法人診所,牙醫診所,新北市新店區,229101388,新北市新店區北新路二段164號1樓,,24.9756199,121.543129
3831151175,大順中醫診所,私立中醫診所,中醫一般診所,新北市五股區,22916650,新北市五股區成泰路二段196號,,25.0848772,121.4387718
3831160030,黎明中醫聯合診所,私立中醫診所,中醫一般診所,新北市泰山區,02-22974515,新北市泰山區明志路一段３１５號,,25.0591018,121.4314639
3831161135,妙健堂中醫診所,私立中醫診所,中醫一般診所,新北市泰山區,29062788,新北市泰山區工專路三號,,25.0399245,121.4233748
3831161144,星光中醫診所,私立中醫診所,中醫一般診所,新北市泰山區,22968118,新北市泰山區明志路1段81號1樓,,25.0643687,121.4335167
3831170027,恆安中醫診所,私立中醫診所,中醫一般診所,新北市林口區,02 6011110,新北市林口區竹林路４０７號,,25.083851,121.3869052
3831171113,全德中醫診所,私立中醫診所,中醫一般診所,新北市林口區,26002438,新北市林口區文化二路1段三八四號二樓,,25.0829397,121.3840952
3831032102,家康中醫診所,私立中醫診所,中醫一般診所,新北市永和區,29291223,新北市永和區中正路三五八號一樓,,25.00071,121.5178346
3831032111,祺元堂中醫診所,私立中醫診所,中醫一般診所,新北市永和區,89253601,新北市永和區竹林路71-1號1樓,,25.0132877,121.5189658
3831032148,明仁中醫診所,私立中醫診所,中醫診所,新北市永和區,29223008,新北市永和區永貞路352號1樓,,25.006114,121.510848
3831032157,永和易元堂中醫診所,私立中醫診所,中醫診所,新北市永和區,29420899,新北市永和區中正路62號1、2樓,,24.9947203,121.5134547
3831032175,祥寧中醫診所,私立中醫診所,中醫診所,新北市永和區,02-29266869,新北市永和區中興街104號1-2樓及106號1-2樓,,25.0123211,121.5191245
3831032193,泉安堂中醫診所,私立中醫診所,中醫診所,新北市永和區,29207377,新北市永和區竹林路4號1樓,,25.0146679,121.516135
3831040015,華星中醫診所,私立中醫診所,中醫一般診所,新北市中和區,02 9432288,新北市中和區興南路一段１５１號,,24.9870324,121.5088772
3831040033,朝春中醫診所,私立中醫診所,中醫一般診所,新北市中和區,02 9419229,新北市中和區景新街３８５－２號２Ｆ,,24.9902528,121.5124756
3831040042,三元中醫診所,私立中醫診所,中醫一般診所,新北市中和區,02-22429808,新北市中和區中興街二０二巷十六之一號一樓,,24.9923302,121.499874
3831040051,福星中醫診所,私立中醫診所,中醫一般診所,新北市中和區,02 2236609,新北市中和區連城路３１６號,,24.9960498,121.4834112
3831040079,陳南中醫診所,私立中醫診所,中醫一般診所,新北市中和區,02 2227337,新北市中和區民享街５８－１號,,25.001995,121.474054
3831040097,進安中醫診所,私立中醫診所,中醫一般診所,新北市中和區,02-22485986,新北市中和區保平路356號、358號1樓,,25.0045612,121.5082
3831040417,寶島中醫診所,私立中醫診所,中醫一般診所,新北市中和區,22427093,新北市中和區景平路742號１樓,,25.0042502,121.4966738
3831040471,元隆堂中醫診所,私立中醫診所,中醫一般診所,新北市中和區,9417504,新北市中和區宜安路一九號,,24.9959023,121.512848
3831027852,六福中醫診所,私立中醫診所,中醫一般診所,新北市三重區,2973-1088,新北市三重區集成路１０號,,25.0520459,121.488392
3831027923,林源泉中醫診所,私立中醫診所,中醫一般診所,新北市三重區,2984-1753,新北市三重區碧華街５９號,,25.0813361,121.48462
3831027996,新昌中醫診所,私立中醫診所,中醫診所,新北市三重區,82879885,新北市三重區自強路三段１１０巷１５之２號,,25.07479,121.486317
3831028000,洪中醫診所,私立中醫診所,中醫診所,新北市三重區,29898612,新北市三重區長壽西街１７號,,25.0676342,121.4975025
3831030028,泰華內科針炙科中醫診所,私立中醫診所,中醫專科診所,新北市永和區,02 9275634,新北市永和區保平路１２１號,,25.0063539,121.510749
3831171168,國寶堂中醫診所,私立中醫診所,中醫一般診所,新北市林口區,26021950,新北市林口區文化二路二段159號1樓,,25.0832444,121.3800911
3831171186,達可得黃中醫診所,私立中醫診所,中醫診所,新北市林口區,26098067,新北市林口區仁愛路2段269號2樓之1,,25.0742848,121.3825559
3831230519,十全中醫診所,私立中醫診所,中醫一般診所,新北市八里區,26185377,新北市八里區龍米路一段119號1樓,,25.125261,121.4531243
3831230528,九如中醫診所,私立中醫診所,中醫診所,新北市八里區,86302819,新北市八里區中華路二段460號1樓,,25.1459777,121.4005585
3831280019,天寶堂中醫診所,私立中醫診所,中醫一般診所,新北市萬里區,02 4920789,新北市萬里區瑪鍊路１１２號,,25.1406792,121.7143014
3831131860,易元堂中醫診所,私立中醫診所,中醫一般診所,新北市土城區,22634669,新北市土城區學府路1段107號1、2樓,,24.9875059,121.4558062
3831131897,弘祐中醫診所,私立中醫診所,中醫診所,新北市土城區,,新北市土城區中央路4段113號1樓,,24.9576978,121.4166463
3831140056,培元中醫診所,私立中醫診所,中醫一般診所,新北市蘆洲區,02 2810328,新北市蘆洲區中山二路６９號,,25.0819155,121.473552
3831140065,一品堂中醫診所,私立中醫診所,中醫一般診所,新北市蘆洲區,02 2812373,新北市蘆洲區中正路１１８號,,25.084832,121.4694386
3831140136,同仁堂中醫診所,私立中醫診所,中醫一般診所,新北市蘆洲區,02 2818192,新北市蘆洲區信義路２９7、299號,,25.085985,121.4785019
3831030046,大德生中醫診所,私立中醫診所,中醫專科診所,新北市永和區,02 9216354,新北市永和區竹林路２２５巷２號,,25.008407,121.5210988
3831030073,康源中醫診所,私立中醫診所,中醫一般診所,新北市永和區,02 9258628,新北市永和區得和路３５１號,,24.999595,121.5242557
3831030162,俊發中醫診所,私立中醫診所,中醫一般診所,新北市永和區,02 9213815,新北市永和區復興街３１號,,25.013155,121.516305
3831030206,竹林堂中醫診所,私立中醫診所,中醫一般診所,新北市永和區,02 9213290,新北市永和區永和路二段２４９號,,25.0151496,121.5157383
3831030260,竹安堂中醫診所,私立中醫診所,中醫一般診所,新北市永和區,02 9212751,新北市永和區永亨路７號,,25.0058415,121.5193257
3831030331,上海堂中醫診所,私立中醫診所,中醫一般診所,新北市永和區,02 2319589,新北市永和區永貞路２１８號,,25.0040446,121.5151863
3831030340,獻寶中醫診所,私立中醫診所,中醫一般診所,新北市永和區,02 9296945,新北市永和區福和路三六二號,,25.0075081,121.5147167
3831030402,合元中醫診所,私立中醫診所,中醫一般診所,新北市永和區,02 9418857,新北市永和區民權路８號,,24.999645,121.5201613
3831030411,利源中醫診所,私立中醫診所,中醫一般診所,新北市永和區,(02)89252558,新北市永和區竹林路179巷1號1樓,,25.0099802,121.5208273
3831030420,永豐中醫診所,私立中醫診所,中醫一般診所,新北市永和區,9213264,新北市永和區永平路１４６號,,25.0086539,121.511458
3831030457,葉圳松中醫診所,私立中醫診所,中醫一般診所,新北市永和區,2461398,新北市永和區中和路３４３號１２．１２之２樓,,24.999844,121.507879
3831030475,華興中醫診所,私立中醫診所,中醫一般診所,新北市永和區,9488722,新北市永和區成功路二段９０號,,24.9986711,121.5264803
3831030546,秀朗中醫診所,私立中醫診所,中醫一般診所,新北市永和區,29488502,新北市永和區民權路二四號,,24.9992989,121.5201224
3831020657,永昇中醫診所,私立中醫診所,中醫一般診所,新北市三重區,02 29780781,新北市三重區中寮街20號之5,,25.0595107,121.4923456
3831020675,國嘉中醫診所,私立中醫診所,中醫一般診所,新北市三重區,9804259,新北市三重區重新路三段１１５巷１８號,,25.0606543,121.4899346
3831020835,楊士弘中醫診所,私立中醫診所,中醫一般診所,新北市三重區,02 23920305,新北市三重區五華街１４４號,,25.0839336,121.4913133
3831020906,陳逸德中醫診所,私立中醫診所,中醫一般診所,新北市三重區,29721815,新北市三重區中央南路二號,,25.0631644,121.501287
3831020915,集美中醫診所,私立中醫診所,中醫一般診所,新北市三重區,02 29746397,新北市三重區集美街47號,,25.055345,121.4880099
3831140449,勝原堂中醫診所,私立中醫診所,中醫一般診所,新北市蘆洲區,282835981,新北市蘆洲區信義路246號之5  246號之6  1樓,,25.0863826,121.4785231
3831141688,新立中醫診所,私立中醫診所,中醫一般診所,新北市蘆洲區,02 22817900,新北市蘆洲區中山二路四十六巷十三號,,25.0823784,121.4743564
3831141722,大春中醫診所,私立中醫診所,中醫一般診所,新北市蘆洲區,02-22881052,新北市蘆洲區中正路1號1樓,,25.0815704,121.4716068
3831141839,同慶堂中醫診所,私立中醫診所,中醫一般診所,新北市蘆洲區,22895799,新北市蘆洲區長安街295號1樓,,25.0847192,121.458101
3831141866,得康中醫診所,私立中醫診所,中醫一般診所,新北市蘆洲區,22898866,新北市蘆洲區中原路41號1樓,,25.0823475,121.4596054
3831141884,信義中醫診所,私立中醫診所,中醫診所,新北市蘆洲區,82831919,新北市蘆洲區信義路261號,,25.0847248,121.4789375
3831141937,元安堂中醫診所,私立中醫診所,中醫診所,新北市蘆洲區,,新北市蘆洲區長榮路34號1樓,,25.082824,121.463285
3831150043,周中醫診所,私立中醫診所,中醫一般診所,新北市五股區,2915662,新北市五股區成泰路二段１８２號,,25.0846058,121.4386128
3831151077,聖德堂中醫診所,私立中醫診所,中醫一般診所,新北市五股區,22952888,新北市五股區成泰路二段一四○號,,25.0848317,121.4386586
3831111242,廣緣堂中醫診所,私立中醫診所,中醫診所,新北市汐止區,02-86951725,新北市汐止區明峰街132號,,25.0710113,121.6298776
3831130121,吉德中醫診所,私立中醫診所,中醫一般診所,新北市土城區,02 6462901,新北市土城區土城市延吉街１６８巷３號,,24.9850564,121.4668128
3831130238,延和中醫診所,私立中醫診所,中醫一般診所,新北市土城區,22635611,新北市土城區延和路127號1樓、125巷2號1樓、125巷4號1樓,,24.990567,121.468774
3831027361,華泰中醫診所,私立中醫診所,中醫一般診所,新北市三重區,02-22839907,新北市三重區三和路四段153-1號,,25.0783602,121.4838263
3831027414,忠孝龍安中醫診所,私立中醫診所,中醫一般診所,新北市三重區,89813498,新北市三重區忠孝路二段五十三號,,25.0708679,121.485209
3831027521,天士堂中醫診所,私立中醫診所,中醫一般診所,新北市三重區,02 29738867,新北市三重區信義街七十三號,,25.0650803,121.5016177
3831027629,龍安中醫診所,私立中醫診所,中醫一般診所,新北市三重區,22878797,新北市三重區仁愛街680號1樓,,25.0801552,121.4816253
3831027665,益成中醫診所,私立中醫診所,中醫一般診所,新北市三重區,29725039,新北市三重區三和路二段77號,,25.0682105,121.5000421
3831027709,保安堂中醫診所,私立中醫診所,中醫一般診所,新北市三重區,2989-6251,新北市三重區正義北路四七.四九號一.二樓,,25.0628279,121.4975392
3831027816,全心堂中醫診所,私立中醫診所,中醫一般診所,新北市三重區,89829966,新北市三重區自強路三段３５?３７號,,25.072664,121.48711
3831013143,聖杰中醫診所,私立中醫診所,中醫一般診所,新北市板橋區,02-22588445,新北市板橋區陽明街一二六號1、2樓,,25.023668,121.4637531
3831013189,裕芳中醫診所,私立中醫診所,中醫一般診所,新北市板橋區,29588222,新北市板橋區貴興路三十八號,,25.00335,121.457195
3831013278,仁心中醫診所,私立中醫診所,中醫一般診所,新北市板橋區,29665049,新北市板橋區北門街42-3號1、2樓,,25.0111764,121.4570017
3831013296,德康中醫診所,私立中醫診所,中醫一般診所,新北市板橋區,22512988,新北市板橋區漢生西路36號,,25.0184085,121.4634352
3831013330,明德中醫診所,私立中醫診所,中醫一般診所,新北市板橋區,22544898,新北市板橋區文聖街19號,,25.0321692,121.4757868
3831013367,回春中醫診所,私立中醫診所,中醫一般診所,新北市板橋區,29667970  0933122962,新北市板橋區國光路17號1樓,,25.017547,121.4567611
3831013385,原福德中醫診所,私立中醫診所,中醫一般診所,新北市板橋區,02-2959-0886,新北市板橋區四川路1段477號1樓．2樓,,24.997287,121.457237
3831013394,華康中醫診所,私立中醫診所,中醫一般診所,新北市板橋區,,新北市板橋區陽明街80號,,25.022812,121.464558
3831013401,六合堂中醫診所,私立中醫診所,中醫診所,新北市板橋區,02-29668397,新北市板橋區中正路332-4號1樓,,25.0225179,121.454563
3831013410,榮德中醫診所,私立中醫診所,中醫一般診所,新北市板橋區,02-22568227  02-22568228,新北市板橋區懷德街131號,,25.0306469,121.47921
3831013429,鴻仁中醫診所,私立中醫診所,中醫一般診所,新北市板橋區,02-29546268,新北市板橋區三民路2段136之2號1樓,,25.01622,121.479129
3831130550,祐生中醫診所,私立中醫診所,中醫一般診所,新北市土城區,222741763,新北市土城區裕民路二０二號,,24.9891415,121.4466372
3831130569,陳鴻翔中醫診所,私立中醫診所,中醫一般診所,新北市土城區,02-82732377,新北市土城區裕民路98號1、2樓,,24.9868649,121.4504783
3831131584,清水建全中醫診所,私立中醫診所,中醫一般診所,新北市土城區,02-22649299,新北市土城區明德路一段59號1樓,,24.9845322,121.4654085
3831131600,林原億中醫診所,私立中醫診所,中醫一般診所,新北市土城區,22649428,新北市土城區學府路1段二三六號,,24.9849573,121.4517501
3831131799,聖和中醫診所,私立中醫診所,中醫一般診所,新北市土城區,89666288,新北市土城區廣興街28、30號1樓,,24.9917847,121.4557229
3831131815,渼林中醫診所,私立中醫診所,中醫一般診所,新北市土城區,22645353,新北市土城區清水路179號1樓,,24.9816065,121.4595098
3831090033,太元堂中醫診所,私立中醫診所,中醫一般診所,新北市三峽區,02 6714920,新北市三峽區大勇路82號１樓,,24.9360375,121.367128
3831090042,同福堂中醫診所,私立中醫診所,中醫一般診所,新北市三峽區,02 6717719,"新北市三峽區中正路一段109號1樓,111號1樓",,24.9292949,121.374129
3831091110,慈恩中醫診所,私立中醫診所,中醫一般診所,新北市三峽區,86713371,新北市三峽區文化路七○號一、二樓,,24.9358605,121.3744903
3831100034,慶安中醫診所,私立中醫診所,中醫一般診所,新北市淡水區,02 6223730,新北市淡水區中山路１４３號,,25.1717845,121.4407066
3831100052,逢春中醫診所,私立中醫診所,中醫一般診所,新北市淡水區,02 6235501,新北市淡水區中正路２６４號,,25.1714652,121.4383174
3831013509,施丞修中醫診所,私立中醫診所,中醫診所,新北市板橋區,02-2956-2225,新北市板橋區中山路2段362號,,25.0200239,121.481764
3831013518,坤儒中醫診所,私立中醫診所,中醫診所,新北市板橋區,82598386,新北市板橋區陽明街77號1樓,,25.0229956,121.4641814
3831013527,隆安中醫診所,私立中醫診所,中醫診所,新北市板橋區,02-2258-8907,新北市板橋區新海路120號(1樓),,25.022962,121.461349
3831013536,洪天註中醫診所,私立中醫診所,中醫診所,新北市板橋區,82588019,新北市板橋區四維路289巷44號1樓,,25.0281633,121.4610195
3831013554,宏國中醫診所,私立中醫診所,中醫診所,新北市板橋區,2253-1680,新北市板橋區宏國路103號1樓,,25.0324214,121.4700436
3831013581,鴻林中醫診所,私立中醫診所,中醫診所,新北市板橋區,02-8953-9118,新北市板橋區成都街37號1樓,,25.0050028,121.4611221
3831020077,長興中醫診所,私立中醫診所,中醫一般診所,新北市三重區,02 2866533,新北市三重區溪尾街１８４號,,25.0807464,121.488282
3831020120,何合安中醫診所,私立中醫診所,中醫一般診所,新北市三重區,29816188,新北市三重區忠孝路一段35號4樓之1,,25.071954,121.4916577
3831020139,軒元堂中醫診所,私立中醫診所,中醫一般診所,新北市三重區,2981-2826/2857-8635,新北市三重區溪尾街374號1樓、376號1樓,,25.0855765,121.4888023
3831020148,懷德中醫診所,私立中醫診所,中醫一般診所,新北市三重區,02-2857-1227,新北市三重區溪尾街289號1樓,,25.082975,121.487662
3831020166,林寶華中醫診所,私立中醫診所,中醫一般診所,新北市三重區,02 9889212,新北市三重區中正北路２１８號,,25.0675345,121.4821722
3831020175,富信中醫診所,私立中醫診所,中醫一般診所,新北市三重區,229855368,新北市三重區三民街一四三號,,25.064231,121.484502
3831020219,慧光中醫診所,私立中醫診所,中醫一般診所,新北市三重區,02 9736843,新北市三重區仁福街６４巷４號,,25.0747667,121.4976673
3831020326,啄木鳥中醫診所,私立中醫診所,中醫一般診所,新北市三重區,02 29729218,新北市三重區長安街24號1樓、26號1樓,,25.0670735,121.4991309
3831020460,新博愛中醫診所,私立中醫診所,中醫一般診所,新北市三重區,02 9757139,新北市三重區中央南路３１號,,25.0621419,121.501136
3831020479,正五華中醫診所,私立中醫診所,中醫一般診所,新北市三重區,229811575,新北市三重區溪尾街１２１號,,25.0790685,121.4896197
3831020513,東華堂中醫診所,私立中醫診所,中醫一般診所,新北市三重區,02 9761080,新北市三重區龍門路５８號,,25.072673,121.4966417
3831020522,慶春堂中醫診所,私立中醫診所,中醫一般診所,新北市三重區,02 8572939,新北市三重區溪尾街三０八號,,25.0741998,121.4918383
3831020586,三和中醫診所,私立中醫診所,中醫一般診所,新北市三重區,02 2870080,新北市三重區三和路四段４０２號,,25.0795361,121.4811484
3831020620,聖昌中醫診所,私立中醫診所,中醫一般診所,新北市三重區,02 2803326,新北市三重區中華路八十七號,,25.06287,121.483734
3831011256,板橋聖昌中醫診所,私立中醫診所,中醫一般診所,新北市板橋區,02 2530844,新北市板橋區松柏街６５號1樓,,25.030588,121.4760375
3831011283,陳東熙中醫診所,私立中醫診所,中醫一般診所,新北市板橋區,222592189,新北市板橋區文化路二段１６５號,,25.027438,121.4701781
3831011309,日祥中醫診所,私立中醫診所,中醫一般診所,新北市板橋區,02-9662359,新北市板橋區中正路203號1、2、3樓,,25.0173719,121.45619
3831011345,健福中醫診所,私立中醫診所,中醫一般診所,新北市板橋區,229597695,新北市板橋區三民路一段54、56號1樓,,25.0224786,121.4793513
3831011363,人和中醫診所,私立中醫診所,中醫一般診所,新北市板橋區,286753008,新北市板橋區溪北路四十八號,,24.98987,121.427301
3831011425,聖原中醫診所,私立中醫診所,中醫一般診所,新北市板橋區,222541199,新北市板橋區雙十路二段一七０號一樓,,25.0253928,121.4769909
3831100098,金德中醫診所,私立中醫診所,中醫一般診所,新北市淡水區,02 6226555,新北市淡水區學府路７９號,,25.1702379,121.4486447
3831100178,大愛中醫診所,私立中醫診所,中醫一般診所,新北市淡水區,02-26200525,新北市淡水區北新路17號2樓,,25.178,121.4442514
3831101193,竹圍中醫診所,私立中醫診所,中醫一般診所,新北市淡水區,88094088,新北市淡水區民生路34號1樓,,25.1378229,121.4614759
3831101317,仙台中醫診所,私立中醫診所,中醫一般診所,新北市淡水區,26282297,新北市淡水區大忠街七十五號,,25.1773757,121.4458001
3831101335,建順中醫診所,私立中醫診所,中醫一般診所,新北市淡水區,86312418,新北市淡水區英專路一二 一號,,25.1719775,121.4458273
3831101362,仁禾中醫診所,私立中醫診所,中醫一般診所,新北市淡水區,26260719,新北市淡水區原德路37號,,25.1718239,121.4422189
3831101406,陽明中醫診所,私立中醫診所,中醫診所,新北市淡水區,26268298,新北市淡水區中山路63號,,25.1703925,121.4430338
3831101415,祐安中醫診所,私立中醫診所,中醫診所,新北市淡水區,26293058,新北市淡水區北新路171號1樓,,25.1822498,121.459297
3831110076,華佗中醫診所,私立中醫診所,中醫一般診所,新北市汐止區,223659502,新北市汐止區樟樹一路十號,,25.0621729,121.64191
3831110101,華成中醫診所,私立中醫診所,中醫一般診所,新北市汐止區,226934346,新北市汐止區福德二路１００號1樓,,25.066256,121.632473
3831111126,健榮中醫診所,私立中醫診所,中醫一般診所,新北市汐止區,2692-6991,新北市汐止區康寧街487號1樓,,25.068658,121.632345
3831111162,大漢中醫診所,私立中醫診所,中醫一般診所,新北市汐止區,86919488,新北市汐止區忠孝東路212號1樓,,25.0664,121.662125
3831061890,賀安中醫診所,私立中醫診所,中醫一般診所,新北市新莊區,02 22069545,新北市新莊區龍安路495號1樓,,25.0183759,121.425702
3831061998,神農中醫診所,私立中醫診所,中醫一般診所,新北市新莊區,02-22791359,新北市新莊區新泰路三四二號一樓,,25.042328,121.444967
3831062048,大德中醫診所,私立中醫診所,中醫一般診所,新北市新莊區,02-82012550,新北市新莊區新莊路四七五號一樓,,25.0333754,121.4490663
3831062084,佑德中醫診所,私立中醫診所,中醫一般診所,新北市新莊區,02-22070619,新北市新莊區八德街137號1樓,,25.0207139,121.424104
3831062100,慶安居中醫診所,私立中醫診所,中醫一般診所,新北市新莊區,29980799,新北市新莊區中港路259號1樓,,25.0431979,121.4537029
3831062119,大方中醫診所,私立中醫診所,中醫診所,新北市新莊區,22063390,新北市新莊區中誠街13號1樓,,25.0481061,121.4519645
3831012593,同心堂中醫診所,私立中醫診所,中醫一般診所,新北市板橋區,89531121,新北市板橋區中山路2段123號1樓,,25.0165299,121.4748371
3831012691,板橋同仁堂中醫診所,私立中醫診所,中醫一般診所,新北市板橋區,29589000,新北市板橋區四川路一段一三○號,,25.0114095,121.4618415
3831012753,和康中醫診所,私立中醫診所,中醫一般診所,新北市板橋區,89530695,新北市板橋區中山路二段291-11號一樓,,25.018312,121.478176
3831012799,基平中醫診所,私立中醫診所,中醫一般診所,新北市板橋區,02 29517851,新北市板橋區四川路二段一一六號一樓,,24.9940709,121.450256
3831012904,宏仁中醫診所,私立中醫診所,中醫一般診所,新北市板橋區,02 29560337,新北市板橋區忠孝路五十七號一樓,,25.0021209,121.461393
3831012959,蓁禾堂中醫診所,私立中醫診所,中醫專科診所,新北市板橋區,222533579,新北市板橋區文化路二段六號,,25.0239994,121.4689112
3831013009,遠東中醫診所,私立中醫診所,中醫一般診所,新北市板橋區,229638668,新北市板橋區漢生東路335號1樓,,25.007765,121.4720259
3831013072,鈺安中醫診所,私立中醫診所,中醫一般診所,新北市板橋區,282586204,新北市板橋區陽明街一三０號一樓,,25.021485,121.466502
3831010044,竹林中醫診所,私立中醫診所,中醫一般診所,新北市板橋區,02 -22560966,新北市板橋區漢生西路７７之２號,,25.019041,121.462746
3831010053,國平內科中醫診所,私立中醫診所,中醫一般診所,新北市板橋區,02 9670629,新北市板橋區中正路１巷６號,,25.0118371,121.4555382
3831010115,吉安堂中醫診所,私立中醫診所,中醫一般診所,新北市板橋區,02 9681998,新北市板橋區後菜園街４３號,,25.0099849,121.456217
3831010124,生永中醫診所,私立中醫診所,中醫一般診所,新北市板橋區,02 9651386,新北市板橋區中正路２９號,,25.012811,121.456082
3831010179,漢昇中醫診所,私立中醫診所,中醫一般診所,新北市板橋區,02 9524149,新北市板橋區三民路二段３５巷２１號,,25.013242,121.478742
3831010277,新榮盛中醫診所,私立中醫診所,中醫一般診所,新北市板橋區,02 9669065,新北市板橋區國光路一八五號,,25.0186356,121.4609823
3831010320,黃永生中醫診所,私立中醫診所,中醫一般診所,新北市板橋區,02 9552848,新北市板橋區中山路一段２８號,,25.0084409,121.460437
3831010357,壽春中醫診所,私立中醫診所,中醫一般診所,新北市板橋區,02 9693238,新北市板橋區中正路２３６巷６號,,25.0189225,121.4560557
3831010393,惠群中醫診所,私立中醫診所,中醫一般診所,新北市板橋區,02 9589788,新北市板橋區民族路165號1樓,,25.007687,121.4683489
3831010508,福安堂中醫診所,私立中醫診所,中醫一般診所,新北市板橋區,02-29532645,新北市板橋區重慶路一九三號一樓,,25.0020034,121.4628628
3831062217,天澤中醫診所,私立中醫診所,中醫診所,新北市新莊區,89925687,新北市新莊區中華路2段91號1樓,,25.0494881,121.4525857
3831062235,仁愛中醫診所,私立中醫診所,中醫診所,新北市新莊區,29018130,新北市新莊區中正路879-6號1樓,,25.026172,121.417987
3831062262,德安中醫診所,私立中醫診所,中醫診所,新北市新莊區,22040866,新北市新莊區民安西路187號,,25.015558,121.426258
3831070031,新永生中醫診所,私立中醫診所,中醫一般診所,新北市樹林區,02 26807360,新北市樹林區佳園路1段22-8號1樓,,24.9713114,121.3927489
3831070148,陳春錦中醫診所,私立中醫診所,中醫一般診所,新北市樹林區,02 26843777,新北市樹林區樹德街22號1樓,,24.9916322,121.4226666
3831071369,漢昌中醫診所,私立中醫診所,中醫一般診所,新北市樹林區,26753115,新北市樹林區保安街一段三一五號,,24.997956,121.417747
3831071387,游中醫診所,私立中醫診所,中醫一般診所,新北市樹林區,26837933,新北市樹林區樹新路三十六之一號,,24.9974669,121.4293037
3831071458,樹林同欣堂中醫診所,私立中醫診所,中醫一般診所,新北市樹林區,02-26757616,新北市樹林區日新街45號,,24.991953,121.422726
3831071467,華邦中醫診所,私立中醫診所,中醫診所,新北市樹林區,26872887,新北市樹林區保安街一段118號,,24.99496,121.4234536
3831071476,祥瑞中醫診所,私立中醫診所,中醫診所,新北市樹林區,86865980,新北市樹林區八德街102、106、106之1號,,24.9809599,121.4203511
3831080046,世達中醫診所,私立中醫診所,中醫一般診所,新北市鶯歌區,02 6796812,新北市鶯歌區鶯桃路３７３號,,24.96313,121.333278
3831051616,百漢中醫診所,私立中醫診所,中醫一般診所,新北市新店區,229178569,新北市新店區中正路一一三號一樓,,24.971013,121.5422078
3831051661,安慶中醫診所,私立中醫診所,中醫一般診所,新北市新店區,02-22152889,新北市新店區安康路三段51號1樓,,24.9524004,121.4927773
3831060035,劉俊男中醫診所,私立中醫診所,中醫一般診所,新北市新莊區,02 9917110,新北市新莊區民樂街８５號,,25.0432394,121.4578199
3831060099,樹德中醫診所,私立中醫診所,中醫一般診所,新北市新莊區,02 9941403,新北市新莊區中港路１１１號,,25.0396939,121.45518
3831060124,黃高村中醫診所,私立中醫診所,中醫一般診所,新北市新莊區,02 2051595,新北市新莊區民全街八號,,25.0215972,121.4291001
3831060133,平安中醫診所,私立中醫診所,中醫一般診所,新北市新莊區,02 9944169,新北市新莊區中港三街３５號,,25.0462106,121.4500653
3831060142,曾亨安中醫診所,私立中醫診所,中醫一般診所,新北市新莊區,02 29031079,新北市新莊區中正路８８３巷３號1樓,,25.036326,121.4559937
3831060179,楊中醫診所,私立中醫診所,中醫一般診所,新北市新莊區,02 2095366,新北市新莊區富國路１４４號,,25.024823,121.42279
3831060197,瑞宏中醫診所,私立中醫診所,中醫一般診所,新北市新莊區,02 2033932,新北市新莊區新莊路３９８號,,25.0334595,121.4487034
3831060240,安心中醫診所,私立中醫診所,中醫一般診所,新北市新莊區,02 29910199,新北市新莊區中和街一九八號一樓,,25.050211,121.44767
3831010580,林園中醫診所,私立中醫診所,中醫一般診所,新北市板橋區,02 29609611,新北市板橋區林園街二十四號,,25.009934,121.453838
3831010599,廖世輝中醫診所,私立中醫診所,中醫一般診所,新北市板橋區,02 9542343,新北市板橋區國慶路１４９巷３６號,,24.9980244,121.4610233
3831010679,泰源中醫診所,私立中醫診所,中醫一般診所,新北市板橋區,02 9621298,新北市板橋區四川路一段９８號,,25.004861,121.4596504
3831010704,莒光中醫診所,私立中醫診所,中醫一般診所,新北市板橋區,02 2531188,新北市板橋區莊敬路171號,,25.0238601,121.4711205
3831010731,儒林居中醫診所,私立中醫診所,中醫一般診所,新北市板橋區,02 2526419,新北市板橋區雙十路三段２２號,,25.030831,121.471398
3831010740,廣生堂中醫診所,私立中醫診所,中醫一般診所,新北市板橋區,02 9678438,新北市板橋區府中路７８號,,25.009597,121.456434
3831010839,德昇中醫診所,私立中醫診所,中醫一般診所,新北市板橋區,02 9698399,新北市板橋區中正路37號1F、B1F,,25.013144,121.456132
3831010946,陳榮文中醫診所,私立中醫診所,中醫一般診所,新北市板橋區,02 2272-3526,新北市板橋區新生街11號1樓,,25.021285,121.4552411
3831011158,良醫中醫診所,私立中醫診所,中醫一般診所,新北市板橋區,02 29636381,新北市板橋區四維路１２４號,,25.025075,121.465484
3831060286,仁山中醫診所,私立中醫診所,中醫一般診所,新北市新莊區,02 9924738,新北市新莊區幸福路７９３號,,25.0490053,121.4464616
3831060311,劉茂祥中醫診所,私立中醫診所,中醫一般診所,新北市新莊區,02 9924158,新北市新莊區幸福路655號1樓,,25.0490574,121.4510666
3831060508,永福中醫診所,私立中醫診所,中醫一般診所,新北市新莊區,2030799,新北市新莊區民安西路６７號,,25.020103,121.427541
3831060679,豐生中醫診所,私立中醫診所,中醫一般診所,新北市新莊區,282012206,新北市新莊區富國路146號,,25.0247999,121.422862
3831042500,申一中醫診所,私立中醫診所,中醫一般診所,新北市中和區,82216711,新北市中和區員山路四六０號一樓,,24.9914285,121.482116
3831042537,宜佑中醫診所,私立中醫診所,中醫一般診所,新北市中和區,22218976,新北市中和區莒光路一一三號一樓,,25.0024162,121.472589
3831042644,世安中醫診所,私立中醫診所,中醫診所,新北市中和區,22264880,新北市中和區新生街3號1樓,,25.0046979,121.4834442
3831042715,漢元中醫診所,私立中醫診所,中醫診所,新北市中和區,29451110,新北市中和區興南路一段119號1樓,,24.9884854,121.5095183
3831042779,詹錫彥中醫診所,私立中醫診所,中醫診所,新北市中和區,29453592,新北市中和區宜安路159號,,24.9987959,121.508822
3831042788,元真堂中醫診所,私立中醫診所,中醫診所,新北市中和區,29452985,新北市中和區捷運路149號1樓,,24.9910073,121.5064207
3831042813,玖德中醫診所,私立中醫診所,中醫診所,新北市中和區,22401898,新北市中和區景安路78-1.80號1樓,,24.9964699,121.5055469
3831042831,刁仁杰中醫診所,私立中醫診所,中醫診所,新北市中和區,22227562,新北市中和區莒光路155號1樓,,25.0008487,121.4728295
3831042859,富邦中醫診所,私立中醫診所,中醫診所,新北市中和區,229487720,新北市中和區忠孝街85號1樓,,24.9853552,121.5120175
3831050011,德昌中醫診所,私立中醫診所,中醫一般診所,新北市新店區,02 9115401,新北市新店區中正路３７０號,,24.976766,121.534995
3831050020,順安堂傷科中醫診所,私立中醫診所,中醫專科診所,新北市新店區,02 9155971,新北市新店區順安街１６號,,24.985154,121.5410824
3831050039,德林中醫診所,私立中醫診所,中醫一般診所,新北市新店區,02 9420086,新北市新店區安和路三段１３３號,,24.9852329,121.516965
3831050048,仁安中醫診所,私立中醫診所,中醫一般診所,新北市新店區,02 9112867,新北市新店區光明街１７８號,,24.962037,121.539689
3831050057,萬安中醫診所,私立中醫診所,中醫一般診所,新北市新店區,02 9110148,新北市新店區中正路234號2樓,,24.9730408,121.5398951
3831050182,健宏中醫診所,私立中醫診所,中醫一般診所,新北市新店區,2218-8120,新北市新店區中央路一九八號,,24.974558,121.530559
3831050208,新店建成中醫診所,私立中醫診所,中醫一般診所,新北市新店區,29135522,新北市新店區北新路二段176、178號1樓,,24.97588,121.543116
3831050226,新福安中醫診所,私立中醫診所,中醫一般診所,新北市新店區,229105657,新北市新店區中正路三二０號一樓,,24.9937623,121.502444
3831050244,育豐中醫診所,私立中醫診所,中醫一般診所,新北市新店區,02 9111367,新北市新店區三民路７３號,,24.9712978,121.5361441
3831051438,新店榮星中醫診所,私立中醫診所,中醫一般診所,新北市新店區,02 89113502,新北市新店區大豐路二十四號,,24.9801648,121.5406098
3831040622,培敦中醫診所,私立中醫診所,中醫一般診所,新北市中和區,02 2484969,新北市中和區連城路２６１－４號１樓,,24.9963841,121.4921146
3831040748,大眾中醫診所,私立中醫診所,中醫一般診所,新北市中和區,222266680,新北市中和區員山路一七六號,,25.000034,121.4814163
3831040784,景新中醫診所,私立中醫診所,中醫一般診所,新北市中和區,286687686,新北市中和區景新街４４８號,,24.9879471,121.5133645
3831040819,中和健宏中醫聯合診所,私立中醫診所,中醫一般診所,新北市中和區,229441995,新北市中和區景新街二九三號及二九五巷一號,,24.9932906,121.5099138
3831040864,元慶中醫診所,私立中醫診所,中醫一般診所,新北市中和區,936053501,新北市中和區保健路２７之４號,,24.9978584,121.5085528
3831040926,漢唐中醫診所,私立中醫診所,中醫一般診所,新北市中和區,289417376,新北市中和區捷運路１２５號１樓,,24.9904712,121.5076054
3831042019,國耀中醫診所,私立中醫診所,中醫一般診所,新北市中和區,29465157,新北市中和區南山路一六六號,,24.9915193,121.5047107
3831042233,詠德中醫診所,私立中醫診所,中醫一般診所,新北市中和區,02-22480658,新北市中和區中正路47號1樓,,24.9932949,121.5019165
3831042420,雋恩中醫診所,私立中醫診所,中醫一般診所,新北市中和區,29462789,新北市中和區景德街30號,,24.9914122,121.5183528
3831031810,廣澤中醫診所,私立中醫診所,中醫一般診所,新北市永和區,02 89217120,新北市永和區永元路三十二號一樓,,25.0006831,121.5224574
3831031829,清華中醫診所,私立中醫診所,中醫一般診所,新北市永和區,02  32335102,新北市永和區永元路八十九號,,25.001487,121.522236
3831031892,華信中醫診所,私立中醫診所,中醫一般診所,新北市永和區,29266688,新北市永和區保平路246號1樓,,25.0053862,121.509043
3831031909,昇揚中醫診所,私立中醫診所,中醫診所,新北市永和區,29489991,新北市永和區中正路一六一號,,24.998473,121.5164133
3831032013,福德中醫診所,私立中醫診所,中醫一般診所,新北市永和區,29283222,新北市永和區仁愛路241號一樓、241號B1,,25.0118109,121.508735
3731130110,顏式模牙醫診所,私立牙醫診所,牙醫一般診所,新北市土城區,02 2653048,新北市土城區裕民路１８５巷５號,,24.9848235,121.453648
3731130129,裕林牙醫診所,私立牙醫診所,牙醫一般診所,新北市土城區,02 2661490,新北市土城區立德路７４巷２號,,24.9865883,121.4639701
3731130138,仁安牙醫診所,私立牙醫診所,牙醫一般診所,新北市土城區,,新北市土城區廣興街２９號,,24.9915443,121.4556034
3731130165,微笑牙醫診所,私立牙醫診所,牙醫一般診所,新北市土城區,22664885,新北市土城區中央路1段234號1樓,,24.985219,121.444574
3731130183,振興牙醫診所,私立牙醫診所,牙醫一般診所,新北市土城區,02 2664029,新北市土城區明德路1段４１號,,24.9851978,121.4651456
3731130236,楊偉澤牙醫診所,私立牙醫診所,牙醫一般診所,新北市土城區,222746533,新北市土城區和平路四之一號一樓,,24.974565,121.442568
3731130245,加州牙醫診所,私立牙醫診所,牙醫一般診所,新北市土城區,02 22700134,新北市土城區中央路2段198號,,24.97588,121.441755
3731130254,宏恩牙醫診所,私立牙醫診所,牙醫一般診所,新北市土城區,22601105,新北市土城區中央路2段223之8號1樓,,24.973332,121.440749
3731130272,錫安牙醫診所,私立牙醫診所,牙醫一般診所,新北市土城區,22637722,新北市土城區學府路1段五三號一樓,,24.9883083,121.4575611
3731130316,嘉銳牙醫診所,私立牙醫診所,牙醫一般診所,新北市土城區,02 2702412,新北市土城區學府路1段１６８號,,24.9866452,121.4539223
3731130487,良一牙醫診所,私立牙醫診所,牙醫一般診所,新北市土城區,02 2738329,新北市土城區裕民路２６１－１號１樓,,24.9826713,121.4551306
3731130512,盛泓牙醫診所,私立牙醫診所,牙醫一般診所,新北市土城區,02 2643882,新北市土城區學府路1段三三號,,24.9883503,121.45803
3731130530,冠文牙醫診所,私立牙醫診所,牙醫一般診所,新北市土城區,2617667,新北市土城區延和路二四四號,,24.989868,121.469637
3731130567,土城芳鄰牙醫診所,私立牙醫診所,牙醫一般診所,新北市土城區,02 2606722,新北市土城區慶安街３５號,,24.973202,121.441402
3731130629,新亞牙醫診所,私立牙醫診所,牙醫一般診所,新北市土城區,02 2628813,新北市土城區中央路4段１３９之２號,,24.9572108,121.4158383
3731130665,莒光牙醫診所,私立牙醫診所,牙醫一般診所,新北市土城區,222743687,新北市土城區延吉街288、290號,,24.9843055,121.4648725
3731130683,施潔慧牙醫診所,私立牙醫診所,牙醫一般診所,新北市土城區,222658126,新北市土城區裕民路八十一號一樓,,24.987531,121.449994
3731111679,成合牙醫診所,私立牙醫診所,牙醫一般診所,新北市汐止區,26435978,新北市汐止區新台五路二段六號,,25.0648548,121.6600966
3731100390,朝日牙醫診所,私立牙醫診所,牙醫一般診所,新北市淡水區,02 28082822,新北市淡水區自強路78號１樓,,25.1279198,121.463032
3731100416,華齡牙醫診所,私立牙醫診所,牙醫一般診所,新北市淡水區,226204999,新北市淡水區新民街８６號,,25.1766771,121.4384191
3731100443,煥然牙醫診所,私立牙醫診所,牙醫一般診所,新北市淡水區,226203844,新北市淡水區中山北路一段五十五號,,25.1756075,121.4418142
3731101477,晶晶牙科診所,私立牙醫診所,牙醫一般診所,新北市淡水區,26291433,新北市淡水區清水街六號1、2樓,,25.1703759,121.445168
3731101495,瑞竹醫典牙醫診所,私立牙醫診所,牙醫一般診所,新北市淡水區,228085143,新北市淡水區民族路27號2樓,,25.1368059,121.4606538
3731101511,新偕牙醫診所,私立牙醫診所,牙醫一般診所,新北市淡水區,226202071,新北市淡水區北新路一二三號一樓,,25.1787075,121.4490285
3731101520,蒞恩牙醫診所,私立牙醫診所,牙醫一般診所,新北市淡水區,02-26257007,新北市淡水區新春街198號,,25.1807776,121.4439206
3731101539,淡水聯合牙醫診所,私立牙醫診所,牙醫一般診所,新北市淡水區,86310430,新北市淡水區英專路五十三號,,25.1708663,121.4456782
3731101584,英專聯合牙醫診所,私立牙醫診所,牙醫一般診所,新北市淡水區,26200340,新北市淡水區水源街一段80號,,25.1722152,121.4456411
3731101593,名遠牙醫診所,私立牙醫診所,牙醫一般診所,新北市淡水區,02-28093051(02-28093705),新北市淡水區民生路４７之６號,,25.1381424,121.4623255
3731101628,新光牙醫診所,私立牙醫診所,牙醫一般診所,新北市淡水區,02-26239394,新北市淡水區清水街34巷1號及3號1樓及2樓,,25.1700556,121.4419471
3731101646,佛仁牙醫診所,私立牙醫診所,牙醫一般診所,新北市淡水區,28092688,新北市淡水區民權路179之2號2樓,,25.1349218,121.4596856
3731101655,文化牙醫診所,私立牙醫診所,牙醫診所,新北市淡水區,,新北市淡水區中正路294-1號1樓,,25.1720828,121.437766
3731052479,丰采美學牙醫診所,私立牙醫診所,牙醫診所,新北市新店區,222190055,新北市新店區中央路210-1號1樓,,24.973735,121.5300831
3731052497,鄺懷德牙醫診所,私立牙醫診所,牙醫診所,新北市新店區,229172587,新北市新店區民族路171號1樓,,24.9764967,121.5375468
3731052504,盈佳牙醫診所,私立牙醫診所,牙醫診所,新北市新店區,229114696,新北市新店區中正路211號2樓,,24.9727672,121.5397847
3731060015,康德牙醫診所,私立牙醫診所,牙醫一般診所,新北市新莊區,02 9937306,新北市新莊區幸福路７９號,,25.0493402,121.456815
3731060051,長興牙醫診所,私立牙醫診所,牙醫一般診所,新北市新莊區,02　22014829,新北市新莊區中正路二九三號一、二樓,,25.0349974,121.4486803
3731060097,和泰牙醫診所,私立牙醫診所,牙醫一般診所,新北市新莊區,02 2026516,新北市新莊區八德街８３號,,25.022001,121.424838
3731060122,懷恩牙醫診所,私立牙醫診所,牙醫一般診所,新北市新莊區,02 9033471,新北市新莊區富國路６１號1樓、地下1樓,,25.0263049,121.419591
3731060131,大新莊牙醫診所,私立牙醫診所,牙醫一般診所,新北市新莊區,(02)29919731,新北市新莊區中正路246號1樓,,25.0352867,121.4479878
3731060177,輔仁牙醫診所,私立牙醫診所,牙醫一般診所,新北市新莊區,02 82010299,新北市新莊區建國一路8號1.2.3樓及6號2樓,,25.031878,121.433464
3731060186,宏林牙醫診所,私立牙醫診所,牙醫一般診所,新北市新莊區,02 9937646,新北市新莊區新泰路２９１號,,25.0407328,121.4454333
3731060195,北陵牙醫診所,私立牙醫診所,牙醫一般診所,新北市新莊區,02 9023922,新北市新莊區民安路２７４號,,25.021289,121.427718
3731060202,安德牙醫診所,私立牙醫診所,牙醫一般診所,新北市新莊區,02 9968211,新北市新莊區中港三街３號,,25.0461181,121.4498881
3731060220,康勝牙醫診所,私立牙醫診所,牙醫一般診所,新北市新莊區,02 9919649,新北市新莊區自立街１１５號,,25.0455706,121.455663
3731060257,新華牙醫診所,私立牙醫診所,牙醫一般診所,新北市新莊區,02 2760878,新北市新莊區公園路７７號,,25.0404253,121.4541874
3731060319,德旺牙醫診所,私立牙醫診所,牙醫一般診所,新北市新莊區,02 9972549,新北市新莊區中信街６號,,25.0509773,121.4514865
3731060337,博群牙醫診所,私立牙醫診所,牙醫一般診所,新北市新莊區,85222166,新北市新莊區中原路１０４號,,25.0543742,121.4507781
3731060355,家祥牙醫診所,私立牙醫診所,牙醫一般診所,新北市新莊區,02 2769006,新北市新莊區中平路８２巷２６號,,25.044684,121.4459101
3731060373,三愛牙醫診所,私立牙醫診所,牙醫一般診所,新北市新莊區,02 9915202,新北市新莊區幸福路６０４號,,25.0493215,121.4519656
3731060435,龍安牙醫診所,私立牙醫診所,牙醫一般診所,新北市新莊區,222068866,新北市新莊區民安西路７８巷１號１樓,,25.01981,121.426967
3731060499,宏明牙醫診所,私立牙醫診所,牙醫一般診所,新北市新莊區,02 9986898,新北市新莊區西盛街３１５號,,25.014938,121.428328
3731060604,冠倫牙醫診所,私立牙醫診所,牙醫一般診所,新北市新莊區,02 22762488,新北市新莊區中華路一段三十二 號,,25.037656,121.452174
3731050215,東北大牙醫診所,私立牙醫診所,牙醫一般診所,新北市新店區,02 9183993,新北市新店區北新路三段126號1、2樓,,24.981776,121.54177
3731050233,盧牙醫診所,私立牙醫診所,牙醫一般診所,新北市新店區,02 9119952,新北市新店區中正路１５５號,,24.9717729,121.541231
3731050251,博精牙醫診所,私立牙醫診所,牙醫一般診所,新北市新店區,02 9151631,新北市新店區中華路１０５號1樓,,24.9691804,121.5388606
3731050297,北新牙醫診所,私立牙醫診所,牙醫一般診所,新北市新店區,02 9113715,新北市新店區北新路一段２７１巷２號,,24.9670089,121.540665
3731050322,崇光牙醫診所,私立牙醫診所,牙醫一般診所,新北市新店區,02 9118677,新北市新店區三民路３號２樓,,24.9725345,121.539901
3731050340,北大牙醫診所,私立牙醫診所,牙醫一般診所,新北市新店區,02 9112896,新北市新店區中正路３２５號,,24.9749349,121.53607
3731050386,黃牙醫診所,私立牙醫診所,牙醫一般診所,新北市新店區,02 2102701,新北市新店區富貴街９巷１４號,,24.9489206,121.4944041
3731050395,郭濠生牙醫診所,私立牙醫診所,牙醫一般診所,新北市新店區,02 9141473,新北市新店區華中街６４號,,24.9714043,121.5414056
3731050402,展新牙醫診所,私立牙醫診所,牙醫一般診所,新北市新店區,222198096,新北市新店區建國路一五五號,,24.9788885,121.5386947
3731050411,寶麒牙醫診所,私立牙醫診所,牙醫一般診所,新北市新店區,02 9136565,新北市新店區三民路１５５號,,24.973521,121.533592
3731050457,恒愛牙醫診所,私立牙醫診所,牙醫一般診所,新北市新店區,02 9102101,新北市新店區中正路４９號,,24.9698036,121.5446142
3731050493,親親牙醫診所,私立牙醫診所,牙醫一般診所,新北市新店區,02 29185686,新北市新店區光明街二九二號二樓,,24.964715,121.540686
3731050500,慧國牙醫診所,私立牙醫診所,牙醫一般診所,新北市新店區,02 9102844,新北市新店區中正路３１８號１Ｆ,,24.9748557,121.5371375
3731031032,新和牙醫診所,私立牙醫診所,牙醫一般診所,新北市永和區,02 9210965,新北市永和區永貞路342號1樓,,25.005804,121.511044
3731031041,東捷牙醫診所,私立牙醫診所,牙醫一般診所,新北市永和區,02 2316161,新北市永和區中正路６３０號,,25.0080283,121.5170717
3731031096,瓔美牙醫診所,私立牙醫診所,牙醫診所,新北市永和區,02 29267626,新北市永和區林森路105號1樓,,25.0034534,121.523367
3731031158,喜田牙醫診所,私立牙醫診所,牙醫一般診所,新北市永和區,89231088,新北市永和區中正路491號1樓,,25.0066477,121.5168937
3731031176,蕙齡牙醫診所,私立牙醫診所,牙醫一般診所,新北市永和區,229216309,新北市永和區永貞路七號,,25.0073465,121.5211452
3731031201,安潔牙醫診所,私立牙醫診所,牙醫一般診所,新北市永和區,22318855,新北市永和區大新街十二號一樓,,25.0084264,121.5149579
3731031238,遠丁牙醫診所,私立牙醫診所,牙醫一般診所,新北市永和區,9283198,新北市永和區竹林路一七六號二樓,,25.009872,121.520258
3731031265,晉安牙醫診所,私立牙醫診所,牙醫一般診所,新北市永和區,02-32339429,新北市永和區永和路一段８號１．２樓,,25.0045519,121.512896
3731031336,永和嘉仁牙醫診所,私立牙醫診所,牙醫一般診所,新北市永和區,289269171,新北市永和區竹林路123號一樓,,25.011381,121.520234
3731031345,啟順牙醫診所,私立牙醫診所,牙醫一般診所,新北市永和區,286606979,新北市永和區仁愛路１４５號,,25.012857,121.511356
3731031363,唯豋牙醫診所,私立牙醫診所,牙醫一般診所,新北市永和區,3361324,新北市永和區福和路２７０號,,25.0076043,121.5179713
3731031381,歐首牙醫診所,私立牙醫診所,牙醫一般診所,新北市永和區,286681959,新北市永和區中正路三三四號一樓二樓,,24.999917,121.517847
3731031407,慶齡牙醫診所,私立牙醫診所,牙醫一般診所,新北市永和區,229262718,新北市永和區安樂路２３８號,,25.0026815,121.5150432
3731031461,博新牙醫診所,私立牙醫診所,牙醫一般診所,新北市永和區,229202681,新北市永和區中正路三六０號,,24.9941607,121.5129543
3731032619,華賢牙醫診所,私立牙醫診所,牙醫一般診所,新北市永和區,02 89216987,新北市永和區福和路九十八號,,25.0080974,121.5223151
3731032637,郁遠牙醫診所,私立牙醫診所,牙醫一般診所,新北市永和區,02 29263010,新北市永和區保安路一三二號,,25.015376,121.508845
3731032646,誼安牙醫診所,私立牙醫診所,牙醫一般診所,新北市永和區,02 29480567,新北市永和區中正路28號1.2樓,,24.9940065,121.5128222
3731032655,小木屋牙醫聯合診所,私立牙醫診所,牙醫一般診所,新北市永和區,02 82316123,新北市永和區保生路二十二巷八號一樓,,25.007919,121.507247
3731022695,惠心牙醫診所,私立牙醫診所,牙醫一般診所,新北市三重區,89813422,新北市三重區重陽路一段一三０巷一弄九號四樓,,25.0575359,121.4867459
3731022757,泛美牙醫診所,私立牙醫診所,牙醫一般診所,新北市三重區,22867689,新北市三重區溪尾街一六四號一樓,,25.080151,121.488637
3731022793,保誠牙醫診所,私立牙醫診所,牙醫一般診所,新北市三重區,8985-7701,新北市三重區雙園街一０九號,,25.0683434,121.497512
3731022800,勝華牙醫診所,私立牙醫診所,牙醫一般診所,新北市三重區,89819633,新北市三重區中華路８６號,,25.062854,121.483266
3731022819,群和牙醫診所,私立牙醫診所,牙醫一般診所,新北市三重區,0933-888-070,新北市三重區仁愛街四九九號,,25.0823018,121.4881394
3731022837,親德牙醫診所,私立牙醫診所,牙醫一般診所,新北市三重區,02-29751121,新北市三重區重新路一段82號1樓,,25.06343,121.5017175
3731022846,安慶牙醫診所,私立牙醫診所,牙醫一般診所,新北市三重區,89838333,新北市三重區重新路四段３３號１樓,,25.057904,121.48828
3731022855,華品牙醫診所,私立牙醫診所,牙醫一般診所,新北市三重區,9863966,新北市三重區三民街８１號１樓,,25.063087,121.4857829
3731022873,石公燦牙醫診所,私立牙醫診所,牙醫一般診所,新北市三重區,29856768,新北市三重區中正北路２８號１樓,,25.063358,121.488083
3731022882,宜德牙醫診所,私立牙醫診所,牙醫一般診所,新北市三重區,228743612,新北市三重區仁愛街四九七號,,25.0823033,121.488193
3731022917,祐民牙醫診所,私立牙醫診所,牙醫一般診所,新北市三重區,02-29720100,新北市三重區重新路二段八號,,25.062585,121.49978
3731022926,元品牙醫診所,私立牙醫診所,牙醫一般診所,新北市三重區,89821012,新北市三重區大榮街38號1樓,,25.063665,121.498647
3731022935,晶典牙醫診所,私立牙醫診所,牙醫診所,新北市三重區,89812101,新北市三重區重新路四段５３號,,25.057541,121.487729
3731013552,昱盛牙醫診所,私立牙醫診所,牙醫一般診所,新北市板橋區,0932214931   22542378,新北市板橋區英士路四十三號,,25.0248777,121.4614542
3731013589,忠丞牙醫診所,私立牙醫診所,牙醫一般診所,新北市板橋區,29585820,新北市板橋區中山路二段四○八號,,25.0114095,121.4618415
3731013614,晶美牙醫診所,私立牙醫診所,牙醫一般診所,新北市板橋區,89681189,新北市板橋區文化路一段219一1號(共四層使用1-3樓),,25.0173109,121.4637025
3731013623,英倫牙醫診所,私立牙醫診所,牙醫一般診所,新北市板橋區,02 82571818,新北市板橋區仁化街六十四巷三號二樓,,25.0316405,121.4760274
3731013669,振榮牙醫診所,私立牙醫診所,牙醫一般診所,新北市板橋區,02 29615813,新北市板橋區三民路二段一五七號,,25.0148511,121.4792544
3731013678,家德牙醫診所,私立牙醫診所,牙醫一般診所,新北市板橋區,02 89541305,新北市板橋區重慶路三０八巷十號,,25.007945,121.460705
3731013696,晴天牙醫診所,私立牙醫診所,牙醫一般診所,新北市板橋區,02 22516910,新北市板橋區文聖街23號及25號1樓,,25.0320501,121.4759114
3731013703,薪馨牙醫診所,私立牙醫診所,牙醫一般診所,新北市板橋區,02 89658960,新北市板橋區文化路一段七號一、二樓,,25.0098339,121.457757
3731013712,板橋誠品牙醫診所,私立牙醫診所,牙醫一般診所,新北市板橋區,02-29561250,新北市板橋區四川路1段57號2樓,,25.0061711,121.4596195
3731013758,聖恩牙醫診所,私立牙醫診所,牙醫一般診所,新北市板橋區,二二五二八三四一,新北市板橋區莒光路五十三號一樓,,25.0243919,121.4708735
3731013794,保時潔牙醫診所,私立牙醫診所,牙醫一般診所,新北市板橋區,229626878,新北市板橋區重慶路三００號,,25.0081689,121.460601
3731013801,菁樺牙醫診所,私立牙醫診所,牙醫一般診所,新北市板橋區,229599192,新北市板橋區民生路一段十九號一樓,,25.0113752,121.477474
3731013829,岳德聯合牙醫診所,私立牙醫診所,牙醫一般診所,新北市板橋區,02 2969-9292,新北市板橋區中正路四十三號一、二樓,,25.0133955,121.4561911
3731013838,大立牙醫診所,私立牙醫診所,牙醫一般診所,新北市板橋區,226835288,新北市板橋區溪北路一三０號,,24.990499,121.426793
3731013847,正欣牙醫診所,私立牙醫診所,牙醫一般診所,新北市板橋區,282573355,新北市板橋區新海路一一五號,,25.0228396,121.4610446
3731013874,馬太牙醫診所,私立牙醫診所,牙醫一般診所,新北市板橋區,229679982,新北市板橋區中正路二三四號之一,,25.0188349,121.455848
3731013909,安和牙醫診所,私立牙醫診所,牙醫一般診所,新北市板橋區,229606415,新北市板橋區大觀路二段一四二之四號,,24.9990216,121.4422921
3731013936,匯通牙醫診所,私立牙醫診所,牙醫一般診所,新北市板橋區,289532920,新北市板橋區忠孝路四六號,,25.0018869,121.460602
3731013963,德全牙醫診所,私立牙醫診所,牙醫一般診所,新北市板橋區,二六八七六六0六,新北市板橋區篤行路二段七十八號一、二樓,,24.991979,121.431447
3731013990,台達牙醫診所,私立牙醫診所,牙醫一般診所,新北市板橋區,82512311,新北市板橋區文化路一段一三四號,,25.0187689,121.46524
3731014013,潔品牙醫聯合診所,私立牙醫診所,牙醫一般診所,新北市板橋區,22598811,新北市板橋區文化路一段359號1、2、3、4樓,,25.0212924,121.466604
3731014031,東華牙醫診所,私立牙醫診所,牙醫一般診所,新北市板橋區,229620089,新北市板橋區中山路二段二００號,,25.0153484,121.4731813
3731014059,正安牙醫診所,私立牙醫診所,牙醫一般診所,新北市板橋區,26833868,新北市板橋區金門街249號,,24.989041,121.432033
3731014077,新埔牙醫診所,私立牙醫診所,牙醫一般診所,新北市板橋區,,新北市板橋區文化路二段１７號,,25.024491,121.468491
3731011343,仁宏牙醫診所,私立牙醫診所,牙醫一般診所,新北市板橋區,02 9616748,新北市板橋區重慶路７６巷６號,,25.0064159,121.46127
3731011414,勇年牙醫診所,私立牙醫診所,牙醫一般診所,新北市板橋區,02 2570479,新北市板橋區文化路一段２７７號,,25.0185378,121.4646939
3731011423,陽信牙醫診所,私立牙醫診所,牙醫一般診所,新北市板橋區,02 2598248,新北市板橋區陽明街１１０號１Ｆ,,25.0233749,121.463934
3731011469,玉林牙醫診所,私立牙醫診所,牙醫一般診所,新北市板橋區,02 6825901,新北市板橋區篤行路二段１０７號,,24.9911663,121.4315975
3731011549,台笙牙醫診所,私立牙醫診所,牙醫一般診所,新北市板橋區,02 6816712,新北市板橋區溪北路８３號,,24.989707,121.428587
3731011576,良鴻牙醫診所,私立牙醫診所,牙醫一般診所,新北市板橋區,02 22537835,新北市板橋區仁化街八七號一樓,,25.032099,121.4761719
3731011585,浩明牙醫診所,私立牙醫診所,牙醫一般診所,新北市板橋區,(02) 22543192,新北市板橋區民治街５２巷５弄１號１Ｆ,,25.0330889,121.4794217
3731132043,永光牙醫診所,私立牙醫診所,牙醫診所,新北市土城區,22602089,新北市土城區中央路1段283號1樓,,24.9844951,121.4445494
3731140018,宏昇牙醫診所,私立牙醫診所,牙醫一般診所,新北市蘆洲區,02 2822741,新北市蘆洲區復興路１１５號,,25.0881748,121.4772911
3731140027,仁愛牙科診所,私立牙醫診所,牙醫一般診所,新北市蘆洲區,02 2823869,新北市蘆洲區中山二路１２３號,,25.0815652,121.4722708
3731140054,晉泰牙醫診所,私立牙醫診所,牙醫一般診所,新北市蘆洲區,02 2820136,新北市蘆洲區中華街３０號,,25.0812703,121.4626172
3731140072,嘉齡牙醫診所,私立牙醫診所,牙醫一般診所,新北市蘆洲區,02-22822420,新北市蘆洲區中正路２１號、２３號１樓,,25.0819472,121.4713676
3731140090,長安牙醫診所,私立牙醫診所,牙醫一般診所,新北市蘆洲區,02 2888253,新北市蘆洲區長安街１１２號,,25.081594,121.460857
3731140125,水湳牙醫診所,私立牙醫診所,牙醫一般診所,新北市蘆洲區,222853940,新北市蘆洲區民族路四六八號,,25.0917847,121.4716457
3731140161,盧洲陳牙醫診所,私立牙醫診所,牙醫一般診所,新北市蘆洲區,02 2881545,新北市蘆洲區中正路７２號,,25.0833209,121.4703799
3731140189,永全牙醫診所,私立牙醫診所,牙醫一般診所,新北市蘆洲區,02 2881488,新北市蘆洲區民族路269號1樓,,25.0907214,121.4762121
3731140198,普惠牙醫診所,私立牙醫診所,牙醫一般診所,新北市蘆洲區,,新北市蘆洲區中正路１１６號,,25.0847887,121.4694648
3731140223,永富牙醫診所,私立牙醫診所,牙醫一般診所,新北市蘆洲區,288480531,新北市蘆洲區民族路四二六巷八號一樓,,25.092294,121.4736436
3731140232,長青牙醫診所,私立牙醫診所,牙醫一般診所,新北市蘆洲區,02 2891796,新北市蘆洲區中山二路八十三號,,25.0817961,121.4732021
3731140269,鄭書?牙醫診所,私立牙醫診所,牙醫一般診所,新北市蘆洲區,02 2825789,新北市蘆洲區集賢路二二四巷五十四號一樓,,25.0880192,121.4810445
3731140278,雙宏牙醫診所,私立牙醫診所,牙醫一般診所,新北市蘆洲區,〈02〉 28475031,新北市蘆洲區長安街７６號1、2樓,,25.0787195,121.4645883
3731140321,建德牙醫診所,私立牙醫診所,牙醫一般診所,新北市蘆洲區,02 8479211,新北市蘆洲區中華街１３號,,25.081681,121.463772
3731140358,大誠牙醫診所,私立牙醫診所,牙醫一般診所,新北市蘆洲區,02 2817969,新北市蘆洲區三民路３號1樓及2樓,,25.0819621,121.4757374
3731140385,信義牙醫診所,私立牙醫診所,牙醫一般診所,新北市蘆洲區,02 22895900,新北市蘆洲區信義路249號1樓,,25.0843867,121.4790103
3731140394,康福牙醫診所,私立牙醫診所,牙醫一般診所,新北市蘆洲區,22885200,新北市蘆洲區長安街二一八號一樓至二樓,,25.0844501,121.4584822
3731140492,昌輝牙醫診所,私立牙醫診所,牙醫一般診所,新北市蘆洲區,228486560,新北市蘆洲區永平街二十七號,,25.0908395,121.4585932
3731141622,上晴牙醫診所,私立牙醫診所,牙醫一般診所,新北市蘆洲區,82838311,新北市蘆洲區民族路5號1樓,,25.0840501,121.4756316
3731111731,康普森牙醫診所,私立牙醫診所,牙醫一般診所,新北市汐止區,26932815,新北市汐止區中興路一三五號一樓、二樓,,25.0655872,121.6316198
3731111759,陽明牙醫診所,私立牙醫診所,牙醫一般診所,新北市汐止區,26430822,新北市汐止區連興路五十號,,25.063417,121.65441
3731111777,牙典牙醫診所,私立牙醫診所,牙醫一般診所,新北市汐止區,〈０二〉二六九六一三九三,新北市汐止區新台五路一段九十六號,,25.060472,121.6483301
3731111795,倍得牙醫診所,私立牙醫診所,牙醫一般診所,新北市汐止區,86421206,新北市汐止區仁愛路17號1樓,,25.064037,121.659369
3731111811,幸福牙醫診所,私立牙醫診所,牙醫診所,新北市汐止區,26480029,新北市汐止區樟樹一路139巷1號1樓,,25.0659403,121.642139
3731120025,瑞益牙醫診所,私立牙醫診所,牙醫一般診所,新北市瑞芳區,02 4976802,新北市瑞芳區明燈路三段39-5號3樓,,25.107893,121.806937
3731120061,瑞芳李牙醫診所,私立牙醫診所,牙醫一般診所,新北市瑞芳區,02 4969580,新北市瑞芳區民生街五之一號一．二樓,,25.1080119,121.8061439
3731120070,泰順牙醫診所,私立牙醫診所,牙醫一般診所,新北市瑞芳區,02 24960975,新北市瑞芳區中正路７６號,,25.107643,121.805729
3731120089,芳德牙醫診所,私立牙醫診所,牙醫一般診所,新北市瑞芳區,24970287,新北市瑞芳區三爪子坑路89號之17 -1樓,,25.1072446,121.8119439
3731130012,杏林牙醫診所,私立牙醫診所,牙醫一般診所,新北市土城區,02 2618263,新北市土城區中央路1段２９８號,,24.982166,121.443187
3731130021,怡安牙醫診所,私立牙醫診所,牙醫一般診所,新北市土城區,02 9221357,新北市土城區廣明街８１號,,24.994121,121.454797
3731130058,土城許牙醫診所,私立牙醫診所,牙醫一般診所,新北市土城區,02 2654338,新北市土城區裕生路８２巷１號,,24.9855935,121.4472152
3731050582,旺威牙醫診所,私立牙醫診所,牙醫一般診所,新北市新店區,02 9129715,新北市新店區中興路三段１９０號一樓,,24.981711,121.544092
3731050617,新進牙醫診所,私立牙醫診所,牙醫一般診所,新北市新店區,02 9186408,新北市新店區北新路一段２４５號,,24.966107,121.540622
3731050626,弘安牙醫診所,私立牙醫診所,牙醫一般診所,新北市新店區,02 9125200,新北市新店區民族路６０號,,24.9785785,121.5397027
3731050653,迦南牙醫診所,私立牙醫診所,牙醫一般診所,新北市新店區,229178409,新北市新店區建國路１２號２Ｆ,,24.9736521,121.5401224
3731050662,許正傑牙醫診所,私立牙醫診所,牙醫一般診所,新北市新店區,02 2115982,新北市新店區安成街３０號,,24.9610426,121.5100113
3731050680,康保牙醫診所,私立牙醫診所,牙醫一般診所,新北市新店區,02 29133949,新北市新店區建國路一二O、一二二號一樓,,24.9736521,121.5401224
3731050699,永佳牙醫診所,私立牙醫診所,牙醫一般診所,新北市新店區,02 9127721,新北市新店區北新路二段１９５號,,24.978082,121.542452
3731050706,凱悅牙醫診所,私立牙醫診所,牙醫一般診所,新北市新店區,02 2119082,新北市新店區安康路二段１９６號２Ｆ,,24.9597934,121.5108066
3731050724,芳鄰牙醫診所,私立牙醫診所,牙醫一般診所,新北市新店區,229148772,新北市新店區民權路七十三號三樓,,24.9829237,121.5386533
3731050779,育傑牙醫診所,私立牙醫診所,牙醫一般診所,新北市新店區,02 9139233,新北市新店區民族路５０號,,24.978778,121.539988
3731050813,同愛牙醫診所,私立牙醫診所,牙醫一般診所,新北市新店區,9111178,新北市新店區光明街１６１號,,24.9625,121.539576
3731050831,青潭牙醫診所,私立牙醫診所,牙醫一般診所,新北市新店區,222176580,新北市新店區北宜路２段８２－１３號,,24.953321,121.554503
3731050868,德威牙醫診所,私立牙醫診所,牙醫一般診所,新北市新店區,229160206,新北市新店區北新路三段１０８號,,24.98135,121.54195
3731050895,紐約牙醫診所,私立牙醫診所,牙醫一般診所,新北市新店區,229142667,新北市新店區寶橋路６３號,,24.975166,121.545209
3731050939,新寶元牙醫診所,私立牙醫診所,牙醫一般診所,新北市新店區,229120017,新北市新店區寶元路二段十五號一樓,,24.982363,121.5462007
3731050948,上耀牙醫診所,私立牙醫診所,牙醫一般診所,新北市新店區,86672777,新北市新店區中正路639號,,24.9895399,121.533685
3731051945,蕙安牙醫診所,私立牙醫診所,牙醫一般診所,新北市新店區,29156828,新北市新店區三民路三十號一樓,,24.9712831,121.5367376
3731051990,冠雅牙醫診所,私立牙醫診所,牙醫一般診所,新北市新店區,02 29100766,新北市新店區中正路255號2樓,,24.9735011,121.5387806
3731052013,元祥牙醫診所,私立牙醫診所,牙醫一般診所,新北市新店區,02 89113355,新北市新店區中興路一段一九九號,,24.9655039,121.543123
3731052068,北都牙醫診所,私立牙醫診所,牙醫一般診所,新北市新店區,02 29102539,新北市新店區二十張路11巷1-1號3樓,,24.9825351,121.5398058
3731052095,得恩牙醫診所,私立牙醫診所,牙醫專科診所,新北市新店區,02-86653352,新北市新店區北新路三段十二號一樓,,24.9792199,121.5424823
3731052102,新益牙醫診所,私立牙醫診所,牙醫一般診所,新北市新店區,02-29188647,新北市新店區北宜路一段五十六號一樓,,24.956179,121.538223
3731052139,強生牙醫診所,私立牙醫診所,牙醫一般診所,新北市新店區,29178725,新北市新店區北新路三段一五八號二樓,,24.9827813,121.541558
3731052157,安琪兒牙醫診所,私立牙醫診所,牙醫一般診所,新北市新店區,02-22180816,新北市新店區中央路216-1號2樓,,24.973204,121.5297
3731041529,興南牙醫聯合診所,私立牙醫診所,牙醫一般診所,新北市中和區,289416261,新北市中和區興南路一段６５號,,24.9894435,121.5102541
3731042553,容華牙醫診所,私立牙醫診所,牙醫一般診所,新北市中和區,02-22251619,新北市中和區員山路三一五號一樓,,25.0004259,121.481184
3731042571,尖端牙醫診所,私立牙醫診所,牙醫一般診所,新北市中和區,22315968,新北市中和區中和路三三０號一樓,,25.0017819,121.500006
3731042580,虹佳牙醫診所,私立牙醫診所,牙醫一般診所,新北市中和區,29686436     0932192327,新北市中和區員山路138號,,24.9964349,121.481414
3731042599,全品牙醫診所,私立牙醫診所,牙醫一般診所,新北市中和區,82214053,新北市中和區員山路一一二號,,24.995619,121.481217
3731042606,華新牙醫診所,私立牙醫診所,牙醫一般診所,新北市中和區,29459151,新北市中和區華新街二十五號,,24.9850651,121.5076062
3731042624,德綸牙醫診所,私立牙醫診所,牙醫一般診所,新北市中和區,32332383,新北市中和區中安街98號1樓,,25.001252,121.5117237
3731042651,建隆牙醫診所,私立牙醫診所,牙醫一般診所,新北市中和區,82211417,新北市中和區中山路三段152號,,25.0063575,121.4734934
3731042679,瑞星牙醫診所,私立牙醫診所,牙醫一般診所,新北市中和區,22435343,新北市中和區安邦街130號1樓、132號2樓,,24.995643,121.497326
3731042688,潔生牙醫診所,私立牙醫診所,牙醫一般診所,新北市中和區,82423318,新北市中和區景平路七四○號,,24.9962178,121.4853103
3731042697,昱軒牙醫診所,私立牙醫診所,牙醫一般診所,新北市中和區,02 22438499,新北市中和區南華路四十五號,,24.9968832,121.5038741
3731042713,菁英牙醫診所,私立牙醫診所,牙醫一般診所,新北市中和區,282423466,新北市中和區景平路五二四號,,24.9942418,121.5032269
3731042731,邱牙醫診所,私立牙醫診所,牙醫一般診所,新北市中和區,02 22490038,新北市中和區南山路十號,,24.998582,121.5018815
3731022971,威登牙醫診所,私立牙醫診所,牙醫診所,新北市三重區,29813233,新北市三重區忠孝路三段32號1、2樓,,25.0671079,121.481467
3731022980,吉祐牙醫診所,私立牙醫診所,牙醫一般診所,新北市三重區,29758245,新北市三重區集美街一五三號,,25.053063,121.4909
3731022999,首席牙醫診所,私立牙醫診所,牙醫診所,新北市三重區,29868858,新北市三重區三和路三段102號1、2樓、104號1、2樓,,25.0698764,121.4973004
3731023012,詠琦牙醫診所,私立牙醫診所,牙醫診所,新北市三重區,29727111,新北市三重區中正南路89號1樓,,25.0582361,121.4940302
3731023021,冠華牙醫診所,私立牙醫診所,牙醫診所,新北市三重區,29854887,新北市三重區正義北路316號1、2樓,,25.0624857,121.4978153
3731030035,進安牙醫診所,私立牙醫診所,牙醫一般診所,新北市永和區,(02) 29243858,新北市永和區信義路25巷6號1樓,,25.0120891,121.5133508
3731030071,宜康牙醫診所,私立牙醫診所,牙醫一般診所,新北市永和區,02 9237310,新北市永和區安樂路２８２號,,25.0043354,121.5144973
3731030099,光泰牙醫診所,私立牙醫診所,牙醫一般診所,新北市永和區,02 9417903,新北市永和區中正路５４號,,24.9945733,121.5133031
3731030106,得和牙醫診所,私立牙醫診所,牙醫一般診所,新北市永和區,02 9415151,新北市永和區得和路２４７號二樓,,25.000155,121.520638
3731030124,王宏仁牙醫診所,私立牙醫診所,牙醫一般診所,新北市永和區,02 9215903,新北市永和區竹林路１７９巷１１號,,25.0100228,121.5211486
3731030204,保仁牙醫診所,私立牙醫診所,牙醫一般診所,新北市永和區,02 9227408,新北市永和區保福路二段１０１號,,25.013169,121.5103272
3731030213,智光牙醫診所,私立牙醫診所,牙醫一般診所,新北市永和區,02 9414127,新北市永和區中正路６０巷３號,,24.9954627,121.5138252
3731030277,葉牙醫診所,私立牙醫診所,牙醫一般診所,新北市永和區,02 9215721,新北市永和區永利路１２號,,25.0059105,121.517714
3731030295,慶星牙醫診所,私立牙醫診所,牙醫一般診所,新北市永和區,02 9247866,新北市永和區成功路二段６２號,,24.9994909,121.526541
3731030302,第一牙醫診所,私立牙醫診所,牙醫一般診所,新北市永和區,02 9293721,新北市永和區豫溪街１３７－４號,,25.0104365,121.5200342
3731030357,泰安牙醫診所,私立牙醫診所,牙醫一般診所,新北市永和區,02 9412275,新北市永和區中正路三一六號,,24.9994873,121.5176664
3731030384,光田牙醫診所,私立牙醫診所,牙醫一般診所,新北市永和區,02 9222300,新北市永和區文化路３７號,,25.0150084,121.514589
3731030473,崇恩牙醫診所,私立牙醫診所,牙醫一般診所,新北市永和區,02 9284967,新北市永和區文化路７９號,,25.015078,121.513608
3731030508,江華牙醫診所,私立牙醫診所,牙醫一般診所,新北市永和區,02 9256120,新北市永和區得和路２９５號,,24.9997299,121.5226636
3731030526,鴻林牙醫診所,私立牙醫診所,牙醫一般診所,新北市永和區,02 9297876,新北市永和區國光路１５號,,25.0083461,121.5200719
3731030535,雷鳴牙醫診所,私立牙醫診所,牙醫一般診所,新北市永和區,02 29414179,新北市永和區智光街116號1樓及2樓,,24.9959908,121.5152297
3731030544,上林牙醫診所,私立牙醫診所,牙醫一般診所,新北市永和區,02 9238636,新北市永和區林森路１０１巷１０號,,25.0034214,121.5237934
3731020744,大新牙醫診所,私立牙醫診所,牙醫一般診所,新北市三重區,02 9756374,新北市三重區重新路二段２２號,,25.062517,121.499339
3731020799,湯城牙醫診所,私立牙醫診所,牙醫一般診所,新北市三重區,02 9992721,新北市三重區重新路五段６０９巷２０號７Ｆ之６,,25.046025,121.4670144
3731020913,金龍牙醫診所,私立牙醫診所,牙醫一般診所,新北市三重區,02 29721440,新北市三重區中央南路十六號一樓,,25.0627717,121.5013405
3731020922,吳文財牙醫診所,私立牙醫診所,牙醫一般診所,新北市三重區,02 23681550,新北市三重區重新路三段89號1樓,,25.06013,121.4913971
3731020977,喜立牙醫診所,私立牙醫診所,牙醫一般診所,新北市三重區,29748106,新北市三重區電信街93號,,25.0582732,121.4955801
3731020995,德倫牙醫診所,私立牙醫診所,牙醫一般診所,新北市三重區,02 29847599,新北市三重區忠孝路二段42號,,25.0704479,121.485298
3731021018,三重埔牙醫診所,私立牙醫診所,牙醫一般診所,新北市三重區,02 29754808,新北市三重區福德北路33號,,25.064747,121.502532
3731021054,東山牙醫診所,私立牙醫診所,牙醫一般診所,新北市三重區,02-22868432,新北市三重區車路頭街141號1樓,,25.0765304,121.4840413
3731021081,聯合牙醫診所,私立牙醫診所,牙醫一般診所,新北市三重區,9894449,新北市三重區正義北路103號1-2樓,,25.0624857,121.4978153
3731011629,健和牙醫診所,私立牙醫診所,牙醫一般診所,新北市板橋區,9610242,新北市板橋區實踐路96號1、2樓及98號1、2樓,,25.004833,121.463986
3731011638,翰生牙醫診所,私立牙醫診所,牙醫一般診所,新北市板橋區,"02-22581489, 02-82585836",新北市板橋區漢生西路７１號,,25.018737,121.4628
3731011665,惠康牙醫診所,私立牙醫診所,牙醫一般診所,新北市板橋區,9565561,新北市板橋區四川路一段３５９號,,24.9997615,121.4584264
3731011674,人仁牙醫診所,私立牙醫診所,牙醫一般診所,新北市板橋區,9609879,新北市板橋區中正路９１號,,25.0144509,121.456408
3731011718,健倫牙醫診所,私立牙醫診所,牙醫一般診所,新北市板橋區,02 22578246,新北市板橋區莒光路157號,,25.0241381,121.4735897
3731011727,法華牙醫診所,私立牙醫診所,牙醫一般診所,新北市板橋區,02 28732397,新北市板橋區金門街301號,,24.9864681,121.4301187
3731011745,吳國柱牙醫診所,私立牙醫診所,牙醫一般診所,新北市板橋區,02 9601962,新北市板橋區國光路６３號１樓,,25.0182251,121.4588781
3731011834,東北牙醫診所,私立牙醫診所,牙醫一般診所,新北市板橋區,02-2956-7177,新北市板橋區忠孝路213號１、2樓,,25.0027765,121.4653998
3731011852,展望牙醫診所,私立牙醫診所,牙醫一般診所,新北市板橋區,222599308,新北市板橋區莊敬路一四九號,,25.0248002,121.4716603
3731011941,育德牙醫診所,私立牙醫診所,牙醫一般診所,新北市板橋區,29538995,新北市板橋區三民路二段一一三號,,25.01586,121.479324
3731011950,時代牙醫診所,私立牙醫診所,牙醫一般診所,新北市板橋區,02 9514305,新北市板橋區忠孝路１２號,,25.0017586,121.4597336
3731012037,時尚牙醫診所,私立牙醫診所,牙醫一般診所,新北市板橋區,02 22515000,新北市板橋區雙十路二段152號1樓,,25.0293897,121.4734072
3731012126,民懷牙醫診所,私立牙醫診所,牙醫一般診所,新北市板橋區,289641597,新北市板橋區國慶路一八一號,,24.996391,121.462679
3731012153,全安牙醫診所,私立牙醫診所,牙醫一般診所,新北市板橋區,222506938,新北市板橋區雙十路三段３５號,,25.0316452,121.470563
3731012162,松柏牙醫診所,私立牙醫診所,牙醫一般診所,新北市板橋區,282525051,新北市板橋區松柏街４１號,,25.0304062,121.4754818
3731012171,太平洋牙醫診所,私立牙醫診所,牙醫一般診所,新北市板橋區,229635654,新北市板橋區漢生東路三四八號一樓,,25.0071868,121.4719853
3731010186,鴻元牙醫診所,私立牙醫診所,牙醫一般診所,新北市板橋區,02 9512776,新北市板橋區中山路二段三八０號一樓,,25.0151682,121.4729224
3731010195,辭林牙科診所,私立牙醫診所,牙醫一般診所,新北市板橋區,02 9509527,新北市板橋區館前東路９８?３號,,25.007466,121.4627304
3731010211,偉仁牙醫診所,私立牙醫診所,牙醫一般診所,新北市板橋區,02 9581797,新北市板橋區三民路二段２０３－５號,,25.0134837,121.479211
3731010220,胡牙醫診所,私立牙醫診所,牙醫一般診所,新北市板橋區,02 2580233,新北市板橋區文化路一段１８８巷１６號,,25.0194625,121.4661605
3731010239,後站徐牙科診所,私立牙醫診所,牙醫一般診所,新北市板橋區,02 9615681,新北市板橋區忠孝路１０６號,,25.002135,121.4621414
3731010257,上揚牙醫診所,私立牙醫診所,牙醫一般診所,新北市板橋區,02 9671236,新北市板橋區府中路７號,,25.009525,121.459898
3731010266,板橋林牙醫診所,私立牙醫診所,牙醫一般診所,新北市板橋區,02 9632149,新北市板橋區民族路１７３號,,25.0076601,121.4686037
3731010300,潘牙醫診所,私立牙醫診所,牙醫一般診所,新北市板橋區,02 9692328,新北市板橋區北門街５６號２Ｆ,,25.011387,121.4567213
3731010328,大林牙醫診所,私立牙醫診所,牙醫一般診所,新北市板橋區,02 9683666,新北市板橋區文化路一段三號２Ｆ,,25.009742,121.457748
3731010337,麗德牙醫診所,私立牙醫診所,牙醫一般診所,新北市板橋區,02 2521405,新北市板橋區文化路二段20號2樓,,25.0243304,121.469035
3731010364,正昌牙醫診所,私立牙醫診所,牙醫一般診所,新北市板橋區,02 9552649,新北市板橋區裕民街３６巷１號,,25.0290571,121.4617585
3731010373,博仁牙醫診所,私立牙醫診所,牙醫一般診所,新北市板橋區,02 -29578272,新北市板橋區南雅南路二段一一之三號一樓,,25.0024179,121.454422
3731010382,頂好牙醫診所,私立牙醫診所,牙醫一般診所,新北市板橋區,02 2530276,新北市板橋區懷德街１２３號,,25.0311562,121.4788377
3731010408,益新牙醫診所,私立牙醫診所,牙醫一般診所,新北市板橋區,02 9586422,新北市板橋區南雅南路一段74號,,25.0051353,121.4553147
3731010435,章牙醫診所,私立牙醫診所,牙醫一般診所,新北市板橋區,02 9558997,新北市板橋區中山路二段８６號２樓,,25.0161949,121.4751193
3731010515,安信牙醫診所,私立牙醫診所,牙醫一般診所,新北市板橋區,02 2569616,新北市板橋區文化路一段３５５號1、2樓,,25.021188,121.466576
3731110038,永琦牙醫診所,私立牙醫診所,牙醫一般診所,新北市汐止區,02 6426883,新北市汐止區中正路１２５號２Ｆ,,25.069192,121.660272
3731110047,江北牙醫診所,私立牙醫診所,牙醫一般診所,新北市汐止區,02 6435621,新北市汐止區大同路二段四三四號二樓,,25.066981,121.659352
3731110065,復全牙醫診所,私立牙醫診所,牙醫一般診所,新北市汐止區,02 6412973,新北市汐止區中正路１６４號,,25.0695859,121.659362
3731110109,伯爵林牙醫診所,私立牙醫診所,牙醫一般診所,新北市汐止區,02 6428225,新北市汐止區翠峰街２３號１Ｆ－２,,25.076357,121.642798
3731110163,德惠牙醫診所,私立牙醫診所,牙醫一般診所,新北市汐止區,02 6484564,新北市汐止區忠孝東路３８４號,,25.070108,121.665706
3731110172,宏國牙醫診所,私立牙醫診所,牙醫診所,新北市汐止區,02-26430309,新北市汐止區樟樹一路141巷11號1樓,,25.066242,121.641797
3731110207,和昌牙醫診所,私立牙醫診所,牙醫一般診所,新北市汐止區,02-26488348,新北市汐止區大同路2段575號1樓、2樓,,25.070257,121.66321
3731110216,佑昌牙醫診所,私立牙醫診所,牙醫一般診所,新北市汐止區,02 6943570,新北市汐止區中興路九十五號,,25.064527,121.632524
3731110289,翔齡牙醫診所,私立牙醫診所,牙醫一般診所,新北市汐止區,02 6481901,新北市汐止區樟樹一路１１９巷４號１樓,,25.064427,121.641775
3731110314,上甯牙醫診所,私立牙醫診所,牙醫一般診所,新北市汐止區,02 6955846,新北市汐止區明峰街８６號,,25.0712299,121.631341
3731110341,嘉仁牙醫診所,私立牙醫診所,牙醫一般診所,新北市汐止區,26412171,新北市汐止區大同路二段五一九號,,25.0691,121.661445
3731110430,東波牙醫診所,私立牙醫診所,牙醫一般診所,新北市汐止區,6933389,新北市汐止區福德一路177巷6號1樓,,25.065747,121.6361096
3731110467,柏元牙醫診所,私立牙醫診所,牙醫一般診所,新北市汐止區,02 6931235,新北市汐止區忠孝東路314之1號,,25.0689161,121.6645109
3731110547,經典聯合牙醫診所,私立牙醫診所,牙醫一般診所,新北市汐止區,02-26904000,新北市汐止區樟樹一路二十號一樓,,25.062411,121.64182
3731110583,詠翔牙醫診所,私立牙醫診所,牙醫一般診所,新北市汐止區,226925481,新北市汐止區湖前街35號1樓,,25.0696222,121.6321902
3731110618,向陽牙醫診所,私立牙醫診所,牙醫一般診所,新北市汐止區,226486688,新北市汐止區大同路二段二九八號,,25.0662025,121.654551
3731110654,汐止真善美牙醫診所,私立牙醫診所,牙醫一般診所,新北市汐止區,286424165,新北市汐止區建成路三十四號,,25.0725086,121.6648795
3731071492,佳樹牙醫診所,私立牙醫診所,牙醫一般診所,新北市樹林區,86853639,新北市樹林區中華路335號1樓,,24.9801009,121.415946
3731071518,傑夫牙醫診所,私立牙醫診所,牙醫一般診所,新北市樹林區,86871133,新北市樹林區日新街32號一樓,,24.9923119,121.422562
3731071554,康耀牙醫診所,私立牙醫診所,牙醫一般診所,新北市樹林區,02-26872372,新北市樹林區保安二街95號,,24.9951473,121.4239557
3731071563,曙光牙醫診所,私立牙醫診所,牙醫一般診所,新北市樹林區,26758000,新北市樹林區中山路一段218號,,24.987963,121.421225
3731071581,辰林牙醫診所,私立牙醫診所,牙醫一般診所,新北市樹林區,02-86862062,新北市樹林區中華路二四七號,,24.9805853,121.4183422
3731071590,博士美牙醫診所,私立牙醫診所,牙醫診所,新北市樹林區,(02)26865586,新北市樹林區中山路一段116號1樓,,24.9906624,121.4228132
3731071607,廣安牙醫診所,私立牙醫診所,牙醫診所,新北市樹林區,02-86863423,新北市樹林區中華路217號1樓,,24.9810837,121.4192869
3731080017,魏牙醫診所,私立牙醫診所,牙醫一般診所,新北市鶯歌區,02 6790838,新北市鶯歌區中正一路８１－１號,,24.954583,121.352268
3731080026,大慶牙醫診所,私立牙醫診所,牙醫一般診所,新北市鶯歌區,02 6790688,新北市鶯歌區中正一路１１４號,,24.9550569,121.352342
3731080071,謝彥中牙醫診所,私立牙醫診所,牙醫一般診所,新北市鶯歌區,02 6785861,新北市鶯歌區建國路１６４號,,24.9535809,121.350344
3731080106,鶯歌牙醫診所,私立牙醫診所,牙醫一般診所,新北市鶯歌區,26705620,新北市鶯歌區南昌街９巷４號一Ｆ,,24.9537755,121.3494
3731080151,新欣牙醫診所,私立牙醫診所,牙醫一般診所,新北市鶯歌區,26705986,新北市鶯歌區尖山路93號1樓,,24.9492066,121.3481037
3731080160,國慶牙醫診所,私立牙醫診所,牙醫一般診所,新北市鶯歌區,6786477,新北市鶯歌區國慶街１７５號,,24.952799,121.351414
3731080197,鼎安牙醫診所,私立牙醫診所,牙醫一般診所,新北市鶯歌區,226706448,新北市鶯歌區鶯桃路５４５號,,24.9678826,121.3303576
3731010542,博暉牙醫診所,私立牙醫診所,牙醫一般診所,新北市板橋區,02 9617877,新北市板橋區中山路一段六十九號七樓之一,,25.0099167,121.4612106
3731010551,簡牙醫診所,私立牙醫診所,牙醫一般診所,新北市板橋區,02 9678455,新北市板橋區府中路８８號,,25.0095969,121.456238
3731010560,兆祥牙醫診所,私立牙醫診所,牙醫一般診所,新北市板橋區,02 9671981,新北市板橋區中正路２３３號,,25.0178897,121.4558741
3731010604,德聲牙醫診所,私立牙醫診所,牙醫一般診所,新北市板橋區,02 2532455,新北市板橋區文化路二段３２４號,,25.0300446,121.4726904
3731010622,玉山牙醫診所,私立牙醫診所,牙醫一般診所,新北市板橋區,02 9680110,新北市板橋區中正路265號,,25.0186075,121.4556763
3731010659,慶安牙醫診所,私立牙醫診所,牙醫一般診所,新北市板橋區,02 2576685,新北市板橋區四維路１３７巷１弄１號１樓,,25.02514,121.46494
3731010668,培源牙醫診所,私立牙醫診所,牙醫一般診所,新北市板橋區,02 9697939,新北市板橋區府中路１００號,,25.009587,121.455987
3731010702,吉祥牙醫診所,私立牙醫診所,牙醫一般診所,新北市板橋區,02 9551329,新北市板橋區民族路二０五號,,25.00967,121.462492
3731010739,雙安牙醫診所,私立牙醫診所,牙醫一般診所,新北市板橋區,02 9662062,新北市板橋區館前西路150之1號,,25.0084436,121.4555699
3731010748,寰宇牙醫診所,私立牙醫診所,牙醫一般診所,新北市板橋區,02 9664244,新北市板橋區南雅西路二段２號２Ｆ,,25.0089629,121.453381
3731010757,江子翠林牙醫診所,私立牙醫診所,牙醫一般診所,新北市板橋區,02 2532036,新北市板橋區文化路二段３３３號,,25.030539,121.472302
3731010800,鴻安牙醫診所,私立牙醫診所,牙醫一般診所,新北市板橋區,02 2514852,新北市板橋區莒光路１６５巷６號,,25.0241142,121.4741958
3731010828,呂忠孝牙醫診所,私立牙醫診所,牙醫一般診所,新北市板橋區,02 9532574,新北市板橋區忠孝路一七七號,,25.0026979,121.464121
3731010837,遠東牙醫診所,私立牙醫診所,牙醫一般診所,新北市板橋區,,新北市板橋區民族路４１號,,25.00964,121.462678
3731010846,建國牙醫診所,私立牙醫診所,牙醫一般診所,新北市板橋區,02 2539637,新北市板橋區長江路二段２８０－１３號１樓,,25.0329545,121.4703564
3731010926,智群牙醫診所,私立牙醫診所,牙醫一般診所,新北市板橋區,02 9593738,新北市板橋區四川路一段２８６巷３號,,25.000861,121.45838
3731010953,揚齡牙醫診所,私立牙醫診所,牙醫一般診所,新北市板橋區,02 9608104,新北市板橋區南雅西路二段９８之４號,,25.011566,121.452447
3731011003,吉星牙醫診所,私立牙醫診所,牙醫一般診所,新北市板橋區,02 22528027,新北市板橋區裕民街一一八號,,25.0277368,121.4592319
3731011067,瑞安牙醫診所,私立牙醫診所,牙醫一般診所,新北市板橋區,02 9670314,新北市板橋區大智街７３號１樓,,25.0155344,121.4535419
3731011076,大學牙醫診所,私立牙醫診所,牙醫一般診所,新北市板橋區,02 22592227,新北市板橋區裕民街一０八號一樓,,25.0290607,121.4626186
3731011094,偉新牙醫診所,私立牙醫診所,牙醫一般診所,新北市板橋區,,新北市板橋區重慶路８３號,,25.0064946,121.4619741
3731011110,天下牙醫診所,私立牙醫診所,牙醫一般診所,新北市板橋區,02 9682660,新北市板橋區後菜園街１９號,,25.010073,121.456942
3731011174,聖潔牙醫診所,私立牙醫診所,牙醫一般診所,新北市板橋區,02 9550809,新北市板橋區華興街八三號一樓,,25.0050339,121.4568398
3731011218,海山牙醫聯合診所,私立牙醫診所,牙醫一般診所,新北市板橋區,02 9649538,新北市板橋區民族路２３１號,,25.0072428,121.4696246
3731011254,浩恩牙醫診所,私立牙醫診所,牙醫一般診所,新北市板橋區,02-29676802,新北市板橋區館前西路２５７號１．２樓,,25.0085408,121.454246
3731010015,華美牙醫診所,私立牙醫診所,牙醫一般診所,新北市板橋區,(02) 29593869,新北市板橋區民族路２３３號,,25.0071943,121.4696988
3731010060,廖牙醫診所,私立牙醫診所,牙醫一般診所,新北市板橋區,02 9611276,新北市板橋區館前西路４５號,,25.0066257,121.4580348
3731010079,賴牙醫診所,私立牙醫診所,牙醫一般診所,新北市板橋區,02 9667988,新北市板橋區府中路５１號２樓,,25.0089787,121.4584092
3731010104,民川牙科診所,私立牙醫診所,牙醫一般診所,新北市板橋區,29571641,新北市板橋區成都街二九號,,25.0049899,121.4610066
3731010113,蔡牙醫診所,私立牙醫診所,牙醫一般診所,新北市板橋區,02 9686257,新北市板橋區南雅南路1段23號1樓,,25.0067842,121.456376
3731010140,子欽牙醫診所,私立牙醫診所,牙醫一般診所,新北市板橋區,02 29691908,新北市板橋區大智街十五號,,25.014782,121.45557
3731010168,安榮牙醫診所,私立牙醫診所,牙醫一般診所,新北市板橋區,229526590,新北市板橋區中山路二段四九九號一樓,,25.021172,121.482571
3731171166,天翔牙醫診所,私立牙醫診所,牙醫一般診所,新北市林口區,26081066,新北市林口區麗園一街9巷2號1樓之4、文化二路一段579號1樓,,25.0866311,121.3864139
3731171184,禾林牙醫診所,私立牙醫診所,牙醫診所,新北市林口區,02-26014822,新北市林口區竹林路166號一樓,,25.0800222,121.3887984
3731180030,榮泰牙醫診所,私立牙醫診所,牙醫一般診所,新北市深坑區,5622726,新北市深坑區北深路二段一四七號,,25.0022235,121.6144711
3731180058,陳建志牙醫診所,私立牙醫診所,牙醫一般診所,新北市深坑區,26620993,新北市深坑區北深路三段255號,,25.0044053,121.5992514
3731181082,埔新牙醫診所,私立牙醫診所,牙醫一般診所,新北市深坑區,938131385,新北市深坑區埔新街100號,,25.0021257,121.6185458
3731210015,宏達牙醫診所,私立牙醫診所,牙醫一般診所,新北市三芝區,02 6363066,新北市三芝區民生街１２號,,25.2571846,121.5037381
3731220511,新美牙醫診所,私立牙醫診所,牙醫一般診所,新北市石門區,02 26383500,新北市石門區中央路5號1樓,,24.9704659,121.439682
3731230026,國華牙醫診所,私立牙醫診所,牙醫一般診所,新北市八里區,02- 26105093,新北市八里區中山路二段299號,,25.1499189,121.4044258
3731231069,左岸牙醫診所,私立牙醫診所,牙醫一般診所,新北市八里區,26105121,新北市八里區大崁里中山路一段五十七號,,25.1596539,121.4186627
3731240522,於仁牙醫診所,私立牙醫診所,牙醫一般診所,新北市平溪區,02-24951773,新北市平溪區中華街44號,,25.0252048,121.7391347
3731250019,偉華牙醫診所,私立牙醫診所,牙醫一般診所,新北市雙溪區,02 4934835,新北市雙溪區中華路７５號,,25.038263,121.8658306
3731270048,金山昇宏牙醫診所,私立牙醫診所,牙醫一般診所,新北市金山區,02 4985023,新北市金山區信義路１８號,,25.220986,121.6373508
3731081247,楓林牙醫診所,私立牙醫診所,牙醫一般診所,新北市鶯歌區,26785670,新北市鶯歌區中正一路９５號,,24.954924,121.351911
3731081256,名品牙醫診所,私立牙醫診所,牙醫一般診所,新北市鶯歌區,26781203,新北市鶯歌區中正一路五四號,,24.953881,121.352498
3731081283,林明堂牙醫診所,私立牙醫診所,牙醫診所,新北市鶯歌區,86780996,新北市鶯歌區建國路115號1.2樓,,24.953774,121.352585
3731090022,救生牙醫診所,私立牙醫診所,牙醫一般診所,新北市三峽區,02 26711256,新北市三峽區仁愛街十號,,24.933294,121.368201
3731090040,真善美牙醫診所,私立牙醫診所,牙醫一般診所,新北市三峽區,02 6722111,新北市三峽區中正路一段５５號,,24.930301,121.375587
3731090059,華德牙醫診所,私立牙醫診所,牙醫一般診所,新北市三峽區,,新北市三峽區和平街８３號,,24.9375359,121.370185
3731090077,優美牙醫診所,私立牙醫診所,牙醫一般診所,新北市三峽區,02 6733733,新北市三峽區文化路２６４號３Ｆ,,24.9359376,121.3668263
3731090086,蘇牙醫診所,私立牙醫診所,牙醫一般診所,新北市三峽區,,新北市三峽區溪北街２８號,,24.9360087,121.3967561
3731090095,賴萬華牙醫診所,私立牙醫診所,牙醫一般診所,新北市三峽區,226735400,新北市三峽區文化路四十二號,,24.9362249,121.373072
3731090102,惠恩牙醫診所,私立牙醫診所,牙醫一般診所,新北市三峽區,02 6716525,新北市三峽區民生街７７號１樓,,24.935877,121.375063
3731090120,大瀚牙醫診所,私立牙醫診所,牙醫一般診所,新北市三峽區,226719727,新北市三峽區民生街３３號１樓,,24.936168,121.37579
3731090139,建文牙醫診所,私立牙醫診所,牙醫一般診所,新北市三峽區,6742561,新北市三峽區中園街六二之四號,,24.925919,121.367765
3731090148,宏志牙醫診所,私立牙醫診所,牙醫一般診所,新北市三峽區,286743433,新北市三峽區文化路１８號,,24.935852,121.373293
3731091190,勝美牙醫診所,私立牙醫診所,牙醫一般診所,新北市三峽區,26715953,新北市三峽區中山路二三三號,,24.9370089,121.362885
3731100023,民生牙醫診所,私立牙醫診所,牙醫一般診所,新北市淡水區,02 6212238,新北市淡水區中山路３號,,25.1730317,121.4405482
3731100041,汪牙醫診所,私立牙醫診所,牙醫一般診所,新北市淡水區,02 6223831,新北市淡水區學府路１０２巷８號一樓,,25.1718195,121.4507117
3731100087,劉牙醫診所,私立牙醫診所,牙醫一般診所,新北市淡水區,26229260,新北市淡水區中正路１04號1樓,,25.169692,121.4419786
3731100096,陳牙醫診所,私立牙醫診所,牙醫一般診所,新北市淡水區,02 6228271,新北市淡水區清水街248號,,25.172015,121.4402826
3731100112,謝牙醫診所,私立牙醫診所,牙醫一般診所,新北市淡水區,226215488,新北市淡水區公明街四九號,,25.169064,121.443086
3731100149,竹圍牙醫診所,私立牙醫診所,牙醫一般診所,新北市淡水區,02-28090356,新北市淡水區民族路三十四號,,25.1362573,121.461408
3731100167,康華牙醫診所,私立牙醫診所,牙醫一般診所,新北市淡水區,02 28091000,新北市淡水區民權路一二七號二樓,,25.1368984,121.460118
3731100176,淡江牙醫診所,私立牙醫診所,牙醫一般診所,新北市淡水區,26238230,新北市淡水區文化路59巷6號1樓,,25.1732427,121.4360341
3731100210,衡德牙醫診所,私立牙醫診所,牙醫一般診所,新北市淡水區,02 6229476,新北市淡水區中山北路一段９７號,,25.1764435,121.4424484
3731100238,鄧公牙醫診所,私立牙醫診所,牙醫一般診所,新北市淡水區,02-26234883,新北市淡水區鄧公路３０巷１１號,,25.1699736,121.453119
3731100247,同陽牙醫診所,私立牙醫診所,牙醫一般診所,新北市淡水區,02 6235488,新北市淡水區學府路三十七號,,25.1689403,121.4478722
3731100256,淡水新埔牙醫診所,私立牙醫診所,牙醫一般診所,新北市淡水區,02 9915202,新北市淡水區淡金路３段２９４號,,25.20757,121.449069
3731100336,大盛牙醫診所,私立牙醫診所,牙醫一般診所,新北市淡水區,6298028,新北市淡水區中山路一○六之一號,,25.1709502,121.4417978
3731062582,劍橋牙醫診所,私立牙醫診所,牙醫一般診所,新北市新莊區,02 29925678,新北市新莊區昌平街三、五號,,25.0521208,121.4548205
3731062617,博揚牙醫診所,私立牙醫診所,牙醫一般診所,新北市新莊區,289932889,新北市新莊區公園路50號,,25.0393594,121.4492635
3731062626,麗安牙醫診所,私立牙醫診所,牙醫一般診所,新北市新莊區,289926805,新北市新莊區幸福路八一二號一樓,,25.0490985,121.4459317
3731062635,大都會牙醫診所,私立牙醫診所,牙醫一般診所,新北市新莊區,02 22900300,新北市新莊區五權一路54號2樓,,25.066005,121.458142
3731062644,皓美牙醫診所,私立牙醫診所,牙醫一般診所,新北市新莊區,22036565,新北市新莊區富國路一六二號一樓,,25.024575,121.423392
3731062706,景福牙醫診所,私立牙醫診所,牙醫一般診所,新北市新莊區,02-22048174,新北市新莊區中正路三一九號一至二樓,,25.034887,121.447943
3731062715,榮和牙醫診所,私立牙醫診所,牙醫一般診所,新北市新莊區,02-29915202,新北市新莊區中華路1段84號1至2樓,,25.0554717,121.4563806
3731062724,上順牙醫診所,私立牙醫診所,牙醫一般診所,新北市新莊區,02-22018698,新北市新莊區中正路四三五號一樓,,25.034084,121.44348
3731062742,風尚牙醫診所,私立牙醫診所,牙醫一般診所,新北市新莊區,02-29963967,新北市新莊區中平路二七八號一至二樓,,25.0506565,121.4448399
3731062760,全冠牙醫診所,私立牙醫診所,牙醫一般診所,新北市新莊區,29062776,新北市新莊區中正路879-2號1樓,,25.026377,121.418101
3731062788,大象牙醫診所,私立牙醫診所,牙醫一般診所,新北市新莊區,22035333,新北市新莊區瓊泰路213號1樓,,25.032371,121.442964
3731062822,欣佑牙醫診所,私立牙醫診所,牙醫一般診所,新北市新莊區,29929112,新北市新莊區中華路2段262號1樓,,25.0533399,121.452623
3731062831,鴻金寶牙醫診所,私立牙醫診所,牙醫一般診所,新北市新莊區,22011341,新北市新莊區民安路199號1樓及2樓,,25.0223753,121.4262442
3731062840,明揚牙醫診所,私立牙醫診所,牙醫一般診所,新北市新莊區,22080615,新北市新莊區民安西路19號1樓,,25.021445,121.4270469
3731062868,嘉安牙醫診所,私立牙醫診所,牙醫一般診所,新北市新莊區,29083223,新北市新莊區中正路583號1-2樓,,25.032392,121.434431
3731042795,宏瑞牙醫診所,私立牙醫診所,牙醫一般診所,新北市中和區,02-22237387,新北市中和區新生街二０五號一樓,,25.0045223,121.48336
3731042811,東陽牙醫診所,私立牙醫診所,牙醫一般診所,新北市中和區,02-29429928,新北市中和區中和路四四０號一、二樓,,25.001143,121.500192
3731042820,禾欣牙醫診所,私立牙醫診所,牙醫一般診所,新北市中和區,229456008,新北市中和區景平路一一六號一樓,,24.9917433,121.5194587
3731042839,怡翔牙醫診所,私立牙醫診所,牙醫一般診所,新北市中和區,02-82451808,新北市中和區連城路十九號一樓,,25.0020719,121.498871
3731042848,康橋牙醫診所,私立牙醫診所,牙醫一般診所,新北市中和區,282276995,新北市中和區員山路四八五號一?二樓,,25.0054982,121.4799594
3731042857,合安牙醫診所,私立牙醫診所,牙醫一般診所,新北市中和區,932395626,新北市中和區泰和街一十二號一樓,,25.001091,121.499814
3731042866,哈佛牙醫診所,私立牙醫診所,牙醫一般診所,新北市中和區,02-29288480,新北市中和區宜安路一三八號一樓,,24.9984059,121.509795
3731042875,加美牙醫診所,私立牙醫診所,牙醫一般診所,新北市中和區,29466539     0920157978,新北市中和區宜安路6號1樓,,24.9955842,121.5134376
3731042884,宏軒牙醫診所,私立牙醫診所,牙醫一般診所,新北市中和區,29471777,新北市中和區南山路一七四之一號一樓,,24.9912274,121.5049388
3731042900,文聖牙醫診所,私立牙醫診所,牙醫一般診所,新北市中和區,22460909,新北市中和區中山路二段一六八號,,25.002949,121.501344
3731042937,金群牙醫診所,私立牙醫診所,牙醫一般診所,新北市中和區,29427000,新北市中和區景平路二四Ｏ巷二弄一號一樓,,24.990516,121.5253641
3731042946,景安牙醫診所,私立牙醫診所,牙醫一般診所,新北市中和區,222456567,新北市中和區中正路２４號１樓,,24.9937701,121.5026382
3731042955,尚恩牙醫診所,私立牙醫診所,牙醫一般診所,新北市中和區,22486622,"新北市中和區景平路４２９-１號１,２樓",,24.995331,121.5014191
3731042973,榮祥牙醫診所,私立牙醫診所,牙醫一般診所,新北市中和區,29407134,新北市中和區大勇街二五巷三八弄七號一樓,,24.9939254,121.5159814
3731042991,安平牙醫診所,私立牙醫診所,牙醫一般診所,新北市中和區,923237421,新北市中和區安平路七十八號,,24.9965717,121.5111242
3731043023,柯牙醫診所,私立牙醫診所,牙醫一般診所,新北市中和區,29480880  22448800,新北市中和區景安路78號1樓,,24.9964699,121.5055469
3731043041,迪康牙醫診所,私立牙醫診所,牙醫一般診所,新北市中和區,955308955,新北市中和區建一路1號1樓,,25.0041301,121.4882288
3731043069,誠美牙醫診所,私立牙醫診所,牙醫診所,新北市中和區,29400820,新北市中和區景平路一六二號一.二樓,,24.992237,121.5173962
3731043078,佑康牙醫診所,私立牙醫診所,牙醫診所,新北市中和區,982457577,新北市中和區興南路二段2號1樓,,24.986391,121.50781
3731043103,聖偉牙醫診所,私立牙醫診所,牙醫診所,新北市中和區,22491994,新北市中和區保平路366號、368號1樓,,25.0045612,121.5082
3731043112,久大牙醫診所,私立牙醫診所,牙醫診所,新北市中和區,29206544,新北市中和區中山路二段3巷2號1樓,,25.0033791,121.4910427
3731050028,百年牙醫診所,私立牙醫診所,牙醫一般診所,新北市新店區,229120126,新北市新店區三民路七十五巷三弄一號一樓,,24.9710303,121.5358578
3731050073,裕仁牙醫診所,私立牙醫診所,牙醫一般診所,新北市新店區,229189100,新北市新店區三民路３１－６號,,24.970281,121.537684
3731050117,戚崇龍牙醫診所,私立牙醫診所,牙醫一般診所,新北市新店區,222126789,新北市新店區?安康路二段２１２號,,24.9594704,121.5098364
3731050135,李震強牙醫診所,私立牙醫診所,牙醫一般診所,新北市新店區,02 9118321,新北市新店區三民路１３６號,,24.9750464,121.5350947
3731050180,高牙醫診所,私立牙醫診所,牙醫一般診所,新北市新店區,02 9116621,新北市新店區建國路６４號,,24.9758681,121.5406784
3731040504,博雅牙醫診所,私立牙醫診所,牙醫一般診所,新北市中和區,02 2451639,新北市中和區景安路２０６號,,24.9910444,121.50394
3731040540,祥和牙醫診所,私立牙醫診所,牙醫一般診所,新北市中和區,02 9803194,新北市中和區民享街九十一之八號一樓,,25.0009839,121.4745253
3731040559,進賢牙醫診所,私立牙醫診所,牙醫一般診所,新北市中和區,222455563,新北市中和區錦和路１９３號１Ｆ,,24.9907779,121.490733
3731040602,新雅牙醫診所,私立牙醫診所,牙醫一般診所,新北市中和區,02 9408432,新北市中和區忠孝街９９號,,24.9860567,121.5119962
3731040639,揚昇牙醫診所,私立牙醫診所,牙醫一般診所,新北市中和區,02 9443679,新北市中和區信義街８號２Ｆ,,24.9894747,121.5108508
3731040657,朋詡牙醫診所,私立牙醫診所,牙醫一般診所,新北市中和區,02 2483035,新北市中和區中山路二段２４４號,,25.002665,121.497854
3731040700,福雅牙醫診所,私立牙醫診所,牙醫一般診所,新北市中和區,02 9447767,新北市中和區興南路二段４４號,,24.985289,121.506611
3731040728,永正牙醫診所,私立牙醫診所,牙醫一般診所,新北市中和區,02- 9403144,新北市中和區明仁街一四.一六號一樓,,24.9955401,121.5059761
3731040737,林承德牙醫診所,私立牙醫診所,牙醫一般診所,新北市中和區,02 3217722,新北市中和區員山路２４４號,,25.0013539,121.481408
3731040746,伍牙醫診所,私立牙醫診所,牙醫一般診所,新北市中和區,02 29414750,新北市中和區復興路25號1樓,,24.9898639,121.5054201
3731021116,大眾牙醫診所,私立牙醫診所,牙醫一般診所,新北市三重區,02 9833808,新北市三重區自強路一段九十九號,,25.0665443,121.4957589
3731021134,欣華牙醫診所,私立牙醫診所,牙醫一般診所,新北市三重區,289823555,新北市三重區正義北路154號1樓˙2樓及3樓之二,,25.0624965,121.4977729
3731021143,興和牙醫診所,私立牙醫診所,牙醫一般診所,新北市三重區,29844939,新北市三重區力行路一段二五一號,,25.0708682,121.4826263
3731021152,德林牙醫診所,私立牙醫診所,牙醫一般診所,新北市三重區,02 9825181,新北市三重區三和路三段７５號,,25.072047,121.494845
3731021287,江村牙醫診所,私立牙醫診所,牙醫一般診所,新北市三重區,29786289,新北市三重區信義街13號1樓,,25.0647007,121.4995917
3731021296,桂冠牙醫診所,私立牙醫診所,牙醫一般診所,新北市三重區,02 29857873,新北市三重區重陽路一段49及51號1樓,,25.058252,121.486914
3731021376,華健牙醫診所,私立牙醫診所,牙醫一般診所,新北市三重區,229832461,新北市三重區仁愛街二七六號,,25.0787572,121.492536
3731022391,品辰牙醫診所,私立牙醫診所,牙醫一般診所,新北市三重區,29823616,新北市三重區三民街二六九號,,25.0680477,121.4794107
3731022417,重新牙醫診所,私立牙醫診所,牙醫一般診所,新北市三重區,29762475,新北市三重區大同南路六十二號,,25.059672,121.496264
3731022426,金中華牙醫診所,私立牙醫診所,牙醫一般診所,新北市三重區,02-29861573,新北市三重區中華路一號,,25.060619,121.483653
3731022453,順祥牙醫診所,私立牙醫診所,牙醫一般診所,新北市三重區,22808037,新北市三重區永福街五十號一樓,,25.078052,121.4817467
3731022506,全鴻牙醫診所,私立牙醫診所,牙醫一般診所,新北市三重區,82871559,新北市三重區力行路二段164號,,25.0767698,121.4828529
3731022515,余延年牙醫診所,私立牙醫診所,牙醫一般診所,新北市三重區,29866185,新北市三重區三民街九一號,,25.063262,121.48556
3731022588,欣誼牙醫診所,私立牙醫診所,牙醫一般診所,新北市三重區,02 82873735,新北市三重區仁愛街六七二號,,25.0802395,121.4822699
3731022597,維昌牙醫診所,私立牙醫診所,牙醫一般診所,新北市三重區,02 89851811,新北市三重區重陽路一段七十三號一樓,,25.058861,121.486966
3731022613,光美牙醫診所,私立牙醫診所,牙醫一般診所,新北市三重區,82872727,新北市三重區三和路四段三一六號,,25.077921,121.484107
3731022622,妙典牙醫診所,私立牙醫診所,牙醫一般診所,新北市三重區,29838033,新北市三重區忠孝路一段八一號一樓,,25.072202,121.49025
3731022631,長榮牙醫診所,私立牙醫診所,牙醫一般診所,新北市三重區,29702747,新北市三重區集美街156號1F,,25.0531311,121.4898528
3731014102,呂牙醫診所,私立牙醫診所,牙醫一般診所,新北市板橋區,,新北市板橋區民權路202巷9弄14號1樓,,25.0156179,121.4599978
3731014111,冠德牙醫診所,私立牙醫診所,牙醫一般診所,新北市板橋區,25955830,新北市板橋區陽明街5號1樓,,25.021508,121.466612
3731014120,京品牙醫診所,私立牙醫診所,牙醫一般診所,新北市板橋區,29642667,新北市板橋區忠孝路97號,,25.0022906,121.4623643
3731014157,得雅牙醫診所,私立牙醫診所,牙醫一般診所,新北市板橋區,22526178,新北市板橋區新海路68號,,25.021768,121.461968
3731014237,晨軒牙醫診所,私立牙醫診所,牙醫診所,新北市板橋區,02-29672930,新北市板橋區館前西路98號,,25.0074432,121.4572231
3731014255,貴興牙醫診所,私立牙醫診所,牙醫診所,新北市板橋區,02-89511082,新北市板橋區貴興路80號1樓,,25.002831,121.4562088
3731014264,合美牙醫診所,私立牙醫診所,牙醫診所,新北市板橋區,89642000,新北市板橋區中山路二段99號1、2樓,,25.0163295,121.4743064
3731014291,康祐牙醫診所,私立牙醫診所,牙醫診所,新北市板橋區,8253-3332,新北市板橋區光武街17號1樓,,25.0247418,121.4679841
3731014308,大原牙醫診所,私立牙醫診所,牙醫診所,新北市板橋區,02-29515339,新北市板橋區民族路97號1樓,,25.008324,121.466555
3731014344,恩美牙醫診所,私立牙醫診所,牙醫診所,新北市板橋區,02-2258-7098,新北市板橋區仁化街42巷7號1樓,,25.0313549,121.475555
3731280017,恒生牙醫診所,私立牙醫診所,牙醫一般診所,新北市萬里區,6953863,新北市萬里區萬里里瑪鋉路９３號,,25.1772529,121.6889371
3731141748,美華牙醫診所,私立牙醫診所,牙醫一般診所,新北市蘆洲區,22826946,新北市蘆洲區永平街３２之１號,,25.09095,121.4587608
3731141784,欣葉牙醫診所,私立牙醫診所,牙醫一般診所,新北市蘆洲區,28486001,新北市蘆洲區長安街33號,,25.079308,121.463591
3731141793,全家聯合牙醫診所,私立牙醫診所,牙醫一般診所,新北市蘆洲區,22819679,新北市蘆洲區得勝街161號,,25.0828755,121.4713498
3731141800,元大牙醫診所,私立牙醫診所,牙醫專科診所,新北市蘆洲區,22858842,新北市蘆洲區光華路68號,,25.0828791,121.4681645
3731141846,盛德牙醫診所,私立牙醫診所,牙醫一般診所,新北市蘆洲區,82815405,新北市蘆洲區中正路155號,,25.0849089,121.4691289
3731141873,拾健牙醫診所,私立牙醫診所,牙醫診所,新北市蘆洲區,82852559,新北市蘆洲區光復路9號一樓,,25.0843353,121.462219
3731141882,東揚牙醫診所,私立牙醫診所,牙醫診所,新北市蘆洲區,,新北市蘆洲區集賢路352號,,25.084041,121.480766
3731141891,臻品牙醫診所,私立牙醫診所,牙醫診所,新北市蘆洲區,82859955,新北市蘆洲區長榮路65號1樓,,25.0836658,121.4619829
3731150096,明志牙醫診所,私立牙醫診所,牙醫一般診所,新北市五股區,02 2923337,新北市五股區凌雲路一段５７號,,25.1009031,121.4512738
3731062886,慶城牙醫診所,私立牙醫診所,牙醫診所,新北市新莊區,29925760,新北市新莊區中華路二段119號1樓,,25.0491053,121.4525403
3731062911,松霖牙醫診所,私立牙醫診所,牙醫診所,新北市新莊區,89912203,新北市新莊區中和街89號1樓,,25.047957,121.447322
3731062957,尊爵牙醫診所,私立牙醫診所,牙醫診所,新北市新莊區,89912285,新北市新莊區中港路293號1樓至2樓,,25.044262,121.4527873
3731062966,博飛牙醫診所,私立牙醫診所,牙醫診所,新北市新莊區,22791000,新北市新莊區中平路303號1樓,,25.0514575,121.4446315
3731062975,家安牙醫診所,私立牙醫診所,牙醫診所,新北市新莊區,22012525,新北市新莊區龍安路319號1樓,,25.0195647,121.4217242
3731062984,公園牙醫診所,私立牙醫診所,牙醫診所,新北市新莊區,29914227,新北市新莊區公園路33號1樓,,25.0401986,121.4528938
3731063025,健安牙醫診所,私立牙醫診所,牙醫診所,新北市新莊區,22057757,新北市新莊區後港一路116號1樓,,25.027089,121.4287147
3731070039,四德牙醫診所,私立牙醫診所,牙醫一般診所,新北市樹林區,02 6832528,新北市樹林區四德街29號,,24.9921221,121.4258382
3731070075,大正牙醫診所,私立牙醫診所,牙醫一般診所,新北市樹林區,02 6812810,新北市樹林區保安街一段６０號,,24.994403,121.425408
3731070084,又怡牙醫診所,私立牙醫診所,牙醫一般診所,新北市樹林區,02 6815810,新北市樹林區中山路一段９３號,,24.9912077,121.4234418
3731070119,鴻仁牙醫診所,私立牙醫診所,牙醫一般診所,新北市樹林區,02 6822105,新北市樹林區中山路一段１２５－１號,,24.989987,121.422662
3731070128,宏年牙醫診所,私立牙醫診所,牙醫一般診所,新北市樹林區,02 6814816,新北市樹林區育英街５０號,,24.989314,121.42128
3731070182,佳新牙醫診所,私立牙醫診所,牙醫一般診所,新北市樹林區,02 6810617,新北市樹林區太平街５６巷２號,,24.9779786,121.4180476
3731070191,宇昇牙醫診所,私立牙醫診所,牙醫一般診所,新北市樹林區,02 6811268,新北市樹林區樹德街９２號,,24.992532,121.420011
3731070244,佑華牙醫診所,私立牙醫診所,牙醫一般診所,新北市樹林區,86842487,新北市樹林區太元街三十號,,24.9803172,121.4179005
3731070271,元生牙醫診所,私立牙醫診所,牙醫一般診所,新北市樹林區,02 6896477,新北市樹林區三福街３１號,,25.0166623,121.4085109
3731070299,何牙醫診所,私立牙醫診所,牙醫一般診所,新北市樹林區,02 6814827,新北市樹林區千歲街５３之２號,,24.996647,121.425536
3731070379,中華牙醫診所,私立牙醫診所,牙醫一般診所,新北市樹林區,86841216,新北市樹林區中華路２３９號１樓,,24.9806854,121.418557
3731070388,大山牙醫診所,私立牙醫診所,牙醫一般診所,新北市樹林區,6830800,新北市樹林區保順街七十五號,,24.9945254,121.4291826
3731070397,三榮牙醫診所,私立牙醫診所,牙醫一般診所,新北市樹林區,,新北市樹林區中正路八五七號,,25.0176882,121.4087775
3731070431,家福牙醫診所,私立牙醫診所,牙醫一般診所,新北市樹林區,02 26830651,新北市樹林區文化街12號,,24.9873495,121.4200563
3731070468,復新牙醫診所,私立牙醫診所,牙醫一般診所,新北市樹林區,226876620,新北市樹林區復興路二二一號一樓,,24.991034,121.420143
3731060677,新莊謝牙醫診所,私立牙醫診所,牙醫一般診所,新北市新莊區,02 9967268,新北市新莊區昌隆街二十一號,,25.0509849,121.4544023
3731060686,健群牙醫診所,私立牙醫診所,牙醫一般診所,新北市新莊區,02 2030341,新北市新莊區民安西路１４８號,,25.016655,121.426117
3731060702,思賢微笑牙醫診所,私立牙醫診所,牙醫一般診所,新北市新莊區,02 9977318,新北市新莊區自立街７２號,,25.0452369,121.454271
3731060828,富國牙醫診所,私立牙醫診所,牙醫一般診所,新北市新莊區,02 9038611,新北市新莊區富國路２３號,,25.0265299,121.418705
3731060855,開惠牙醫診所,私立牙醫診所,牙醫一般診所,新北市新莊區,2,新北市新莊區昌平街10號1樓.12號1樓,,25.0516112,121.4548133
3731060882,震林牙醫診所,私立牙醫診所,牙醫一般診所,新北市新莊區,02 9948988,新北市新莊區中平路４４號,,25.0437824,121.4449423
3731060891,鈺川牙醫診所,私立牙醫診所,牙醫一般診所,新北市新莊區,29909101,新北市新莊區幸福路515號1樓,,25.049196,121.455653
3731060908,大唐牙醫診所,私立牙醫診所,牙醫一般診所,新北市新莊區,(02)29937083,新北市新莊區幸福路766號1樓,,25.0492305,121.4471803
3731060926,奇洲牙醫診所,私立牙醫診所,牙醫一般診所,新北市新莊區,02 9983526,新北市新莊區中和街１９２號,,25.050002,121.447556
3731040862,鴻宜牙醫診所,私立牙醫診所,牙醫一般診所,新北市中和區,02 2459088,新北市中和區南山路１６０號,,24.9918805,121.5043965
3731040871,東和牙醫診所,私立牙醫診所,牙醫一般診所,新北市中和區,,新北市中和區中山路二段６６０號,,25.0059295,121.4805487
3731040880,慶恩牙醫診所,私立牙醫診所,牙醫一般診所,新北市中和區,222474093,新北市中和區景平路五七二號,,24.9954869,121.5017298
3731040899,安佳牙醫診所,私立牙醫診所,牙醫一般診所,新北市中和區,02 9423360,新北市中和區中正路21８號３樓,,24.9940832,121.4965335
3731040906,天仁牙醫診所,私立牙醫診所,牙醫一般診所,新北市中和區,02 2221352,新北市中和區莒光路１５７號,,25.0009115,121.472831
3731040933,永峰牙醫診所,私立牙醫診所,牙醫一般診所,新北市中和區,02 2494628,新北市中和區南山路２１３號,,24.9943888,121.5031453
3731040942,高翔牙醫診所,私立牙醫診所,牙醫一般診所,新北市中和區,02 2460667,新北市中和區中和路２７９號１Ｆ,,24.9998279,121.50581
3731040951,祥齡牙醫診所,私立牙醫診所,牙醫一般診所,新北市中和區,02 9523299,新北市中和區中山路三段２０４號,,25.0066355,121.4717002
3731040979,十方牙醫診所,私立牙醫診所,牙醫一般診所,新北市中和區,02 2227345,新北市中和區員山路１９７號,,24.997343,121.481116
3731040997,允安牙醫診所,私立牙醫診所,牙醫一般診所,新北市中和區,222490934,新北市中和區景平路六八三號,,25.0030074,121.4964103
3731041001,中山牙醫診所,私立牙醫診所,牙醫一般診所,新北市中和區,2490497,新北市中和區中山路二段２巷３弄４號１樓,,25.005817,121.505106
3731041038,敦品牙醫診所,私立牙醫診所,牙醫一般診所,新北市中和區,02 2457343,新北市中和區光華街６８號,,25.003384,121.505929
3731041127,實踐牙醫診所,私立牙醫診所,牙醫一般診所,新北市中和區,9578582,新北市中和區民德路七九號二樓,,25.001266,121.469105
3731041136,修德牙醫診所,私立牙醫診所,牙醫一般診所,新北市中和區,9141111,新北市中和區錦和路一六八號,,24.9957738,121.4899151
3731041163,群益牙醫診所,私立牙醫診所,牙醫一般診所,新北市中和區,2216336,新北市中和區民享街八十六巷十六號一樓,,25.0008189,121.473672
3731041216,盈成牙醫診所,私立牙醫診所,牙醫一般診所,新北市中和區,22472068,新北市中和區復興路306號,,24.9904195,121.5012772
3731041270,柏安牙醫診所,私立牙醫診所,牙醫一般診所,新北市中和區,02 9581937,新北市中和區秀朗路三段１７９號,,24.9910201,121.5243766
3731041298,茂榕牙醫診所,私立牙醫診所,牙醫一般診所,新北市中和區,02 8665166,新北市中和區忠孝街３－２號,,24.9830375,121.5094037
3731041387,中和德威牙醫診所,私立牙醫診所,牙醫一般診所,新北市中和區,229160206,新北市中和區中山路二段二一五號一.二樓,,25.002402,121.498655
3731041396,文心牙醫診所,私立牙醫診所,牙醫一般診所,新北市中和區,222343327,新北市中和區中和路四五０號,,25.0015223,121.5001265
3731041467,聖欣牙醫診所,私立牙醫診所,牙醫一般診所,新北市中和區,32349720,新北市中和區連城路350號1樓,,24.995655,121.482243
3731032691,荷風牙醫診所,私立牙醫診所,牙醫一般診所,新北市永和區,89286363,新北市永和區竹林路183號,,25.009685,121.520761
3731032717,維康牙醫診所,私立牙醫診所,牙醫一般診所,新北市永和區,29488882,新北市永和區中正路133號1、2樓,,24.997996,121.5159553
3731032726,宏康牙醫診所,私立牙醫診所,牙醫一般診所,新北市永和區,29234491,新北市永和區保平路一九０號,,25.007438,121.512674
3731032762,如意牙醫診所,私立牙醫診所,牙醫一般診所,新北市永和區,"29253037 ,29541959",新北市永和區永和路二段一七四號二樓,,25.013231,121.5156188
3731032806,懷源牙醫診所,私立牙醫診所,牙醫診所,新北市永和區,22310055,新北市永和區永貞路二０八號,,25.0074542,121.5207424
3731032824,竹琳牙醫診所,私立牙醫診所,牙醫一般診所,新北市永和區,22320186,新北市永和區竹林路一二五號,,25.0113219,121.520252
3731032879,貝瑞牙醫診所,私立牙醫診所,牙醫一般診所,新北市永和區,02-29247989,新北市永和區得和路213號1樓及215號1樓,,25.000295,121.51931
3731032904,昱雅牙醫診所,私立牙醫診所,牙醫一般診所,新北市永和區,29293908,新北市永和區中正路487號1樓2樓,,25.0065685,121.5169411
3731032922,頂真牙醫診所,私立牙醫診所,牙醫一般診所,新北市永和區,89251102,新北市永和區永和路2段224號1樓,,25.0141198,121.5158701
3731032959,光毅牙醫診所,私立牙醫診所,牙醫一般診所,新北市永和區,(02)89216050,新北市永和區仁愛路60號1、2樓,,25.0134949,121.513468
3731032968,世樺牙醫診所,私立牙醫診所,牙醫一般診所,新北市永和區,29247865,新北市永和區永和路一段154號1樓、2樓,,25.0084472,121.5142552
3731020048,重陽牙醫診所,私立牙醫診所,牙醫一般診所,新北市三重區,02 9853774,新北市三重區三民街６５－３號,,25.062563,121.485812
3731020057,弘益牙醫診所,私立牙醫診所,牙醫一般診所,新北市三重區,2871177,新北市三重區三和路四段３６０－２號,,25.0783762,121.4831696
3731020066,三重新欣牙醫診所,私立牙醫診所,牙醫一般診所,新北市三重區,02 9880422,新北市三重區車路頭街頭街２２號,,25.0614534,121.4867114
3731020084,大洋牙醫診所,私立牙醫診所,牙醫一般診所,新北市三重區,02 9728548,新北市三重區三和路二段１７４號,,25.0687108,121.4989564
3731020119,蔡立人牙醫診所,私立牙醫診所,牙醫一般診所,新北市三重區,,新北市三重區三和路四段３６４號,,25.0784829,121.4831611
3731020128,聯大牙醫診所,私立牙醫診所,牙醫一般診所,新北市三重區,02 9756393,新北市三重區大同南路５１號,,25.060045,121.495695
3731020146,光明牙醫診所,私立牙醫診所,牙醫一般診所,新北市三重區,02 29995046,新北市三重區重新路五段575號,,25.046061,121.470042
3731020155,厚德牙醫診所,私立牙醫診所,牙醫一般診所,新北市三重區,02 9892367,新北市三重區忠孝路一段１１７號,,25.072263,121.488868
3731020164,仁貴牙醫診所,私立牙醫診所,牙醫一般診所,新北市三重區,02 9879290,新北市三重區大智街二三八－二號一樓,,25.072749,121.489357
3731020191,周牙醫診所,私立牙醫診所,牙醫一般診所,新北市三重區,02 9803270,新北市三重區重新路三段３１－１號,,25.0615703,121.4945326
3731020208,惠翔牙醫診所,私立牙醫診所,牙醫一般診所,新北市三重區,02 29827660,新北市三重區三民街三一一號一樓,,25.0690765,121.4780321
3731020253,明德牙醫診所,私立牙醫診所,牙醫一般診所,新北市三重區,02 9826247,新北市三重區正義北路２９３號,,25.0706792,121.4949557
3731020280,頌恩牙醫診所,私立牙醫診所,牙醫一般診所,新北市三重區,02 9847905,新北市三重區碧華街３６２號,,25.0841375,121.4906771
3731020299,莊牙醫診所,私立牙醫診所,牙醫一般診所,新北市三重區,02 9800551,新北市三重區正義北路２５４號,,25.0684316,121.49591
3731020333,三和牙醫診所,私立牙醫診所,牙醫一般診所,新北市三重區,02 9731105,新北市三重區三和路二段６７號,,25.068013,121.500273
3731020342,英仁牙醫診所,私立牙醫診所,牙醫一般診所,新北市三重區,02 9853546,新北市三重區大同北路八十七號,,25.06393,121.49479
3731020360,久敦牙醫診所,私立牙醫診所,牙醫一般診所,新北市三重區,02 9849747,新北市三重區中正北路３４２號,,25.0691858,121.4782143
3731020379,李牙醫診所,私立牙醫診所,牙醫一般診所,新北市三重區,02 9721159,新北市三重區信義街４６號,,25.065163,121.5003576
3731020397,正光牙醫診所,私立牙醫診所,牙醫一般診所,新北市三重區,02 9322802,新北市三重區集賢路127號1樓、2樓,,25.0895703,121.4898133
3731020404,三富牙醫診所,私立牙醫診所,牙醫一般診所,新北市三重區,02 9734819,新北市三重區正義北路10號1、2樓,,25.0628277,121.4976744
3731020440,星輝牙醫診所,私立牙醫診所,牙醫一般診所,新北市三重區,02-29877987,新北市三重區正義北路40號1樓,,25.0635076,121.4973348
3731020520,上宏牙醫診所,私立牙醫診所,牙醫一般診所,新北市三重區,02 9876122,新北市三重區中華路６０號,,25.06221,121.483227
3731020575,文陽牙醫診所,私立牙醫診所,牙醫一般診所,新北市三重區,02 9802528,新北市三重區三陽路４７號一樓,,25.059029,121.484892
3731020584,龍門牙醫診所,私立牙醫診所,牙醫一般診所,新北市三重區,02 9736604,新北市三重區龍門路６７號,,25.0723316,121.4967577
3731020593,碧華牙醫診所,私立牙醫診所,牙醫一般診所,新北市三重區,02 9843489,新北市三重區五華街二十三號一樓,,25.0807619,121.4948459
3731020628,慶長牙醫診所,私立牙醫診所,牙醫一般診所,新北市三重區,02 9828103,新北市三重區正義北路２６５號,,25.0699672,121.4955048
3731020637,榮恩牙醫診所,私立牙醫診所,牙醫一般診所,新北市三重區,02 9869909,新北市三重區重陽路一段１０８號,,25.0596749,121.486442
3731020682,育安牙醫診所,私立牙醫診所,牙醫一般診所,新北市三重區,,新北市三重區自強路四段６０號,,25.0784572,121.490041
3731020708,崇愛牙醫診所,私立牙醫診所,牙醫一般診所,新北市三重區,02 29860860,新北市三重區文化北路148號1樓,,25.067154,121.4981382
3731012206,新品牙醫診所,私立牙醫診所,牙醫一般診所,新北市板橋區,229606994,新北市板橋區龍興街十五號一樓,,24.9997297,121.442729
3731012260,國新德威牙醫診所,私立牙醫診所,牙醫一般診所,新北市板橋區,29514059,新北市板橋區四川路一段253號1樓,,25.002397,121.4597434
3731012304,誼康牙醫診所,私立牙醫診所,牙醫診所,新北市板橋區,02-22508765,新北市板橋區松柏街94號1樓,,25.0306769,121.4768206
3731013338,南雅牙醫診所,私立牙醫診所,牙醫一般診所,新北市板橋區,29667240,新北市板橋區南雅南路一段95號1.2F,,25.0051672,121.45556
3731013347,立潔牙醫診所,私立牙醫診所,牙醫一般診所,新北市板橋區,22508082,新北市板橋區文化路二段23號1樓,,25.0247877,121.4686792
3731013365,誠信牙醫診所,私立牙醫診所,牙醫一般診所,新北市板橋區,29651179,新北市板橋區文化路一段一二五號,,25.0150438,121.4619057
3731013418,佳園牙醫診所,私立牙醫診所,牙醫一般診所,新北市板橋區,89512128,"新北市板橋區實踐路一五九號一,二樓",,25.004085,121.464474
3731013490,懷安牙醫診所,私立牙醫診所,牙醫一般診所,新北市板橋區,02-22515257,新北市板橋區國光路215號,,25.0187607,121.4622565
3731013525,邱慶來牙醫診所,私立牙醫診所,牙醫一般診所,新北市板橋區,922365060,新北市板橋區龍興街8號,,24.9995916,121.442886
3731150238,鄭牙醫診所,私立牙醫診所,牙醫一般診所,新北市五股區,02 2917180,新北市五股區西雲路２３７號,,25.0974965,121.4490429
3731150256,恩新牙醫診所,私立牙醫診所,牙醫一般診所,新北市五股區,2292-0616,新北市五股區五福路四十三號,,25.0896445,121.4334029
3731150265,德音牙醫診所,私立牙醫診所,牙醫一般診所,新北市五股區,02 9813537,新北市五股區成泰路一段１４９號,,25.0735853,121.4351981
3731151299,京橋牙醫診所,私立牙醫診所,牙醫一般診所,新北市五股區,27560530,新北市五股區成泰路二段五九號,,25.0835072,121.437921
3731151333,冠美牙醫診所,私立牙醫診所,牙醫一般診所,新北市五股區,02 22932537,新北市五股區成泰路二段二０八號一樓,,25.0897823,121.4362539
3731151351,義美牙醫診所,私立牙醫診所,牙醫一般診所,新北市五股區,02 22939198,新北市五股區成泰路二段一九四號,,25.0848261,121.4387409
3731160010,泰華牙醫診所,私立牙醫診所,牙醫一般診所,新北市泰山區,02 9061692,新北市泰山區明志路三段２０９號,,25.038395,121.4239625
3731160047,大新泰牙醫診所,私立牙醫診所,牙醫一般診所,新北市泰山區,02 9099819,新北市泰山區泰林路二段１９３號,,25.061272,121.4333528
3731160065,泰上牙醫診所,私立牙醫診所,牙醫一般診所,新北市泰山區,02 9096215,新北市泰山區明志路一段２０２號,,25.0619832,121.4328783
3731160092,安仁牙醫診所,私立牙醫診所,牙醫一般診所,新北市泰山區,222962341,新北市泰山區泰林路二段２９４號,,25.062638,121.4310457
3731160154,新象牙醫診所,私立牙醫診所,牙醫一般診所,新北市泰山區,229089202,新北市泰山區明志路二段三四四號二樓,,25.0454096,121.4259392
3731160163,泰山牙醫診所,私立牙醫診所,牙醫一般診所,新北市泰山區,229091252,新北市泰山區明志路一段二九二號一樓,,25.0598271,121.4318791
3731161197,信美牙醫診所,私立牙醫診所,牙醫一般診所,新北市泰山區,02-29007348,新北市泰山區泰林路二段一一二號,,25.0590289,121.4347215
3731161204,喜美牙醫診所,私立牙醫診所,牙醫一般診所,新北市泰山區,22975332,新北市泰山區明志路一段七號,,25.0660198,121.4337021
3731170043,吉隆牙醫診所,私立牙醫診所,牙醫一般診所,新北市林口區,02 6030006,新北市林口區中正路２９５號,,25.0777011,121.3893988
3731170052,林口周牙醫診所,私立牙醫診所,牙醫一般診所,新北市林口區,26035530,新北市林口區中山路１２９號１Ｆ,,25.0790083,121.3879035
3731170061,坤冉牙醫診所,私立牙醫診所,牙醫一般診所,新北市林口區,02 6033938,新北市林口區中正路１４３號,,25.0772555,121.393067
3731170089,麗園牙醫診所,私立牙醫診所,牙醫一般診所,新北市林口區,229335663,新北市林口區麗園一街六巷二號一樓之一,,25.0702094,121.3778882
3731171139,林安牙醫診所,私立牙醫診所,牙醫一般診所,新北市林口區,26012000,新北市林口區一六一號,,25.0790108,121.3881378
3731171148,惠群牙醫診所,私立牙醫診所,牙醫一般診所,新北市林口區,2609-8280,新北市林口區文化二路1段２０巷９號,,25.0720702,121.3705324
3731141631,博育牙醫診所,私立牙醫診所,牙醫一般診所,新北市蘆洲區,22829546,新北市蘆洲區民族路一０五號,,25.0839817,121.4754821
3731130718,瑞康牙醫診所,私立牙醫診所,牙醫一般診所,新北市土城區,22747635,新北市土城區中央路2段41號1樓,,24.979733,121.442936
3731130736,嘉德沈牙醫診所,私立牙醫診所,牙醫一般診所,新北市土城區,222662057,新北市土城區明德路2段二一一號,,24.9836237,121.4462285
3731130763,傑聖牙醫診所,私立牙醫診所,牙醫一般診所,新北市土城區,222731247,新北市土城區裕民路二三六號一樓,,24.9836257,121.4538528
3731130781,聯揚牙醫診所,私立牙醫診所,牙醫一般診所,新北市土城區,02-22742637,新北市土城區中央路2段一七六號,,24.9763005,121.4416846
3731130790,德祥牙醫診所,私立牙醫診所,牙醫一般診所,新北市土城區,222604349,新北市土城區延吉街三三七號一樓,,24.9840496,121.4650643
3731131813,誼家牙醫診所,私立牙醫診所,牙醫一般診所,新北市土城區,22748933,新北市土城區清水路一八一號,,24.9816899,121.459421
3731131859,康群牙醫診所,私立牙醫診所,牙醫一般診所,新北市土城區,282620688,新北市土城區延吉街一二四號,,24.9859387,121.4694922
3731131868,宏維牙醫診所,私立牙醫診所,牙醫一般診所,新北市土城區,222643168,新北市土城區學府路1段一五三號,,24.985955,121.4534342
3731131877,土城新雅牙醫診所,私立牙醫診所,牙醫一般診所,新北市土城區,82612065,新北市土城區中央路一段150、152號1樓,,24.9877479,121.4461525
3731131895,嘉恩牙醫診所,私立牙醫診所,牙醫一般診所,新北市土城區,82623263,新北市土城區延吉街143號樓,,24.9853026,121.4684394
3731131902,信誠牙醫診所,私立牙醫診所,牙醫一般診所,新北市土城區,82601814,新北市土城區明峰街40號1樓,,24.9860335,121.4669418
3731131911,馥昱牙醫診所,私立牙醫診所,牙醫一般診所,新北市土城區,82622366,新北市土城區青雲路164號,,24.9829479,121.4590247
3731131993,佳楷牙醫診所,私立牙醫診所,牙醫一般診所,新北市土城區,22633436,新北市土城區學府路1段113號1、2樓,,24.987391,121.4556069
3731132016,富康牙醫診所,私立牙醫診所,牙醫一般診所,新北市土城區,22620012,新北市土城區裕民路108號1、2樓,,24.9867043,121.4507397
3731132025,沅鴻牙醫診所,私立牙醫診所,牙醫一般診所,新北市土城區,22675188,新北市土城區承天路7號1樓,,24.9660363,121.4362539
3731132034,聯宇牙醫診所,私立牙醫診所,牙醫診所,新北市土城區,22662088,新北市土城區金城路3段176號1、2樓,,24.987498,121.4680326
3731060999,聯華牙醫診所,私立牙醫診所,牙醫一般診所,新北市新莊區,02 9900211,新北市新莊區昌平街71巷2號‧4號1樓至2樓及73號2樓,,25.0537739,121.45454
3731061030,修正牙醫診所,私立牙醫診所,牙醫一般診所,新北市新莊區,222049795,新北市新莊區四維路１９９號１樓,,25.0206519,121.422125
3731061067,高泰牙醫診所,私立牙醫診所,牙醫一般診所,新北市新莊區,02 2039609,新北市新莊區中正路３４９號,,25.0348128,121.4470192
3731061094,許文政牙醫診所,私立牙醫診所,牙醫一般診所,新北市新莊區,(02)8991-3788 ,新北市新莊區幸福路５６０號,,25.0494638,121.454604
3731061110,欣安牙醫診所,私立牙醫診所,牙醫一般診所,新北市新莊區,2,新北市新莊區民安路１６０號,,25.024548,121.424726
3731061129,名家牙醫診所,私立牙醫診所,牙醫一般診所,新北市新莊區,289916108,新北市新莊區中和街１８７號,,25.050806,121.447812
3731061147,全家福牙醫診所,私立牙醫診所,牙醫一般診所,新北市新莊區,02 2517442,新北市新莊區新泰路１６２號,,25.037665,121.447678
3731061174,新莊尚品牙醫診所,私立牙醫診所,牙醫一般診所,新北市新莊區,229980898,新北市新莊區復興路二段四十五．四十七號,,25.0265985,121.4178347
3731061254,祐康牙醫診所,私立牙醫診所,牙醫一般診所,新北市新莊區,222797479,新北市新莊區復興路一段185號1樓至2樓、187號1樓至2樓,,25.0265985,121.4178347
3731061325,安心牙醫診所,私立牙醫診所,牙醫一般診所,新北市新莊區,222769366,新北市新莊區民安西路三十九號一樓,,25.020844,121.427647
3731061398,建福牙醫診所,私立牙醫診所,牙醫一般診所,新北市新莊區,82017308,新北市新莊區建福路53號1至2樓,,25.02752,121.426824
3731062448,立齡牙醫診所,私立牙醫診所,牙醫一般診所,新北市新莊區,02-29961910,新北市新莊區中正路399號1樓,,25.034428,121.445321
3731062475,虹霖牙醫診所,私立牙醫診所,牙醫一般診所,新北市新莊區,02-89928095,新北市新莊區幸福路600號一樓,,25.0494272,121.4532376
3731062500,博安牙醫診所,私立牙醫診所,牙醫一般診所,新北市新莊區,22081545,新北市新莊區富國路四三號,,25.0264369,121.4191701
3731062528,四維牙醫診所,私立牙醫診所,牙醫一般診所,新北市新莊區,22016835,新北市新莊區四維路19號2樓.21號7樓,,25.024205,121.423618
3731062537,誠泰牙醫診所,私立牙醫診所,牙醫一般診所,新北市新莊區,02 22067379,新北市新莊區建安街八十四號,,25.0246702,121.4273016
3731062546,康泰牙醫診所,私立牙醫診所,牙醫一般診所,新北市新莊區,02 22777067,新北市新莊區幸福路七二一號1樓及2樓,,25.0490736,121.4494997
3731052166,吉安牙醫診所,私立牙醫診所,牙醫一般診所,新北市新店區,02 86668587,新北市新店區安民街63號1樓,,24.9665553,121.5163846
3731052273,新采牙醫診所,私立牙醫診所,牙醫一般診所,新北市新店區,286655812,新北市新店區中興路一段二六六之三號一樓,,24.967224,121.545393
3731052282,欣和牙醫診所,私立牙醫診所,牙醫一般診所,新北市新店區,29411686,新北市新店區新和街三十四號一樓,,24.9847799,121.5192757
3731052291,品淳牙醫診所,私立牙醫診所,牙醫一般診所,新北市新店區,02-22122582,新北市新店區安民街157號1樓、2樓,,24.9697842,121.5165513
3731052344,千悅牙醫診所,私立牙醫診所,牙醫一般診所,新北市新店區,229177505,新北市新店區中正路226、228號2樓,,24.9728833,121.5401548
3731052362,晶采牙醫診所,私立牙醫診所,牙醫一般診所,新北市新店區,229142028,新北市新店區民權路46號2樓,,24.9830694,121.5401637
3731052399,敦鄰牙醫診所,私立牙醫診所,牙醫一般診所,新北市新店區,229151555,新北市新店區北新路三段92號1、2樓,,24.9808389,121.542014
3731052406,薪寶牙醫診所,私立牙醫診所,牙醫診所,新北市新店區,229106216,新北市新店區寶橋路52號2樓,,24.974819,121.5453752
3731052424,舒美牙醫診所,私立牙醫診所,牙醫診所,新北市新店區,286653018,新北市新店區建國路206號1樓,,24.9807358,121.537848
3731052442,大坪林牙醫診所,私立牙醫診所,牙醫診所,新北市新店區,286655103,新北市新店區北新路三段65巷6號1樓,,24.981108,121.5412297
3731032995,齊美牙醫診所,私立牙醫診所,牙醫一般診所,新北市永和區,29292879,新北市永和區中正路742號1樓,,25.0103879,121.515338
3731033036,嘉祐牙醫診所,私立牙醫診所,牙醫診所,新北市永和區,89238653,新北市永和區得和路227號,,25.000355,121.519958
3731033054,維恆牙醫診所,私立牙醫診所,牙醫診所,新北市永和區,86608536,新北市永和區永和路一段108號1、2樓,,25.0073969,121.51364
3731033072,清池牙醫診所,私立牙醫診所,牙醫診所,新北市永和區,29298174,新北市永和區福和路272號1、2樓,,25.0076744,121.5179148
3731033081,匯豐牙醫診所,私立牙醫診所,牙醫診所,新北市永和區,929389509,新北市永和區永元路91號1樓,,25.001668,121.522254
3731033107,御登牙醫診所,私立牙醫診所,牙醫診所,新北市永和區,28288098,新北市永和區福和路316號,,25.0073451,121.5158889
3731033125,鍾山牙醫診所,私立牙醫診所,牙醫診所,新北市永和區,29217917,新北市永和區仁愛路10號1樓,,25.013855,121.515016
3731040013,立安牙醫診所,私立牙醫診所,牙醫一般診所,新北市中和區,22237966,新北市中和區錦和路一七八號,,24.9955216,121.489881
3731040077,瑞祥牙醫診所,私立牙醫診所,牙醫一般診所,新北市中和區,231518101,新北市中和區景新街５０８號１樓,,24.986854,121.513826
3731040086,景平牙醫診所,私立牙醫診所,牙醫一般診所,新北市中和區,02 2471415,新北市中和區景平路３７７號,,24.9933553,121.5037388
3731040111,華泰牙醫診所,私立牙醫診所,牙醫一般診所,新北市中和區,02 9418546,新北市中和區保健路２３號,,24.9981394,121.5082637
3731040120,錦和牙醫診所,私立牙醫診所,牙醫一般診所,新北市中和區,02 2474320,新北市中和區圓通路２４０之１號,,24.9923754,121.4946178
3731040148,大中和牙醫診所,私立牙醫診所,牙醫一般診所,新北市中和區,02 2222287,新北市中和區中山路二段六十號一樓,,25.0047969,121.503921
3731040157,三民牙醫診所,私立牙醫診所,牙醫一般診所,新北市中和區,229431056,新北市中和區景新街３９９巷４號、６號１樓,,24.9995059,121.502573
3731040184,雙和牙醫診所,私立牙醫診所,牙醫一般診所,新北市中和區,02 9253649,新北市中和區復興路２７１號,,24.9901806,121.5024115
3731040193,如美牙醫診所,私立牙醫診所,牙醫一般診所,新北市中和區,02 2220087,新北市中和區員山路１３０號,,24.996239,121.481266
3731040200,林志和牙醫診所,私立牙醫診所,牙醫一般診所,新北市中和區,02 9427665,新北市中和區景新街３０８號,,24.9917522,121.5114325
3731040255,薛牙醫診所,私立牙醫診所,牙醫一般診所,新北市中和區,02 29498166,新北市中和區仁愛街86號1樓,,24.9873271,121.5114314
3731040273,智上牙醫診所,私立牙醫診所,牙醫一般診所,新北市中和區,02 2481038,新北市中和區連城路７６號,,25.001114,121.497221
3731040326,新格牙醫診所,私立牙醫診所,牙醫一般診所,新北市中和區,02 2227345,新北市中和區自立路１８１號,,24.9918869,121.5234911
3731040380,中和林牙醫診所,私立牙醫診所,牙醫一般診所,新北市中和區,02 9414743,新北市中和區興南路一段７４－１號,,24.9900831,121.5105153
3731040399,一成牙醫診所,私立牙醫診所,牙醫一般診所,新北市中和區,02 22498983,新北市中和區中和路88號1、2樓,,25.0001769,121.501387
3731040406,聯慶牙醫診所,私立牙醫診所,牙醫一般診所,新北市中和區,02 2494338,新北市中和區南山路１６號２Ｆ,,24.9984042,121.5018823
3731040460,景新牙醫診所,私立牙醫診所,牙醫一般診所,新北市中和區,02 9447628,新北市中和區景新街４５１號,,24.9885057,121.5133291
3731032673,昭和牙醫診所,私立牙醫診所,牙醫一般診所,新北市永和區,02 29252075,新北市永和區中山路一段七號二樓,,25.0103035,121.5140444
3731030615,仁仁牙醫診所,私立牙醫診所,牙醫一般診所,新北市永和區,02 9295121,新北市永和區福和路208號1樓,,25.0078653,121.519752
3731030633,啟隆牙醫診所,私立牙醫診所,牙醫一般診所,新北市永和區,02 9251979,新北市永和區文化路５０號,,25.015265,121.5147502
3731030642,光耀牙醫診所,私立牙醫診所,牙醫一般診所,新北市永和區,02 29292027,新北市永和區秀朗路一段178號,,25.0031433,121.5188066
3731030740,惠忠牙醫診所,私立牙醫診所,牙醫一般診所,新北市永和區,02 9416389,新北市永和區中正路１２１號,,24.9976897,121.5156301
3731030795,秀和牙醫診所,私立牙醫診所,牙醫一般診所,新北市永和區,02 29208123,新北市永和區永元路十號,,25.0001233,121.5220463
3731030811,名德牙醫診所,私立牙醫診所,牙醫一般診所,新北市永和區,02 9288794,新北市永和區中和路３１１號,,24.999789,121.506853
3731030839,永慶牙醫診所,私立牙醫診所,牙醫一般診所,新北市永和區,89250829,新北市永和區竹林路１5號一樓,,25.0150064,121.5168299
3731030866,保福牙醫診所,私立牙醫診所,牙醫一般診所,新北市永和區,02 9214641,新北市永和區保福路一段４４號,,25.009296,121.512999
3731030893,群芳牙醫診所,私立牙醫診所,牙醫一般診所,新北市永和區,02 9210395,新北市永和區仁愛路１１３號,,25.013033,121.512182
3731030900,漢聲牙醫診所,私立牙醫診所,牙醫一般診所,新北市永和區,02 29258394,新北市永和區中正路545號一樓547一樓二樓,,25.0080604,121.516783
3731031014,民生張牙醫診所,私立牙醫診所,牙醫一般診所,新北市永和區,02 9282504,新北市永和區得和路４１５號,,24.9992213,121.5259848
3531142410,李明哲診所,私立西醫診所,西醫專科診所,新北市蘆洲區,22885110,新北市蘆洲區信義路246號1樓,"兒科,",25.0863826,121.4785231
3531142447,黃宗仁皮膚專科診所,私立西醫診所,西醫專科診所,新北市蘆洲區,28480900,新北市蘆洲區光華路４２號,"皮膚科,",25.0831174,121.4689235
3531142456,仁美診所,私立西醫診所,西醫專科診所,新北市蘆洲區,02-22828807,新北市蘆洲區中正路３７１號１、２、３樓,"內科,",25.090496,121.4647815
3531142509,民族診所,私立西醫診所,西醫醫務室,新北市蘆洲區,82857866,新北市蘆洲區民族路53號,,25.0854947,121.4785481
3531142536,群安診所,私立西醫診所,西醫醫務室,新北市蘆洲區,02-22894789,新北市蘆洲區長安街118號,,25.081704,121.460733
3531142545,長榮耳鼻喉科診所,私立西醫診所,西醫專科診所,新北市蘆洲區,02-22823350,新北市蘆洲區長榮路１５號１樓,"耳鼻喉科,",25.0822619,121.463395
3531142616,趙國雄診所,私立西醫診所,西醫醫務室,新北市蘆洲區,228470001,新北市蘆洲區民族路464號1樓,"家庭醫學科,",25.092207,121.471902
3531142634,蘆洲實和復健診所,私立西醫診所,西醫專科診所,新北市蘆洲區,82869320,新北市蘆洲區長榮路156號1樓~2樓,"復健科,",25.085026,121.461484
3531142643,康廷耳鼻喉科診所,私立西醫診所,西醫專科診所,新北市蘆洲區,22825133,新北市蘆洲區中正路124號,"耳鼻喉科,",25.0849267,121.4693738
3531142705,長榮宥宥婦產科診所,私立西醫診所,西醫診所,新北市蘆洲區,22835758,新北市蘆洲區永樂街2號1樓~3樓,"婦產科,",25.088386,121.459209
3531142732,真善美婦產科診所,私立西醫診所,西醫診所,新北市蘆洲區,22886611,新北市蘆洲區中山一路41號一樓,"婦產科,",25.080855,121.478881
3531142769,乾祐診所,私立西醫診所,西醫診所,新北市蘆洲區,22817039,新北市蘆洲區中正路119號,"內科,",25.0842672,121.4696067
3531142803,佑明眼科診所,私立西醫診所,西醫診所,新北市蘆洲區,82857182,新北市蘆洲區長安街283號1樓,"眼科,",25.0843879,121.4583173
3531142812,小茄子兒科診所,私立西醫診所,西醫診所,新北市蘆洲區,82827118,新北市蘆洲區中正路22號1樓,"兒科,",25.0822268,121.4714586
3531142830,蘆洲大愛眼科診所,私立西醫診所,西醫診所,新北市蘆洲區,28472345,新北市蘆洲區長榮路47-1號1樓2樓,"眼科,",25.0828905,121.4628151
3531150163,成洲診所,私立西醫診所,西醫醫務室,新北市五股區,222919463,新北市五股區凌雲路一段七十三號,,25.1010732,121.4509631
3531150190,英安診所,私立西醫診所,西醫醫務室,新北市五股區,2955695,新北市五股區工商路七九號,"家庭醫學科,",25.0849733,121.4383562
3531150216,鴻佑診所,私立西醫診所,西醫醫務室,新北市五股區,02 8949981,新北市五股區成泰路二段６１號１樓,,25.083582,121.4378979
3531150323,鐘耳鼻喉科診所,私立西醫診所,西醫專科診所,新北市五股區,282953587,新北市五股區成泰路二段57號1樓、2樓,"耳鼻喉科,",25.0834729,121.437862
3531151428,信恆診所,私立西醫診所,西醫醫務室,新北市五股區,02 89882077,新北市五股區中興路一段七十四號,,25.0729198,121.467143
3531140318,陳介臣婦產科診所,私立西醫診所,西醫醫務室,新北市蘆洲區,02 2832312,新北市蘆洲區中山二路１３９號1樓-2樓,"婦產科,",25.0814355,121.4718402
3531140372,永全診所,私立西醫診所,西醫醫務室,新北市蘆洲區,02 2890332,新北市蘆洲區中山一路241號,"家庭醫學科,內科,",25.0804133,121.4733038
3531140434,黃淞濱內科診所,私立西醫診所,西醫專科診所,新北市蘆洲區,02 2813459,新北市蘆洲區中山一路４８號,"內科,",25.081046,121.479404
3531110954,李懷德小兒科診所,私立西醫診所,西醫診所,新北市汐止區,86478323,新北市汐止區忠孝東路343號(第一層),"兒科,",25.070267,121.665342
3531110972,湖前診所,私立西醫診所,西醫醫務室,新北市汐止區,226922219,新北市汐止區湖前街六十號之三,"家庭醫學科,",25.0701555,121.6321538
3531111022,陳正恆小兒科診所,私立西醫診所,西醫診所,新北市汐止區,286931716,新北市汐止區福德一路二二０號一樓,"兒科,",25.0642781,121.6306319
3531111031,洪皮膚科診所,私立西醫診所,西醫專科診所,新北市汐止區,225283137,新北市汐止區湖前街四十一號,"皮膚科,",25.0698694,121.6320324
3531111077,東暉診所,私立西醫診所,西醫醫務室,新北市汐止區,226433774,新北市汐止區新興路三號八樓,,25.0650945,121.6564296
3531112083,佳祥診所,私立西醫診所,西醫診所,新北市汐止區,26954806,新北市汐止區民族三街7號1樓,,25.070409,121.630739
3531112154,彭耳鼻喉專科診所,私立西醫診所,西醫專科診所,新北市汐止區,86932293,新北市汐止區中興路二二六號,"耳鼻喉科,",25.066718,121.630983
3531112216,蘇小兒科診所,私立西醫診所,西醫醫務室,新北市汐止區,02 26935513,新北市汐止區福德一路二四五號,"兒科,",25.0646539,121.633749
3531112323,許至仁診所,私立西醫診所,西醫醫務室,新北市汐止區,02 86423789,新北市汐止區忠孝東路二九０號,,25.0639234,121.6570855
3531112421,青山診所,私立西醫診所,西醫醫務室,新北市汐止區,26907959,新北市汐止區莊敬街一二九號一樓,,25.0607021,121.6547185
3531112583,朝芳診所,私立西醫診所,西醫醫務室,新北市汐止區,26427297,新北市汐止區中正路八號,,25.070183,121.66298
3531112618,福德診所,私立西醫診所,西醫診所,新北市汐止區,02-26347024,新北市汐止區福德二路一七一號,"兒科,",25.0650843,121.6307588
3531112627,世康診所,私立西醫診所,西醫醫務室,新北市汐止區,02-26410051,新北市汐止區中興路86號3樓,"內科,",25.0621892,121.634888
3531112645,陳眼科診所,私立西醫診所,西醫專科診所,新北市汐止區,02-26476225,新北市汐止區忠孝東路241號1樓及3樓,"眼科,",25.06743,121.6627856
3531104803,能安診所,私立西醫診所,西醫醫務室,新北市淡水區,26258341,新北市淡水區博愛街六八號一樓,,25.1686305,121.4471293
3531104821,祐銘耳鼻喉科診所,私立西醫診所,西醫專科診所,新北市淡水區,88095239,新北市淡水區民族路31號1、2樓,"耳鼻喉科,",25.1361791,121.4622079
3531104876,睛采眼科診所,私立西醫診所,西醫專科診所,新北市淡水區,86312967,新北市淡水區大忠街113巷29號,"眼科,",25.1762666,121.44403
3531104894,英專耳鼻喉科皮膚科診所,私立西醫診所,西醫診所,新北市淡水區,86317678,新北市淡水區英專路96號,"耳鼻喉科,皮膚科,",25.1717077,121.4458289
3531104901,梁衛賓診所,私立西醫診所,西醫診所,新北市淡水區,920997357,新北市淡水區中山路186號,"內科,",25.1743919,121.4414881
3531064091,黃宏立診所,私立西醫診所,西醫專科診所,新北市新莊區,89927606,新北市新莊區新泰路三二六號一樓,"外科,",25.0418429,121.445192
3531064117,麗新皮膚科診所,私立西醫診所,西醫專科診所,新北市新莊區,89938989,新北市新莊區幸福路559號1樓,"皮膚科,",25.0491715,121.4544324
3531064126,廣田耳鼻喉科診所,私立西醫診所,西醫專科診所,新北市新莊區,29906799,新北市新莊區幸福路777號1樓,"耳鼻喉科,",25.0489196,121.4469696
3531064180,長美麗緻診所,私立西醫診所,西醫醫務室,新北市新莊區,89925818,新北市新莊區思源路213號2樓,,25.046026,121.459594
3531064199,新莊大愛眼科診所,私立西醫診所,西醫專科診所,新北市新莊區,82015050,新北市新莊區中正路333號1至2樓,"眼科,",25.0263393,121.4176541
3531064206,立安耳鼻喉科診所,私立西醫診所,西醫專科診所,新北市新莊區,29933885,新北市新莊區福壽街134號1樓,"耳鼻喉科,",25.051561,121.458004
3531064224,家豐診所,私立西醫診所,西醫專科診所,新北市新莊區,22062239,新北市新莊區中正路377巷5號1至2樓及地下1樓、3號1樓,"復健科,",25.0341508,121.446335
3531064233,瑞和復健科診所,私立西醫診所,西醫專科診所,新北市新莊區,89929090,新北市新莊區中平路160號1樓,"復健科,",25.0475419,121.444924
3531064251,安田耳鼻喉科診所,私立西醫診所,西醫專科診所,新北市新莊區,29948585,新北市新莊區自信街51號1樓,"耳鼻喉科,",25.0483635,121.4548671
3531064260,李蓮宗診所,私立西醫診所,西醫醫務室,新北市新莊區,29944897,新北市新莊區新泰路480號1樓,,25.045625,121.442941
3531064304,公園診所,私立西醫診所,西醫醫務室,新北市新莊區,29943101,新北市新莊區公園路58號1樓,,25.0393936,121.4494197
3531064313,一生診所,私立西醫診所,西醫醫務室,新北市新莊區,29917660,新北市新莊區中平路304號1樓,,25.0515136,121.4447474
3531064331,隆安診所,私立西醫診所,西醫醫務室,新北市新莊區,22056955,新北市新莊區龍安路465號,,25.018635,121.424957
3531064420,光華診所,私立西醫診所,西醫診所,新北市新莊區,22064225,新北市新莊區民安西路323號,,25.011192,121.427543
3531064439,施博仁診所,私立西醫診所,西醫診所,新北市新莊區,29942078,新北市新莊區新泰路234號1樓,,25.0393487,121.4464562
3531064448,麗安診所,私立西醫診所,西醫診所,新北市新莊區,29988010,新北市新莊區幸福路541號1樓,,25.0491823,121.4549325
3531064466,佳泰診所,私立西醫診所,西醫診所,新北市新莊區,29945994,新北市新莊區新泰路62號,,25.034837,121.4494212
3531064484,禾豐骨外科診所,私立西醫診所,西醫診所,新北市新莊區,22023777,新北市新莊區民安路284號1.2樓及286號1樓,"外科,骨科,",25.021444,121.427911
3531064519,上和耳鼻喉科診所,私立西醫診所,西醫診所,新北市新莊區,29907980,新北市新莊區中和街150號,"耳鼻喉科,",25.0511362,121.4482555
3531064528,輔大診所,私立西醫診所,西醫診所,新北市新莊區,29052526,新北市新莊區中正路510號(醫學綜合大樓1樓),"家庭醫學科,內科,婦產科,骨科,神經科,復健科,",25.0336491,121.433255
3531064591,祥佑診所,私立西醫診所,西醫診所,新北市新莊區,29927595,新北市新莊區中安街7號3樓,"內科,",25.0469588,121.4528186
3531064617,家泰耳鼻喉科診所,私立西醫診所,西醫診所,新北市新莊區,29945902,新北市新莊區新泰路70號1樓,"耳鼻喉科,",25.0349879,121.449399
3531065123,志安診所,私立西醫診所,西醫醫務室,新北市新莊區,22769455,新北市新莊區幸福路五二一號,,25.0491992,121.4554984
3531070017,賴內科小兒科診所,私立西醫診所,西醫醫務室,新北市樹林區,26812098,新北市樹林區育英街五二號,"內科,兒科,",24.989293,121.421226
3531070071,煥生內科小兒科診所,私立西醫診所,西醫專科診所,新北市樹林區,02 6814538,新北市樹林區保安街一段４７號,"內科,兒科,",24.994648,121.423805
3531070099,許芳豪內科小兒科診所,私立西醫診所,西醫專科診所,新北市樹林區,02 6817269,新北市樹林區千歲街４５－３號,"內科,兒科,",24.9963699,121.425354
3531070133,賴貞祥婦產科診所,私立西醫診所,西醫專科診所,新北市樹林區,02 6832830,新北市樹林區中山路一段１６０號,"婦產科,",24.98949,121.422162
3531062113,新和耳鼻喉科診所,私立西醫診所,西醫專科診所,新北市新莊區,229938636,新北市新莊區幸福路69號1樓,"耳鼻喉科,",25.0492933,121.4571922
3531062131,陳明哲診所,私立西醫診所,西醫醫務室,新北市新莊區,(02)8994-1856,新北市新莊區中港路３７５號,,25.0462419,121.4518795
3531062168,馨平耳鼻喉科診所,私立西醫診所,西醫專科診所,新北市新莊區,289921881,新北市新莊區中平路82巷12號1樓及夾層,"耳鼻喉科,",25.042802,121.445015
3531062195,林復森耳鼻喉科診所,私立西醫診所,西醫專科診所,新北市新莊區,222011378,新北市新莊區民安路二二０號,"耳鼻喉科,",25.028052,121.422894
3531062202,蘇診所,私立西醫診所,西醫醫務室,新北市新莊區,222069926,新北市新莊區民安路一０九號,,25.0283319,121.423052
3531140489,林錦榮小兒科診所,私立西醫診所,西醫專科診所,新北市蘆洲區,02 2887097,新北市蘆洲區中華街６６號,"兒科,",25.0799993,121.4613645
3531140505,蘆洲李耳鼻喉科診所,私立西醫診所,西醫專科診所,新北市蘆洲區,02 28475799,新北市蘆洲區中華街63號2樓、67號2樓,"兒科,耳鼻喉科,",25.0807429,121.462363
3531140523,潘眼科診所,私立西醫診所,西醫診所,新北市蘆洲區,02 28483497,新北市蘆洲區中正路11號1樓2樓,"眼科,",25.0958214,121.4634491
3531140578,黃健勇皮膚科診所,私立西醫診所,西醫專科診所,新北市蘆洲區,02 2885729,新北市蘆洲區中正路55號,"皮膚科,",25.0826752,121.470678
3531140587,宏國診所,私立西醫診所,西醫醫務室,新北市蘆洲區,02 2920048,新北市蘆洲區信義路２７２號,,25.087065,121.478068
3531140612,天賜耳鼻喉科診所,私立西醫診所,西醫專科診所,新北市蘆洲區,222890237,新北市蘆洲區中山二路四十八號,"耳鼻喉科,",25.082269,121.474019
3531140621,宏康診所,私立西醫診所,西醫醫務室,新北市蘆洲區,02 2885215,新北市蘆洲區長安街２０７巷３號,,25.0818971,121.4597129
3531140710,鴻昇診所,私立西醫診所,西醫醫務室,新北市蘆洲區,22893514,新北市蘆洲區中原路51號,"家庭醫學科,",25.0822264,121.4592816
3531140729,霖安診所,私立西醫診所,西醫醫務室,新北市蘆洲區,,新北市蘆洲區永樂街三八巷四五弄二號一樓,,25.0899793,121.4581403
3531140738,劉安邦耳鼻喉科診所,私立西醫診所,西醫專科診所,新北市蘆洲區,02 22819819,新北市蘆洲區中正路十三號,"耳鼻喉科,",25.0817977,121.4714689
3531140783,曉兒耳鼻喉科診所,私立西醫診所,西醫專科診所,新北市蘆洲區,222888468,新北市蘆洲區中山二路一五一號,"耳鼻喉科,",25.0813838,121.4715981
3531140907,蘇眼科診所,私立西醫診所,西醫專科診所,新北市蘆洲區,227761173,新北市蘆洲區中正路一六三號一樓,"眼科,",25.0849986,121.4690379
3531140916,林昭良耳鼻喉科診所,私立西醫診所,西醫專科診所,新北市蘆洲區,228484695,新北市蘆洲區復興路七十號,"耳鼻喉科,",25.0864334,121.4749566
3531140934,張眼科診所,私立西醫診所,西醫專科診所,新北市蘆洲區,228486910,新北市蘆洲區中華街六十九號二樓之二,"眼科,",25.0798716,121.4614217
3531140943,蘆洲成功耳鼻喉科診所,私立西醫診所,西醫醫務室,新北市蘆洲區,282833588,新北市蘆洲區長安街二五三號1樓2樓,"耳鼻喉科,",25.083363,121.4589887
3531142009,重陽診所,私立西醫診所,西醫醫務室,新北市蘆洲區,82826484,新北市蘆洲區民族路244號,"骨科,",25.0885378,121.4792685
3531142081,聯邦診所,私立西醫診所,西醫醫務室,新北市蘆洲區,22837080,新北市蘆洲區長安街五二號,,25.0798439,121.4632114
3531142090,鴻文耳鼻喉科診所,私立西醫診所,西醫醫務室,新北市蘆洲區,82863222,新北市蘆洲區集賢路二二四巷14號,"耳鼻喉科,",25.0871045,121.4819942
3531142134,慶明眼科診所,私立西醫診所,西醫醫務室,新北市蘆洲區,02 22852288,新北市蘆洲區中山二路32號1樓2樓3樓,"眼科,",25.0820228,121.4743775
3531142170,祐康診所,私立西醫診所,西醫醫務室,新北市蘆洲區,82855805,新北市蘆洲區復興路200號1樓,,25.0888753,121.4783599
3531142198,詠贊聯合診所,私立西醫診所,西醫醫務室,新北市蘆洲區,02 8283-1556,新北市蘆洲區中正路八十五號1-4樓,"內科,",25.0836755,121.4699064
3531142250,大安診所,私立西醫診所,西醫專科診所,新北市蘆洲區,828557182,新北市蘆洲區長安街二八三號,"家庭醫學科,內科,",25.0843879,121.4583173
3531132389,羅文亮小兒科診所,私立西醫診所,西醫專科診所,新北市土城區,02-82623060,新北市土城區裕民路144號1樓,"兒科,",24.9858568,121.4515969
3531132469,元福診所,私立西醫診所,西醫醫務室,新北市土城區,82623313,新北市土城區明德路二段62號4樓,"內科,",24.9831024,121.4484798
3531132496,宏陽耳鼻喉科診所,私立西醫診所,西醫專科診所,新北市土城區,02 82629168,新北市土城區學府路1段一O五號,"耳鼻喉科,",24.9880866,121.4595459
3531104929,黃麟偉診所,私立西醫診所,西醫診所,新北市淡水區,26267886,新北市淡水區新春街163號,"兒科,",25.1814126,121.4428681
3531104947,水碓瑞安診所,私立西醫診所,西醫診所,新北市淡水區,26203669,新北市淡水區北新路182巷61號,"家庭醫學科,",25.1773673,121.4477422
3531104956,彩虹眼科診所,私立西醫診所,西醫診所,新北市淡水區,02-26290638,新北市淡水區中山北路一段89號,"眼科,",25.1762847,121.4423272
3531104965,怡安診所,私立西醫診所,西醫診所,新北市淡水區,02-26215566,新北市淡水區中正東路一段57、59號1、2樓,"內科,",25.1625997,121.4526515
3531104974,祐銘眼科診所,私立西醫診所,西醫診所,新北市淡水區,02-88095239,新北市淡水區民族路31號1、2樓,"眼科,",25.1361791,121.4622079
3531104992,淡海診所,私立西醫診所,西醫診所,新北市淡水區,28057068,新北市淡水區沙崙路118號,,25.182192,121.42322
3531105006,恩友診所,私立西醫診所,西醫診所,新北市淡水區,26268476,新北市淡水區大義街5號1樓,"家庭醫學科,",25.1781577,121.4437812
3531110025,楊內科小兒科診所,私立西醫診所,西醫診所,新北市汐止區,02-26420233,新北市汐止區汐萬路一段２５號,"內科,兒科,",25.0677547,121.6556982
3531110052,民生診所,私立西醫診所,西醫醫務室,新北市汐止區,02 6412072,新北市汐止區中正路２９４號,"兒科,",25.068532,121.65642
3531110338,佑昌內科診所,私立西醫診所,西醫專科診所,新北市汐止區,02 6943570,新北市汐止區中興路９５號,"內科,",25.064527,121.632524
3531110383,體生診所,私立西醫診所,西醫醫務室,新北市汐止區,02-26412427,新北市汐止區和平街103、105號1樓,,25.0700492,121.6609438
3531110605,黃玟珍診所,私立西醫診所,西醫醫務室,新北市汐止區,226476506,新北市汐止區樟樹一路１２２號,,25.064315,121.642172
3531110614,林郁容診所,私立西醫診所,西醫醫務室,新北市汐止區,6486803,新北市汐止區中正路三一號,,25.070171,121.662359
3531110650,高登眼科診所,私立西醫診所,西醫專科診所,新北市汐止區,02 6493939,新北市汐止區大同路二段282號2樓,"眼科,",25.0660893,121.6544022
3531110687,宏彬診所,私立西醫診所,西醫診所,新北市汐止區,02-56478860,新北市汐止區茄苳路37號1樓,,25.071057,121.665599
3531090386,錦霖診所,私立西醫診所,西醫醫務室,新北市三峽區,226731271,新北市三峽區文化路８６號,,24.936216,121.371854
3531090439,趙敏政耳鼻喉科診所,私立西醫診所,西醫專科診所,新北市三峽區,286743300,新北市三峽區復興路93、95號1樓,"耳鼻喉科,",24.9376361,121.37224
3531090448,吉象診所,私立西醫診所,西醫醫務室,新北市三峽區,226738694,新北市三峽區中華路二十四號一樓,,24.932666,121.374121
3531063389,青青診所,私立西醫診所,西醫醫務室,新北市新莊區,29980055,新北市新莊區中平路50號1樓,,25.0439872,121.444946
3531063398,康群診所,私立西醫診所,西醫醫務室,新北市新莊區,86919542,新北市新莊區民安西路74號,,25.0200416,121.4271078
3531063469,莊申南婦產科診所,私立西醫診所,西醫診所,新北市新莊區,22040519,新北市新莊區後港一路29號1樓,"婦產科,",25.0260991,121.4252731
3531063512,李復健科骨科診所,私立西醫診所,西醫醫務室,新北市新莊區,29989287,新北市新莊區幸福路六八號,"骨科,復健科,",25.0495004,121.4570738
3531063594,沈耳鼻喉科診所,私立西醫診所,西醫專科診所,新北市新莊區,02 22064086,新北市新莊區民安路二０四號一樓,"耳鼻喉科,",25.028717,121.422636
3531063601,中心診所,私立西醫診所,西醫醫務室,新北市新莊區,02 22765992,新北市新莊區中港路三二一號一樓,,25.0449319,121.4524237
3531063629,志銘小兒科診所,私立西醫診所,西醫診所,新北市新莊區,02 22068999,新北市新莊區富國路200號1樓,"兒科,",25.024284,121.424734
3531063647,幸福小兒科診所,私立西醫診所,西醫專科診所,新北市新莊區,02 29919474,新北市新莊區幸福路七二九號,"兒科,",25.0490534,121.4492635
3531063674,大新大診所,私立西醫診所,西醫專科診所,新北市新莊區,222013833,新北市新莊區萬安街一二七巷二十四、二十六號一樓,"外科,骨科,",25.0219905,121.4216093
3531063692,林金龍小兒科診所,私立西醫診所,西醫專科診所,新北市新莊區,229978377,新北市新莊區新泰路二五一號一樓,"兒科,",25.0397645,121.4461106
3531063709,家恩診所,私立西醫診所,西醫醫務室,新北市新莊區,29910070,新北市新莊區昌明街三十八號一樓,,25.052357,121.456531
3531063790,錦興皮膚科診所,私立西醫診所,西醫專科診所,新北市新莊區,02-22032680,新北市新莊區民安路201號2樓,"皮膚科,",25.0223007,121.4262901
3531063807,安諾婦產科診所,私立西醫診所,西醫專科診所,新北市新莊區,02-29027765,新北市新莊區龍安路九十八號一至二樓,"家庭醫學科,婦產科,",25.020428,121.417967
3531063825,大學眼科診所,私立西醫診所,西醫專科診所,新北市新莊區,02-29909788,新北市新莊區新泰路242號1至2樓,"眼科,",25.0323465,121.4496402
3531063861,大益診所,私立西醫診所,西醫診所,新北市新莊區,02-29976501,新北市新莊區新泰路261號2樓、263號1-2樓,"骨科,",25.039975,121.4459304
3531063914,陳正敏眼科診所,私立西醫診所,西醫專科診所,新北市新莊區,02-22012160,新北市新莊區新泰路六十九號一樓,"眼科,",25.034152,121.449221
3531063941,賴昌和皮膚科診所,私立西醫診所,西醫醫務室,新北市新莊區,02-89925928,新北市新莊區新泰路316號1樓,"皮膚科,",25.041582,121.445326
3531061198,曲孝禮診所,私立西醫診所,西醫醫務室,新北市新莊區,02 9970205,新北市新莊區公園一路８４號１Ｆ,,25.036889,121.443363
3531061205,倖福眼科診所,私立西醫診所,西醫專科診所,新北市新莊區,02 29973270,新北市新莊區幸福路770號,"眼科,",25.0492303,121.4470875
3531061232,聶廷憲診所,私立西醫診所,西醫醫務室,新北市新莊區,02 2040040,新北市新莊區建安街９４號,"內科,",25.024058,121.4259902
3531061241,王建嘉小兒科診所,私立西醫診所,西醫專科診所,新北市新莊區,02 -29925261,新北市新莊區中誠街四十號一樓,"兒科,",25.0482203,121.4514198
3531061278,聯安診所,私立西醫診所,西醫醫務室,新北市新莊區,02 9986191,新北市新莊區中正路330號1樓.332號1樓.330-1號2樓及332-1號2樓,,25.0263385,121.4176537
3531061349,蔡鉅儒診所,私立西醫診所,西醫診所,新北市新莊區,02 2038453,新北市新莊區西盛街１８０號１Ｆ,,25.01887,121.428016
3531061438,王建民耳鼻喉科診所,私立西醫診所,西醫專科診所,新北市新莊區,02 9907055,新北市新莊區幸福路２６號,"耳鼻喉科,",25.0495606,121.4588696
3531061492,鄭安雄診所,私立西醫診所,西醫醫務室,新北市新莊區,,新北市新莊區幸福路５４９號１樓,,25.0491738,121.4547062
3531061590,林基正皮膚科診所,私立西醫診所,西醫專科診所,新北市新莊區,22769868,新北市新莊區幸福路806號1樓及815號2樓,"皮膚科,",25.0491017,121.4461029
3531061634,新莊林診所,私立西醫診所,西醫醫務室,新北市新莊區,9923850,新北市新莊區大觀街三四號,,25.0353409,121.4539559
3531061643,祐幼小兒科診所,私立西醫診所,西醫專科診所,新北市新莊區,2030993,新北市新莊區民安西路二一號一樓,"兒科,",25.021385,121.427117
3531061652,民富皮膚科診所,私立西醫診所,西醫專科診所,新北市新莊區,22063937,新北市新莊區富國路110號1樓、夾層,"皮膚科,",25.0251955,121.4219529
3531061661,昭明眼科診所,私立西醫診所,西醫醫務室,新北市新莊區,9980106,新北市新莊區民安西路十七號,"眼科,",25.021505,121.426977
3531061698,福華診所,私立西醫診所,西醫醫務室,新北市新莊區,29930909,新北市新莊區復興路二段111號1樓及111之1號,,25.0265985,121.4178347
3531061705,藍主仕眼科診所,私立西醫診所,西醫專科診所,新北市新莊區,22063987,新北市新莊區建安街一０二號1樓至2樓,"眼科,",25.0247707,121.4274403
3531061769,幸福呂耳鼻喉科診所,私立西醫診所,西醫專科診所,新北市新莊區,,新北市新莊區幸福路５２９號,"耳鼻喉科,",25.0491894,121.4552573
3531061812,照明眼科診所,私立西醫診所,西醫專科診所,新北市新莊區,9977748,新北市新莊區新泰路１７４號1樓及2樓,"眼科,",25.037948,121.44752
3531061830,王榮文小兒科診所,私立西醫診所,西醫醫務室,新北市新莊區,02 8915595,新北市新莊區中和街１４９號,"兒科,",25.049501,121.447259
3531061876,新莊徐耳鼻喉科診所,私立西醫診所,西醫專科診所,新北市新莊區,02 9907505,新北市新莊區中平路373號1樓,"耳鼻喉科,",25.0523322,121.4446181
3531061929,林定參診所,私立西醫診所,西醫醫務室,新北市新莊區,02-22070390,新北市新莊區民安西路二一一號一樓,,25.0148779,121.426143
3531061938,錦明耳鼻喉科診所,私立西醫診所,西醫專科診所,新北市新莊區,02 2028080,新北市新莊區民安路１９５號,"耳鼻喉科,",25.0225245,121.4261525
3531061947,黃信喜診所,私立西醫診所,西醫醫務室,新北市新莊區,02 2776658,新北市新莊區中港路132巷10號1樓,,25.0406235,121.4557339
3531061974,張昱錦診所,私立西醫診所,西醫醫務室,新北市新莊區,02 9932813,新北市新莊區後港一路１３５號１樓,,25.027501,121.429487
3531061983,健佑診所,私立西醫診所,西醫醫務室,新北市新莊區,9900716,新北市新莊區昌平街五五號一樓,,25.052979,121.454582
3531062006,劉建輝診所,私立西醫診所,西醫醫務室,新北市新莊區,02 2024912,新北市新莊區民安路１９１號,"家庭醫學科,",25.0226737,121.4260608
3531062051,黃呈榕眼科診所,私立西醫診所,西醫專科診所,新北市新莊區,(02)29972873,新北市新莊區幸福路三十號,"眼科,",25.0495494,121.4587377
3531062060,吳政德耳鼻喉科診所,私立西醫診所,西醫專科診所,新北市新莊區,222066608,新北市新莊區民安西路60號1樓及地下1樓,"耳鼻喉科,",25.020383,121.427195
3531053409,耀程耳鼻喉科診所,私立西醫診所,西醫診所,新北市新店區,229171110,新北市新店區三民路66號1樓,"耳鼻喉科,",24.972433,121.535161
3531060057,民泰診所,私立西醫診所,西醫醫務室,新北市新莊區,(02)22047742,新北市新莊區後港一路20號1樓,"家庭醫學科,內科,",25.0259622,121.4249683
3531060075,濟生診所,私立西醫診所,西醫專科診所,新北市新莊區,02-29031059,新北市新莊區中正路８８１－９號,"家庭醫學科,",25.0252608,121.4174585
3531060128,柯誠立婦產科診所,私立西醫診所,西醫專科診所,新北市新莊區,02 9926552,新北市新莊區新泰路一七一號一樓,"婦產科,",25.0373485,121.4474097
3531060226,黃政司診所,私立西醫診所,西醫醫務室,新北市新莊區,02 9915858,新北市新莊區新泰路１８１號,,25.0376215,121.447318
3531060315,中港診所,私立西醫診所,西醫醫務室,新北市新莊區,02 9938330,新北市新莊區中港路２６２號１樓,,25.0437663,121.4535653
3531060324,鄭骨科耳鼻喉科診所,私立西醫診所,西醫醫務室,新北市新莊區,02- 2992-9191,新北市新莊區中港路263號1、2樓及267巷1號1、2樓,"骨科,耳鼻喉科,",25.0432825,121.4536367
3531060397,林浩昌內兒科診所,私立西醫診所,西醫專科診所,新北市新莊區,02 9038357,新北市新莊區富國路７１號,"內科,兒科,",25.026126,121.419977
3531060440,洪敏捷耳鼻喉科診所,私立西醫診所,西醫專科診所,新北市新莊區,02 9924808,新北市新莊區新泰路１２２號,"耳鼻喉科,",25.036658,121.448308
3531060459,陳桔泱診所,私立西醫診所,西醫醫務室,新北市新莊區,02 9931161,新北市新莊區中港路１１９號,,25.039872,121.455092
3531060511,德安婦產科診所,私立西醫診所,西醫專科診所,新北市新莊區,02-22010706,新北市新莊區新泰路三十一號一至三樓,"家庭醫學科,婦產科,",25.0331086,121.4494615
3531060575,新莊林昆旗耳鼻喉科診所,私立西醫診所,西醫專科診所,新北市新莊區,02 9941111,新北市新莊區新泰路５２號,"耳鼻喉科,",25.0346335,121.4494495
3531060655,賀生婦產科診所,私立西醫診所,西醫專科診所,新北市新莊區,02- 29944327,新北市新莊區幸福路626號1至2樓,"家庭醫學科,婦產科,",25.0494828,121.4510737
3531060726,崇仁外科診所,私立西醫診所,西醫專科診所,新北市新莊區,02 29921543,新北市新莊區化成路一七０號,"家庭醫學科,外科,",25.0434703,121.4648817
3531060753,王正華小兒專科診所,私立西醫診所,西醫醫務室,新北市新莊區,02 9023763,新北市新莊區民安路２７６號,"兒科,",25.0213099,121.427745
3531060771,民安耳鼻喉科診所,私立西醫診所,西醫專科診所,新北市新莊區,02 9677399,新北市新莊區富國路１０７號,"耳鼻喉科,",25.024978,121.423421
3531060806,天給婦產科診所,私立西醫診所,西醫專科診所,新北市新莊區,02 9972608,新北市新莊區幸福路六七0巷二弄二十三號一至五樓,"家庭醫學科,婦產科,",25.0492591,121.4524938
3531060860,吉信耳鼻喉科診所,私立西醫診所,西醫專科診所,新北市新莊區,9923695,新北市新莊區中港路２８６號,"耳鼻喉科,",25.0443319,121.4531649
3531060940,謝耳鼻喉科診所,私立西醫診所,西醫專科診所,新北市新莊區,,新北市新莊區中港路４８７號１樓,"耳鼻喉科,",25.0568725,121.4507134
3531060995,陳世昌婦產科診所,私立西醫診所,西醫專科診所,新北市新莊區,02 9088750,新北市新莊區後港一路九十八號一樓、一００號一至二樓,"家庭醫學科,婦產科,",25.026682,121.427874
3531061045,邱欽斌小兒科診所,私立西醫診所,西醫專科診所,新北市新莊區,02 2050717,新北市新莊區民安路141號1樓.141-1號2樓.137巷2弄4號1樓,"兒科,",25.0206799,121.431556
3531061143,劉長達婦產科診所,私立西醫診所,西醫專科診所,新北市新莊區,02 29961672,新北市新莊區幸福路六八四號一、二樓,"婦產科,",25.049439,121.450385
3531051521,為宏皮膚科診所,私立西醫診所,西醫專科診所,新北市新店區,286655332,新北市新店區北新路三段一一八號,"皮膚科,",24.981591,121.541871
3531051549,民康眼科診所,私立西醫診所,西醫專科診所,新北市新店區,222113063,新北市新店區安康路二段六十六號,"眼科,",24.9637039,121.5147275
3531051567,王慶祥小兒科診所,私立西醫診所,西醫專科診所,新北市新店區,229106485,新北市新店區北新路一段五十六號一樓,"兒科,",24.966393,121.54127
3531052635,林建良耳鼻喉科診所,私立西醫診所,西醫專科診所,新北市新店區,29131313,新北市新店區中正路158號1樓,"家庭醫學科,耳鼻喉科,",24.971919,121.54141
3531052715,和成診所,私立西醫診所,西醫醫務室,新北市新店區,86660443,新北市新店區安成街二十六號,"家庭醫學科,內科,",24.9609318,121.5101209
3531052760,欣和診所,私立西醫診所,西醫醫務室,新北市新店區,29401103,新北市新店區安和路三段一五一號,,24.9855019,121.516587
3531052797,潘如瑾婦產科診所,私立西醫診所,西醫專科診所,新北市新店區,02 29161718,新北市新店區民權路61號1樓2樓,"婦產科,",24.9829187,121.5393041
3531052804,林逢慶診所,私立西醫診所,西醫醫務室,新北市新店區,02 22156150,新北市新店區安康路三段21號1樓,"內科,",24.9532729,121.49356
3531052831,幼安小兒科診所,私立西醫診所,西醫專科診所,新北市新店區,02 86660909,新北市新店區安康路二段九十九號,"兒科,",24.9625514,121.5129057
3531052859,邱眼科診所,私立西醫診所,西醫專科診所,新北市新店區,02-29112580,新北市新店區中正路二二二號二樓,"眼科,",24.9727905,121.5402959
3531052966,佑康聯合診所,私立西醫診所,西醫醫務室,新北市新店區,22153239,新北市新店區安康路三段十七號一 樓,"內科,",24.9533779,121.493675
3531053052,維霖內科診所,私立西醫診所,西醫專科診所,新北市新店區,02-89147799,新北市新店區建國路6-1號1、2樓,"內科,",24.9734436,121.5399769
3531053098,九宜診所,私立西醫診所,西醫醫務室,新北市新店區,02-89147665,新北市新店區北宜路一段五十二號一樓,,24.956252,121.538197
3531053123,我的診所,私立西醫診所,西醫專科診所,新北市新店區,286654138,新北市新店區民族路183號1樓,"內科,",24.9763486,121.5373942
3531053132,全康診所,私立西醫診所,西醫診所,新北市新店區,282180607,新北市新店區溪園路379號1樓、383號1樓,,24.9773169,121.5237774
3531053141,安立診所,私立西醫診所,西醫診所,新北市新店區,222177669,新北市新店區北宜路二段28號1樓,,24.9514696,121.5481521
3531053178,安民診所,私立西醫診所,西醫醫務室,新北市新店區,222129283,新北市新店區安民街235號,,24.9719899,121.5170481
3531053187,樂河診所,私立西醫診所,西醫醫務室,新北市新店區,289146011,新北市新店區環河路72號3樓,,24.963006,121.537253
3531053212,曾俊睿小兒科診所,私立西醫診所,西醫專科診所,新北市新店區,229137201,新北市新店區寶橋路54號1、2樓,"兒科,",24.9754388,121.5460839
3531053249,民道診所,私立西醫診所,西醫診所,新北市新店區,229106777,新北市新店區北新路三段107號1樓、2樓、3樓,,24.982155,121.541144
3531053285,國城診所,私立西醫診所,西醫診所,新北市新店區,229175941,新北市新店區北新路二段200號2、3樓,"內科,",24.9767187,121.543127
3531053294,新店大愛眼科診所,私立西醫診所,西醫診所,新北市新店區,229150538,新北市新店區北新路三段2號1、2樓,"眼科,",24.9790523,121.5425195
3531053329,活泉診所,私立西醫診所,西醫診所,新北市新店區,229106339,新北市新店區北新路二段182號2樓,,24.976034,121.543132
3531053338,新眼光眼科診所,私立西醫診所,西醫診所,新北市新店區,282111908,新北市新店區北新路二段14號,"眼科,",24.9711562,121.5428967
3531050775,睛彩眼科診所,私立西醫診所,西醫專科診所,新北市新店區,02 29101760,新北市新店區北新路一段３２３號,"眼科,",24.9684013,121.5414587
3531050784,黃宏超眼科診所,私立西醫診所,西醫專科診所,新北市新店區,02 29127480,新北市新店區力行路2號1樓,"眼科,",24.9647429,121.539897
3531050908,林浩翔診所,私立西醫診所,西醫醫務室,新北市新店區,02 9123161,新北市新店區中正路１９８號,,24.972768,121.5408292
3531050944,顏秀吉婦產科診所,私立西醫診所,西醫專科診所,新北市新店區,02 9151179,新北市新店區民權路３９號２Ｆ,"家庭醫學科,婦產科,",24.982651,121.54057
3531050962,惠安診所,私立西醫診所,西醫醫務室,新北市新店區,02 9172930,新北市新店區北新路三段１６號,,24.9793,121.5424615
3531050971,汪耳鼻喉科診所,私立西醫診所,西醫專科診所,新北市新店區,02 29177032,新北市新店區北新路三段82號7樓之3號,"耳鼻喉科,",24.9805589,121.542079
3531050999,高兒科診所,私立西醫診所,西醫醫務室,新北市新店區,02 22121545,新北市新店區安成街３８號,"兒科,",24.9612641,121.5097922
3531051094,群惠耳鼻喉科診所,私立西醫診所,西醫專科診所,新北市新店區,29139060,新北市新店區中正路263-1號,"耳鼻喉科,",24.9737076,121.5385333
3531051147,吳耳鼻喉科診所,私立西醫診所,西醫專科診所,新北市新店區,29151245,新北市新店區民族路６１號,"耳鼻喉科,",24.9783028,121.5398314
3531051192,劉建梅診所,私立西醫診所,西醫醫務室,新北市新店區,229124106,新北市新店區中正路20、22號,"內科,神經科,",24.9696915,121.5453143
3531051254,文玉小兒科診所,私立西醫診所,西醫專科診所,新北市新店區,02 29104898,新北市新店區建國路７０號,"兒科,",24.976131,121.540647
3531051290,李亭鋒耳鼻喉科診所,私立西醫診所,西醫專科診所,新北市新店區,286660991,新北市新店區安康路二段123-1號1樓,"家庭醫學科,耳鼻喉科,",24.9613804,121.5125967
3531051325,富森診所,私立西醫診所,西醫醫務室,新北市新店區,286658711,新北市新店區三民路９７號,,24.971739,121.535314
3531051398,楊龍駿婦產科診所,私立西醫診所,西醫專科診所,新北市新店區,286665091,新北市新店區安康路二段142巷16號1樓,"婦產科,",24.9547531,121.4969436
3531051432,蕭仁哲婦產科診所,私立西醫診所,西醫專科診所,新北市新店區,229158090,新北市新店區北新路三段165號1、2、3、4樓及167號1、2、3、4樓,"婦產科,",24.9838375,121.5410069
3531051441,陳沛生耳鼻喉科診所,私立西醫診所,西醫診所,新北市新店區,(02)2917-8067,新北市新店區北新路二段三十九號,"耳鼻喉科,",24.9726867,121.5428004
3531051450,慧鴻小兒科診所,私立西醫診所,西醫專科診所,新北市新店區,229155124,新北市新店區北新路二段一八九之一號,"兒科,",24.977836,121.542459
3531044464,民揚診所,私立西醫診所,西醫專科診所,新北市中和區,22267611,新北市中和區中山路三段132號1、２樓,"耳鼻喉科,",25.006339,121.4740027
3531044491,嘉仁診所,私立西醫診所,西醫診所,新北市中和區,29521878,新北市中和區華順街１３２號１樓,,24.9961047,121.465002
3531044535,唯安診所,私立西醫診所,西醫醫務室,新北市中和區,29479165,新北市中和區景新街四五五號一.二樓,"內科,",24.988416,121.513319
3531044553,翰霖耳鼻喉科診所,私立西醫診所,西醫專科診所,新北市中和區,22462238,新北市中和區景安路202號,"耳鼻喉科,",24.9912084,121.5040349
3531044615,廣祥診所,私立西醫診所,西醫專科診所,新北市中和區,86683090,新北市中和區興南路２段２７號１樓後半部及２９號１、２樓,"兒科,",24.9962178,121.4853103
3531044624,新柏氏診所,私立西醫診所,西醫醫務室,新北市中和區,82455557,新北市中和區中山路二段348巷8號5樓,,25.005696,121.505026
3531044633,王俊傑診所,私立西醫診所,西醫醫務室,新北市中和區,29293636,新北市中和區中安街8號,"兒科,",25.0033823,121.513455
3531044642,佳和診所,私立西醫診所,西醫專科診所,新北市中和區,22475588,新北市中和區光華街七號一樓,"外科,",25.0043837,121.5043362
3531044651,莊福仁內科診所,私立西醫診所,西醫專科診所,新北市中和區,02-29457550,新北市中和區興南路一段142-6號,"內科,",24.9872728,121.5084314
3531044722,民治診所,私立西醫診所,西醫診所,新北市中和區,22227598,新北市中和區中山路三段129號1樓,,25.0059702,121.474216
3531044731,中和大愛眼科診所,私立西醫診所,西醫診所,新北市中和區,86683113,新北市中和區興南路一段六二號一.二樓,"眼科,",24.9903899,121.5107533
3531044768,黃基家小兒科診所,私立西醫診所,西醫診所,新北市中和區,22485433,新北市中和區景平路485號,"兒科,",24.9975892,121.5001252
3531044839,育晨診所,私立西醫診所,西醫診所,新北市中和區,29459393,新北市中和區自立路37號1樓,,24.9953125,121.5222279
3531050024,詹增基婦產科診所,私立西醫診所,西醫專科診所,新北市新店區,02 9156678,新北市新店區北新路一段１９１號,"婦產科,",24.964815,121.540114
3531050033,何耳鼻喉科診所,私立西醫診所,西醫專科診所,新北市新店區,02 9132269,新北市新店區北新路三段１３８號,"耳鼻喉科,",24.982027,121.541714
3531050104,文宏診所,私立西醫診所,西醫醫務室,新北市新店區,02 9187308,新北市新店區北新路一段195號1樓 195號2樓,"家庭醫學科,",24.958785,121.537422
3531050140,譚內科小兒科診所,私立西醫診所,西醫專科診所,新北市新店區,02 9128188,新北市新店區北新路一段２７１巷４－６號,"內科,兒科,",24.96692,121.540598
